~Version ---------------------------------------------------
VERS.   2.0 : CWLS log ASCII Standard -VERSION 2.0
WRAP.    NO : One line per depth step
DLM . SPACE : Column Data Section Delimiter
~Well ------------------------------------------------------
STRT.ft               5337.35725 : START DEPTH
STOP.ft        7806.412649999999 : STOP DEPTH
STEP.ft       15.433500000000095 : STEP
NULL.                   -9999.25 : NULL VALUE
COMP.                            : COMPANY
WELL.                     bypass : WELL
FLD .                            : FIELD
LOC .                            : LOCATION
PROV.                            : PROVINCE
CNTY.                            : COUNTY
STAT.                            : STATE
CTRY.                            : COUNTRY
SRVC.                            : SERVICE COMPANY
DATE. 2019-07-30 20:43:33.131485 : DATE
UWI .                            : UNIQUE WELL ID
API .                            : API NUMBER
~Curve Information -----------------------------------------
Depth              .ft          : 
KICh               .psi*in^1/2  : 
KICvup             .psi*in^1/2  : 
KICvdown           .psi*in^1/2  : 
nuh                .            : 
Eh                 .psi         : 
nuv                .            : 
Ev                 .psi         : 
Gv                 .psi         : 
Cl                 .ft/min^1/2  : 
Sigma_h            .psi         : 
SigmaH             .psi         : 
SigmaV             .psi         : 
Pore Pressure      .psi         : 
Biot               .            : 
Porosity           .            : 
Permeability       .nD          : 
SoPhi              .            : 
TensileStrength    .psi         : 
Grad_SigmaH        .psi/ft      : 
Grad_Sigma_h       .psi/ft      : 
Std_KICh           .psi*in^1/2  : 
Std_KICvup         .psi*in^1/2  : 
Std_KICvdown       .psi*in^1/2  : 
Std_nuh            .            : 
Std_Eh             .psi         : 
Std_nuv            .            : 
Std_Ev             .psi         : 
Std_Gv             .psi         : 
Std_Cl             .ft/min^1/2  : 
Std_Sigma_h        .psi         : 
Std_SigmaH         .psi         : 
Std_SigmaV         .psi         : 
Std_Pore Pressure  .psi         : 
Std_Biot           .            : 
Std_Porosity       .            : 
Std_Permeability   .nD          : 
Std_SoPhi          .            : 
Std_TensileStrength.psi         : 
Std_Depth          .ft          : 
~Params ----------------------------------------------------
~Other -----------------------------------------------------
Exported from homogenization method
~ASCII -----------------------------------------------------
# ...
 7435.6246500000 2494.0606547364 4280.6253061138 2976.7795336555 0.1967581653 6088292.1858990928 0.1756257056 3839611.1628358592 1633096.4325522862 0.0004820954 5243.8006868819 5752.5327233415 7830.0448009899 4089.4557443559 0.9000000000 0.0477787043 1457.4844996057 0.0000000000 1500.5094405826 0.7736448509 0.7052266533 18.8254198258 18.8254198258 18.8254198258 0.0049822361 102376.6774703366 0.0045476184 73829.9162827298 35898.5655309799 0.0001012680 0.1299206351 0.1301682926 0.0000000000 1376.5419972213 0.0000000000 0.0008490180 12.3389856218 0.0000000000 18.5406887548 7435.6246500000
 7453.2050000000 2609.4266616398 4060.4973469077 3754.0190776982 0.2166905521 6257642.3019042900 0.1976750907 4296596.2369079292 1793452.1705942275 0.0001834257 5360.7067908774 5875.0234584441 7849.8580807844 4099.1247343633 0.9000000000 0.0458281687 1146.9951196071 0.0000000000 1580.6396264349 0.7882546446 0.7192485368 18.7898830251 18.7898830251 18.7898830251 0.0049822136 102308.4719984971 0.0046982859 79370.0160206577 38246.7745591828 0.0000769863 0.1187347456 0.1189943122 0.0000000000 1270.1293524893 0.0000000000 0.0008485393 12.0957262472 0.0000000000 18.2976035681 7453.2050000000
 7470.7853500000 2552.9855271447 3519.9634460757 3841.1654996955 0.2179099591 6536428.5543612735 0.2030702638 4308846.9740109108 1790449.7839789202 0.0002465431 5490.6460928763 6027.3383586195 7869.7432556698 4108.7949066569 0.9000000000 0.0400903237 976.6629534689 0.0000000000 1607.2471969578 0.8067877842 0.7349489827 18.7986733000 18.7986733000 18.7986733000 0.0049821759 102325.3283247490 0.0046409917 76806.1895542474 36999.9825442629 0.0000761200 0.1175802376 0.1178424625 0.0000000000 1257.0940977207 0.0000000000 0.0008486567 12.1429854924 0.0000000000 18.3582325210 7470.7853500000
 7488.3656500000 2548.0210336018 3494.8022938237 3613.6256375389 0.2082689248 6069322.2670546575 0.1902938209 3816232.2202861267 1602689.9940778657 0.0005139879 5437.7415144116 5940.0570289826 7889.6596948175 4118.4639450123 0.9000000000 0.0441173559 1187.1214503102 0.0000000000 1558.4146533734 0.7932381118 0.7261586531 18.8253282080 18.8253282080 18.8253282080 0.0049821535 102376.4868941504 0.0046142589 69624.5882495233 33864.4492939376 0.0000992375 0.1280747413 0.1283259629 0.0000000000 1353.9283414219 0.0000000000 0.0008491977 12.2990497684 0.0000000000 18.5405401554 7488.3656500000
 7505.9459500000 2468.0980608707 3240.4137900608 3568.5707062155 0.1995263619 6143968.2829211233 0.1831403157 3712384.5003742524 1568773.2922832645 0.0002653474 5431.1206522015 5943.3201734426 7909.6168191184 4128.1329082837 0.9000000000 0.0422905334 1238.6480108269 0.0000000000 1540.9044882715 0.7918149442 0.7235757742 18.5777752085 18.5777752085 18.5777752085 0.0049128419 100974.8512268756 0.0044143688 67467.8130931737 32764.0206717565 0.0000969279 0.1249758004 0.1252262841 0.0000000000 1321.6892700494 0.0000000000 0.0008372956 12.2157557009 0.0000000000 18.3875763061 7505.9459500000
 7523.5262500000 2484.6244719033 3172.8758300697 4238.4536824153 0.1861587344 5508557.6455775816 0.1594064776 3206425.8279405269 1382099.9773962630 0.0005030495 5245.3320793651 5709.7351550857 7929.4180529906 4137.8018715551 0.9000000000 0.0524229981 1794.6590439392 0.0000000000 1428.2293988033 0.7589174232 0.6971906397 18.8486726162 18.8486726162 18.8486726162 0.0049825310 102421.3454645612 0.0043759117 68298.1823078015 33074.9510524405 0.0000979684 0.1261255671 0.1263809515 0.0000000000 1334.6524898023 0.0000000000 0.0008490745 12.5012062907 0.0000000000 18.6984574040 7523.5262500000
 7541.1065500000 2477.7305100413 3110.5732020745 3459.5646476365 0.1891977211 5806357.0288980929 0.1638138785 3459164.1926006782 1485790.7059902886 0.0002779063 5276.5190790247 5764.7774170469 7948.9786913518 4147.4708348265 0.9000000000 0.0508427211 1710.6337482176 0.0000000000 1446.7348616937 0.7644471509 0.6997009052 18.8530091942 18.8530091942 18.8530091942 0.0049826804 102429.6817391233 0.0043250562 67846.0986730565 32827.8234919799 0.0000976042 0.1256162610 0.1258727297 0.0000000000 1329.4402471679 0.0000000000 0.0008490125 12.5174334006 0.0000000000 18.7276949259 7541.1065500000
 7558.6868500000 2490.9156701810 3095.0004674970 3023.9528571401 0.1896164302 5733776.1112183752 0.1644587597 3445112.3196762875 1479238.2889896303 0.0002830338 5281.9515839484 5763.9368663963 7968.5656088054 4157.1397980979 0.9000000000 0.0518894048 1734.9301403344 0.0000000000 1442.7908594166 0.7625579655 0.6987922226 18.8526428544 18.8526428544 18.8526428544 0.0049826738 102428.9764862782 0.0043150647 68885.4118484953 33335.3637931004 0.0000981112 0.1260975765 0.1263530637 0.0000000000 1335.2187054997 0.0000000000 0.0008489834 12.5225719294 0.0000000000 18.7252574027 7558.6868500000
 7576.2671500000 2470.9534861560 3333.5805384284 3274.2208053918 0.1848515481 5696726.3679837035 0.1585868031 3396483.2944700457 1465732.4245044813 0.0005090238 5242.0628665696 5722.8595011268 7988.0943991368 4166.8096576850 0.9000000000 0.0535484622 1873.0318551782 0.0000000000 1415.6710834857 0.7553666453 0.6919057582 18.8529626576 18.8529626576 18.8529626576 0.0049825400 102429.5895058403 0.0043291160 68617.4805190437 33293.5346616009 0.0000980829 0.1261225615 0.1263780071 0.0000000000 1335.2457219039 0.0000000000 0.0008490710 12.5598269347 0.0000000000 18.7274680480 7576.2671500000
 7593.8474500000 2480.1759274568 2844.0558817247 3148.5737317751 0.1873096142 5741120.3830203852 0.1615002620 3432392.4649908333 1477466.1295143850 0.0002216740 5282.5329781030 5766.0732707477 8007.6622456688 4176.4789807341 0.9000000000 0.0526870001 1808.3882188102 0.0000000000 1428.6392965628 0.7593085467 0.6956332759 18.8469329654 18.8469329654 18.8469329654 0.0049827645 102418.0106319214 0.0043251458 69628.0552855758 33629.7914056501 0.0000984236 0.1264205727 0.1266753316 0.0000000000 1338.9312439471 0.0000000000 0.0008488506 12.4521655097 0.0000000000 18.6864304196 7593.8474500000
 7611.4277500000 2519.7112837196 3461.7205455730 3757.6787658790 0.1914000939 5768643.7306261659 0.1630405013 3503752.4589962955 1505648.2636507645 0.0002789694 5296.2192877596 5780.4095912844 8027.1424223472 4186.1479440055 0.9000000000 0.0538749007 1774.6731162984 0.0000000000 1434.3147254661 0.7594382790 0.6958246812 18.5878443211 18.5878443211 18.5878443211 0.0049129964 100994.1942594819 0.0042603161 68469.1316846287 33255.3513882613 0.0000970990 0.1247221233 0.1249732397 0.0000000000 1320.9519293076 0.0000000000 0.0008371126 12.3283720417 0.0000000000 18.4558711449 7611.4277500000
 7629.0080500000 2476.9578275857 3422.3666228240 4551.5939560822 0.1809479003 5495791.3282832708 0.1492604558 3161138.0771867991 1374555.5246762903 0.0005170701 5231.9519509969 5697.3231436525 8046.6610566341 4195.8169072769 0.9000000000 0.0569021305 2029.1220620853 0.0000000000 1373.1951129183 0.7467973695 0.6857971465 18.8781835685 18.8781835685 18.8781835685 0.0049840007 102478.1080741790 0.0040888448 63969.5135723550 30779.3915837822 0.0000950209 0.1223595107 0.1226230781 0.0000000000 1294.7576084130 0.0000000000 0.0008487527 12.4684391324 0.0000000000 18.8963867848 7629.0080500000
 7646.5883500000 2495.8616403016 4206.9812145664 3558.5213054002 0.1855515908 5503545.9593699323 0.1544946035 3156185.2271551355 1366066.8908536099 0.0002906173 5306.8047858981 5771.0229609756 8065.8923926411 4205.4858705483 0.9000000000 0.0547394715 1889.0797190589 0.0000000000 1400.5202825617 0.7547186663 0.6940094776 18.8512379176 18.8512379176 18.8512379176 0.0049825904 102426.2834474054 0.0043677370 66945.4969943194 32462.4962210554 0.0000972959 0.1254341528 0.1256909733 0.0000000000 1326.6476582631 0.0000000000 0.0008491619 12.4957783767 0.0000000000 18.7155465103 7646.5883500000
 7664.1686500000 2471.4311139398 3317.2355966166 4116.3860193884 0.1843861819 5564625.4081660314 0.1555192946 3166963.8797259582 1369400.3768541121 0.0002877197 5337.7591437008 5807.5911540049 8085.5322181978 4215.1548338197 0.9000000000 0.0529085217 1880.6876233838 0.0000000000 1410.5192367292 0.7577587889 0.6964563787 18.8688164199 18.8688164199 18.8688164199 0.0049828925 102460.0799559899 0.0042214249 64846.5034422407 31374.9050398207 0.0000959482 0.1236897790 0.1239504347 0.0000000000 1308.2976769749 0.0000000000 0.0008491148 12.6694933905 0.0000000000 18.8338991487 7664.1686500000
