~Version ---------------------------------------------------
VERS.   2.0 : CWLS log ASCII Standard -VERSION 2.0
WRAP.    NO : One line per depth step
DLM . SPACE : Column Data Section Delimiter
~Well ------------------------------------------------------
STRT.ft                 5533.575 : START DEPTH
STOP.ft        7763.808250000001 : STOP DEPTH
STEP.ft       14.590000000000146 : STEP
NULL.                   -9999.25 : NULL VALUE
COMP.                            : COMPANY
WELL.                     bypass : WELL
FLD .                            : FIELD
LOC .                            : LOCATION
PROV.                            : PROVINCE
CNTY.                            : COUNTY
STAT.                            : STATE
CTRY.                            : COUNTRY
SRVC.                            : SERVICE COMPANY
DATE. 2019-07-30 20:43:20.008820 : DATE
UWI .                            : UNIQUE WELL ID
API .                            : API NUMBER
~Curve Information -----------------------------------------
Depth              .ft          : 
KICh               .psi*in^1/2  : 
KICvup             .psi*in^1/2  : 
KICvdown           .psi*in^1/2  : 
nuh                .            : 
Eh                 .psi         : 
nuv                .            : 
Ev                 .psi         : 
Gv                 .psi         : 
Cl                 .ft/min^1/2  : 
Sigma_h            .psi         : 
SigmaH             .psi         : 
SigmaV             .psi         : 
Pore Pressure      .psi         : 
Biot               .            : 
Porosity           .            : 
Permeability       .nD          : 
SoPhi              .            : 
TensileStrength    .psi         : 
Grad_SigmaH        .psi/ft      : 
Grad_Sigma_h       .psi/ft      : 
Std_KICh           .psi*in^1/2  : 
Std_KICvup         .psi*in^1/2  : 
Std_KICvdown       .psi*in^1/2  : 
Std_nuh            .            : 
Std_Eh             .psi         : 
Std_nuv            .            : 
Std_Ev             .psi         : 
Std_Gv             .psi         : 
Std_Cl             .ft/min^1/2  : 
Std_Sigma_h        .psi         : 
Std_SigmaH         .psi         : 
Std_SigmaV         .psi         : 
Std_Pore Pressure  .psi         : 
Std_Biot           .            : 
Std_Porosity       .            : 
Std_Permeability   .nD          : 
Std_SoPhi          .            : 
Std_TensileStrength.psi         : 
Std_Depth          .ft          : 
~Params ----------------------------------------------------
~Other -----------------------------------------------------
Exported from homogenization method
~ASCII -----------------------------------------------------
# ...
 5737.8350000000 2673.3627440129 3305.0388828554 3454.9642334362 0.2186605720 6436471.1904735053 0.2148128811 5284119.8452135166 2173216.9974075807 0.0004726832 3577.7940777501 4105.9535454885 5934.7612725840 2409.7861274846 0.9000000000 0.0450529634 826.4274375504 0.0000000000 1688.1508964553 0.7155928230 0.6235442598 20.5876167752 20.5876167752 20.5876167752 0.0054735452 112289.9795902980 0.0054735452 104918.5896690183 51953.7231069963 0.0000853719 0.1363259361 0.1365718335 0.0000000000 1502.0919550876 0.0000000000 0.0009309133 13.1202883536 0.0000000000 19.7230990727 5737.8350000000
 5752.4250000000 2682.4919731860 3249.0539091286 3232.9540681007 0.2151317980 6162068.3967116280 0.2120365704 4918377.8871181831 2027497.4691193278 0.0004889345 3591.6313229645 4098.7424368909 5951.0213793851 2415.9136943112 0.9000000000 0.0478370258 952.0221641485 0.0000000000 1654.6320022722 0.7125242723 0.6243682139 20.2499064155 20.2499064155 20.2499064155 0.0053817838 110418.5604696909 0.0053636331 101897.2473565402 49408.9068340914 0.0000831560 0.1329275694 0.1331714311 0.0000000000 1464.0447025887 0.0000000000 0.0009152376 12.9155975504 0.0000000000 19.4497518379 5752.4250000000
 5767.0150000000 2692.6768331271 3280.5505287349 3257.7339714428 0.2112237598 5892063.5533911996 0.2080840111 4761949.8586659133 1970099.4488361040 0.0004945398 3546.3802913559 4032.8357051975 5967.1919642661 2422.0412611378 0.9000000000 0.0506259111 1060.0642010381 0.0000000000 1631.7841657771 0.6992934309 0.6149420959 20.5980661861 20.5980661861 20.5980661861 0.0054735835 112309.9815668801 0.0054733167 100798.3867780269 49740.0425314856 0.0000840677 0.1346634460 0.1349124923 0.0000000000 1482.0013377993 0.0000000000 0.0009310406 13.1389744381 0.0000000000 19.7964098685 5767.0150000000
 5781.6050000000 2704.7082765868 3863.5683182856 3713.2714284736 0.2268817562 6462152.3873710604 0.2195514311 5219834.8205573503 2136597.4452431370 0.0004810116 3675.2419278561 4201.9554725450 5983.4297447929 2428.1688279644 0.9000000000 0.0449345565 845.3261216207 0.0000000000 1687.0686587263 0.7267801022 0.6356784886 20.5789771814 20.5789771814 20.5789771814 0.0054734932 112273.4445228961 0.0054586089 106004.2868235527 51959.6643726060 0.0000854472 0.1363367485 0.1365825301 0.0000000000 1502.6604145375 0.0000000000 0.0009308555 13.1034498796 0.0000000000 19.6623904517 5781.6050000000
 5796.1950000000 2737.8879088766 4550.0071584812 4046.9421266946 0.2366302270 6594705.6495856233 0.2254522375 5452514.4490639977 2218165.2991822883 0.0004746866 3716.7748085676 4250.0551300179 5999.7469552291 2434.2963947910 0.9000000000 0.0435724590 777.6708902564 0.0000000000 1713.3283498902 0.7332491626 0.6412439210 20.5751036127 20.5751036127 20.5751036127 0.0054734291 112266.0391071999 0.0054726214 105560.7603594713 52844.1746611591 0.0000857346 0.1368189860 0.1370638611 0.0000000000 1507.8933506654 0.0000000000 0.0009308415 13.0981501474 0.0000000000 19.6348686900 5796.1950000000
 5810.7850000000 2724.6489605404 3462.1091447069 4275.0785687184 0.2287429810 6654784.9827911565 0.2211155796 5453158.3080625208 2229857.5630931044 0.0004797670 3693.4229341996 4235.0158536231 6016.1610246384 2440.4251130912 0.9000000000 0.0453115870 841.4444708762 0.0000000000 1690.6092856610 0.7288199191 0.6356151422 20.6014053021 20.6014053021 20.6014053021 0.0054740975 112316.4193380141 0.0053292509 101999.3700854208 49684.7051142286 0.0000839830 0.1342095377 0.1344594470 0.0000000000 1478.4126657136 0.0000000000 0.0009308365 13.1431005803 0.0000000000 19.8182122623 5810.7850000000
 5825.1131000000 2704.6615010991 3490.8827638869 3510.0437526497 0.2049627213 6017734.7088541510 0.1931826489 4558298.2654589089 1909042.6954795825 0.0005153537 3559.2378647465 4058.6503861969 6031.9589148419 2446.4427726038 0.9000000000 0.0558029532 1335.9632294715 0.0000000000 1566.3871999580 0.6967504865 0.6110160959 20.9796443333 20.9796443333 20.9796443333 0.0055709245 114330.4744630964 0.0054393854 99416.4701568310 48407.1244665320 0.0000842306 0.1350634226 0.1353207759 0.0000000000 1485.8913571457 0.0000000000 0.0009475182 13.4063535779 0.0000000000 20.2644024161 5825.1131000000
 5839.1793500000 2659.6202103688 3082.3724082352 3147.6760901737 0.2023012778 6144672.7505081613 0.1978091768 4649959.6690405821 1940504.4051081894 0.0005079954 3595.1499315881 4106.2258876742 6047.4180928780 2452.3504668605 0.9000000000 0.0522642596 1189.2257009793 0.0000000000 1592.1663908778 0.7032196892 0.6156943838 20.9809613522 20.9809613522 20.9809613522 0.0055707308 114332.9895948419 0.0055145879 98823.6531213609 49132.1237030818 0.0000845539 0.1357126339 0.1359687800 0.0000000000 1492.4713971428 0.0000000000 0.0009476383 13.4158012826 0.0000000000 20.2738430465 5839.1793500000
 5853.2456500000 2670.3092094209 3827.3372546802 3393.1343463846 0.2123067953 6754863.9137003636 0.2011327191 5371506.1970061604 2228928.5898198555 0.0004849963 3599.0615040525 4156.2524676070 6062.9679331229 2458.2581816114 0.9000000000 0.0489447515 1018.2361242004 0.0000000000 1643.2332402009 0.7100765483 0.6148830443 20.9102483398 20.9102483398 20.9102483398 0.0055703003 114197.6491736024 0.0055703003 114960.9404283733 60838.1032242656 0.0000642865 0.1424960216 0.1426649677 0.0000000000 1685.9125190016 0.0000000000 0.0009468614 13.2972495887 0.0000000000 19.7770789730 5853.2456500000
 5867.3119000000 2797.4866365411 3980.4864640363 5305.4632049572 0.2631816089 7939419.7401659079 0.2531083521 7260325.3403074155 2888994.7997277123 0.0004423259 3892.5937234244 4521.1193197662 6078.8082615173 2464.1658756452 0.9000000000 0.0366334570 491.4550413600 0.0000000000 1815.3336361098 0.7705605901 0.6634373270 20.9360644632 20.9360644632 20.9360644632 0.0055702389 114247.0053734290 0.0055702389 114528.4107040841 57524.4988521901 0.0000638644 0.1416497287 0.1418199025 0.0000000000 1675.5714838497 0.0000000000 0.0009473535 13.3154303188 0.0000000000 19.9604086473 5867.3119000000
 5881.3781500000 2737.3690890096 5046.6924628188 4525.9217931574 0.2435149614 7129392.2255819039 0.2334965207 6017326.6177500971 2434882.9436702654 0.0004654525 3823.5300895728 4396.8558996481 6094.7075897908 2470.0735693110 0.9000000000 0.0409184541 684.9315369385 0.0000000000 1741.5653854608 0.7475893893 0.6501078475 20.9168487961 20.9168487961 20.9168487961 0.0055702601 114210.2553913378 0.0055549361 112922.0739865062 55776.4844945438 0.0000634682 0.1408697707 0.1410407219 0.0000000000 1665.9322653846 0.0000000000 0.0009470109 13.2970854270 0.0000000000 19.8244082567 5881.3781500000
 5895.4444000000 2778.8889812476 3781.2308549773 3510.7543169749 0.2451514781 6801596.9794844491 0.2383470803 5822089.6794172283 2347995.2097600605 0.0004761785 3837.8305723417 4384.0771213726 6110.5342341270 2475.9812637386 0.9000000000 0.0429036185 719.1793444507 0.0000000000 1726.6002592235 0.7436381083 0.6509824047 20.5693501859 20.5693501859 20.5693501859 0.0054733693 112255.0022281258 0.0054524539 110621.5486404203 54562.0266122859 0.0000623654 0.1384306896 0.1385987926 0.0000000000 1637.0694904262 0.0000000000 0.0009308112 13.0782079869 0.0000000000 19.5953716298 5895.4444000000
 5909.5106000000 2761.0042030964 3534.2101834566 3125.6021282672 0.2526474149 7480524.9693619013 0.2464372182 6756881.9842951726 2701933.7263063132 0.0004502596 3856.6663033599 4453.8435202100 6126.4000233818 2481.8895892992 0.9000000000 0.0377830260 536.9712381210 0.0000000000 1782.0053705580 0.7536738356 0.6526202531 20.9125381794 20.9125381794 20.9125381794 0.0055701570 114201.9797496763 0.0055701570 120555.7085983023 61685.7051538214 0.0000646453 0.1430295632 0.1431979029 0.0000000000 1693.3752082148 0.0000000000 0.0009470835 13.2755115850 0.0000000000 19.7950710201 5909.5106000000
 5923.5768500000 2749.9912275362 3238.2843490029 3730.7396496638 0.2477734917 7583764.2611578861 0.2452358466 6729140.2125241961 2699676.2771051112 0.0004578625 3873.3581583374 4481.1418876400 6142.3734463824 2487.7976197721 0.9000000000 0.0391529409 584.7190338785 0.0000000000 1762.0476182733 0.7564925722 0.6538883949 20.9359152017 20.9359152017 20.9359152017 0.0055702597 114246.7043942097 0.0055693387 117039.7331735385 58880.0340502944 0.0000641655 0.1421779753 0.1423475156 0.0000000000 1682.4250193130 0.0000000000 0.0009472995 13.3121606439 0.0000000000 19.9599101086 5923.5768500000
