~Version ---------------------------------------------------
VERS.   2.0 : CWLS log ASCII Standard -VERSION 2.0
WRAP.    NO : One line per depth step
DLM . SPACE : Column Data Section Delimiter
~Well ------------------------------------------------------
STRT.ft               5683.82875 : START DEPTH
STOP.ft        7698.577649999999 : STOP DEPTH
STEP.ft       15.128450000000157 : STEP
NULL.                   -9999.25 : NULL VALUE
COMP.                            : COMPANY
WELL.                     bypass : WELL
FLD .                            : FIELD
LOC .                            : LOCATION
PROV.                            : PROVINCE
CNTY.                            : COUNTY
STAT.                            : STATE
CTRY.                            : COUNTRY
SRVC.                            : SERVICE COMPANY
DATE. 2019-07-30 20:43:20.519169 : DATE
UWI .                            : UNIQUE WELL ID
API .                            : API NUMBER
~Curve Information -----------------------------------------
Depth              .ft          : 
KICh               .psi*in^1/2  : 
KICvup             .psi*in^1/2  : 
KICvdown           .psi*in^1/2  : 
nuh                .            : 
Eh                 .psi         : 
nuv                .            : 
Ev                 .psi         : 
Gv                 .psi         : 
Cl                 .ft/min^1/2  : 
Sigma_h            .psi         : 
SigmaH             .psi         : 
SigmaV             .psi         : 
Pore Pressure      .psi         : 
Biot               .            : 
Porosity           .            : 
Permeability       .nD          : 
SoPhi              .            : 
TensileStrength    .psi         : 
Grad_SigmaH        .psi/ft      : 
Grad_Sigma_h       .psi/ft      : 
Std_KICh           .psi*in^1/2  : 
Std_KICvup         .psi*in^1/2  : 
Std_KICvdown       .psi*in^1/2  : 
Std_nuh            .            : 
Std_Eh             .psi         : 
Std_nuv            .            : 
Std_Ev             .psi         : 
Std_Gv             .psi         : 
Std_Cl             .ft/min^1/2  : 
Std_Sigma_h        .psi         : 
Std_SigmaH         .psi         : 
Std_SigmaV         .psi         : 
Std_Pore Pressure  .psi         : 
Std_Biot           .            : 
Std_Porosity       .            : 
Std_Permeability   .nD          : 
Std_SoPhi          .            : 
Std_TensileStrength.psi         : 
Std_Depth          .ft          : 
~Params ----------------------------------------------------
~Other -----------------------------------------------------
Exported from homogenization method
~ASCII -----------------------------------------------------
# ...
 6097.6213500000 2772.0156769295 3181.8295319966 3204.2788789877 0.2115217704 5689170.4801141452 0.2106270401 5372031.7636789652 2218558.9186173822 0.0004493154 3562.5257927969 4032.1145875775 6305.3633234678 2560.8955020553 0.9000000000 0.0573818676 1248.1333228377 0.0000000000 1620.1928668468 0.6612602450 0.5842484451 19.9093194200 19.9093194200 19.9093194200 0.0158837293 108601.3656742500 0.0157990691 112840.2098625707 54096.2016413345 0.0001470763 0.2542060684 0.2539812933 0.0000000000 2466.9251785483 0.0000000000 0.0017999923 12.6801050029 0.0000000000 19.0550805888 6097.6213500000
 6113.2641000000 2750.3546331809 3724.3175343999 3284.8324265244 0.2223649110 6172497.5113493297 0.2196768526 5412395.8282627361 2218696.8196373214 0.0004712662 3747.5864823113 4252.5500537955 6322.4530056035 2567.4660572276 0.9000000000 0.0510061155 1024.3690080698 0.0000000000 1649.4918995442 0.6956267526 0.6130254511 19.9006978846 19.9006978846 19.9006978846 0.0158823618 108584.8599410946 0.0158367305 113876.4897579297 54964.8340985547 0.0001265581 0.2397532874 0.2395008265 0.0000000000 2539.0443269789 0.0000000000 0.0018002089 12.6690284969 0.0000000000 18.9946903906 6113.2641000000
 6128.9068500000 2779.1955369138 3579.4823766801 4090.3229291968 0.2203909702 5961225.0747346003 0.2175367454 5581120.6292626401 2290565.7557029901 0.0004545669 3653.7064440950 4142.1749119970 6339.7229410910 2574.0362338982 0.9000000000 0.0537162578 1094.7213453198 0.0000000000 1649.9831263793 0.6758423669 0.5961432493 19.5984478945 19.5984478945 19.5984478945 0.0156340495 106896.1363187193 0.0154347861 110275.9378494613 52413.6009361401 0.0001441032 0.2490003634 0.2487780526 0.0000000000 2416.5854840391 0.0000000000 0.0017715554 12.4828039730 0.0000000000 18.7736454031 6128.9068500000
 6144.5495500000 2778.2780422916 3174.1020794349 3370.1170359632 0.2147485777 5759890.4592227796 0.2114743701 5298012.3182983575 2186295.5294535025 0.0004755098 3633.3539472784 4107.5171251429 6356.7780788448 2580.6056211524 0.9000000000 0.0566829012 1233.1793162453 0.0000000000 1619.1588371689 0.6684814064 0.5913133123 19.9117069209 19.9117069209 19.9117069209 0.0158840121 108605.9426827325 0.0157314795 112151.6700886637 53551.0457053912 0.0001466612 0.2534690749 0.2532436473 0.0000000000 2459.8186758102 0.0000000000 0.0017999907 12.6843812505 0.0000000000 19.0715853115 6144.5495500000
 6160.1922500000 2744.2323619808 3919.6136135117 3457.7703713539 0.2149382540 5960571.9764032941 0.2098327316 5110382.4624135559 2112023.9633702221 0.0005356609 3723.9578770031 4214.5648651975 6373.8139395382 2587.1751909837 0.9000000000 0.0542126522 1185.2749779666 0.0000000000 1613.1779765279 0.6841612557 0.6045197497 19.9078788015 19.9078788015 19.9078788015 0.0158825423 108598.6149455001 0.0156663805 108748.8513707932 52337.0065834382 0.0001253618 0.2376897529 0.2374351317 0.0000000000 2516.4268982600 0.0000000000 0.0018004193 12.6803796744 0.0000000000 19.0447280654 6160.1922500000
 6175.8350000000 2774.9746897190 3906.2349366301 4313.2458991956 0.2279305889 6263673.6025940767 0.2228698512 5652312.7101684883 2308982.6128106755 0.0004827865 3782.6006951289 4292.7006681291 6391.1064123636 2593.7463326259 0.9000000000 0.0501948898 981.1852115309 0.0000000000 1668.8871006612 0.6950802067 0.6124840925 19.9079452829 19.9079452829 19.9079452829 0.0158842291 108598.7348672314 0.0157560223 114345.4997043599 54336.5751146261 0.0001471099 0.2540698765 0.2538449448 0.0000000000 2466.1840989063 0.0000000000 0.0017997935 12.6730753172 0.0000000000 19.0454573418 6175.8350000000
 6191.4777500000 2766.6569370693 4277.8083053493 3540.4995372907 0.2174611230 5885492.4696407476 0.2136551716 5300825.6841813540 2183694.2151211714 0.0004489469 3707.8379073783 4191.2613497053 6408.2177823465 2600.3157402494 0.9000000000 0.0546608387 1165.2015525723 0.0000000000 1627.7629345408 0.6769403879 0.5988615412 19.5930016227 19.5930016227 19.5930016227 0.0156326509 106885.7068590449 0.0154993787 109683.4139280747 52351.1310786774 0.0001238895 0.2348172384 0.2345675365 0.0000000000 2486.3066119725 0.0000000000 0.0017718591 12.4801936387 0.0000000000 18.7355919488 6191.4777500000
 6207.1204500000 2791.9904517444 3427.9748042771 3854.1702993858 0.2164767730 5787594.4476303346 0.2071355583 5102373.5865527755 2112765.4221707974 0.0004778043 3700.7981233407 4176.5650739561 6425.4080985612 2606.8851275036 0.9000000000 0.0570543297 1273.0237036770 0.0000000000 1604.8948742633 0.6728667677 0.5962181906 19.9147902619 19.9147902619 19.9147902619 0.0158861093 108611.8529281179 0.0154513137 111828.3950333349 53557.0542981622 0.0001456867 0.2513378921 0.2511104603 0.0000000000 2440.4716621863 0.0000000000 0.0017998136 12.6540402342 0.0000000000 19.0929257691 6207.1204500000
 6222.7631500000 2764.9752054187 3954.6436029268 3248.9697596673 0.2218496680 6236679.8476106739 0.2159983159 5623827.9289932186 2310658.3499242128 0.0004577823 3756.7781327453 4267.2075260410 6442.3900750906 2613.4556491526 0.9000000000 0.0522177425 1069.9950474217 0.0000000000 1648.0073011250 0.6857415947 0.6037154303 19.9074784659 19.9074784659 19.9074784659 0.0158828938 108597.8400844562 0.0158146334 112577.5971346734 54095.8063288611 0.0001262741 0.2393151864 0.2390622753 0.0000000000 2534.0152627641 0.0000000000 0.0018002091 12.6803489387 0.0000000000 19.0422254480 6222.7631500000
 6238.4059000000 2777.8569154276 3346.4438173772 3231.3380707824 0.2234718823 6093926.6251405161 0.2219294904 5731910.2738723140 2344923.8476978783 0.0004564862 3747.6116048366 4245.6963351455 6459.6257502928 2620.0258387885 0.9000000000 0.0525064466 1034.5423261504 0.0000000000 1660.4057975076 0.6805739164 0.6007322487 19.6019955725 19.6019955725 19.6019955725 0.0156345558 106902.9487350343 0.0152443532 110300.6432434141 53077.7552325277 0.0001436308 0.2478012324 0.2475778426 0.0000000000 2406.1149056784 0.0000000000 0.0017715880 12.4767644838 0.0000000000 18.7977758396 6238.4059000000
 6254.0486500000 2732.8719346563 3258.8998398464 3857.7568470483 0.1919593662 5248772.5448104693 0.1765873591 4293596.9396036714 1823971.9723897655 0.0004712959 3567.2188588614 4007.5671369547 6476.6273144730 2626.5952466007 0.9000000000 0.0664521618 1752.0577120855 0.0000000000 1487.3955386644 0.6407956447 0.5703855308 20.6319015807 20.6319015807 20.6319015807 0.0164315315 112374.8510477810 0.0151671348 104729.4620410065 49769.5432936546 0.0001458187 0.2513772519 0.2511340940 0.0000000000 2441.2972637879 0.0000000000 0.0018606134 13.0688131738 0.0000000000 20.0301962519 6254.0486500000
 6268.9258500000 2802.0523411270 5405.6110980417 3930.0538378251 0.2118237046 5655203.3319175215 0.1931725035 4784418.9558446547 2003019.5253463096 0.0005952860 3689.4506250399 4156.1194408376 6492.3875227975 2632.8432723910 0.9000000000 0.0610964129 1433.4166668779 0.0000000000 1561.2253233084 0.6629715425 0.5885299513 20.5811627813 20.5811627813 20.5811627813 0.0164212394 112277.6044160805 0.0163059736 115635.5856448595 55150.4648868947 0.0001302527 0.2468832459 0.2466211826 0.0000000000 2614.0385540204 0.0000000000 0.0018612778 13.1086942952 0.0000000000 19.6785743407 6268.9258500000
 6283.0375000000 2749.1090035744 3375.9558209934 4123.2307419040 0.2216802797 6131213.0106977271 0.2208317225 5627986.3892114405 2304784.1086969236 0.0002327216 3795.3316881208 4297.1989207185 6507.8744535221 2638.7711834944 0.9000000000 0.0514190494 1015.7230553796 0.0000000000 1656.3916614063 0.6839365388 0.6040600089 20.9435405065 20.9435405065 20.9435405065 0.0167117454 114261.3030082132 0.0166405941 119919.4452999031 58074.1194550965 0.0001331772 0.2522252155 0.2519595394 0.0000000000 2671.4003133476 0.0000000000 0.0018942453 13.3373792349 0.0000000000 20.0133187009 6283.0375000000
 6297.1491500000 2750.8618773515 2993.4035830851 3452.0355525402 0.2222727204 6120600.2282014573 0.2187956318 5521825.1360703614 2264365.7401741911 0.0005014451 3815.3171102776 4316.0728030284 6523.4711751211 2644.6979782733 0.9000000000 0.0512899562 1027.0980561993 0.0000000000 1653.3028777093 0.6854010760 0.6058800609 20.9464343038 20.9464343038 20.9464343038 0.0167120438 114266.8440132562 0.0165503263 115581.5366134617 55575.4516194793 0.0001322210 0.2507039467 0.2504366583 0.0000000000 2654.1596147274 0.0000000000 0.0018942490 13.3418493901 0.0000000000 20.0335562403 6297.1491500000
