~Version ---------------------------------------------------
VERS.   2.0 : CWLS log ASCII Standard -VERSION 2.0
WRAP.    NO : One line per depth step
DLM . SPACE : Column Data Section Delimiter
~Well ------------------------------------------------------
STRT.ft               5569.94125 : START DEPTH
STOP.ft        8198.326850000001 : STOP DEPTH
STEP.ft        14.50250000000051 : STEP
NULL.                   -9999.25 : NULL VALUE
COMP.                            : COMPANY
WELL.                     bypass : WELL
FLD .                            : FIELD
LOC .                            : LOCATION
PROV.                            : PROVINCE
CNTY.                            : COUNTY
STAT.                            : STATE
CTRY.                            : COUNTRY
SRVC.                            : SERVICE COMPANY
DATE. 2019-07-30 20:43:31.496337 : DATE
UWI .                            : UNIQUE WELL ID
API .                            : API NUMBER
~Curve Information -----------------------------------------
Depth              .ft          : 
KICh               .psi*in^1/2  : 
KICvup             .psi*in^1/2  : 
KICvdown           .psi*in^1/2  : 
nuh                .            : 
Eh                 .psi         : 
nuv                .            : 
Ev                 .psi         : 
Gv                 .psi         : 
Cl                 .ft/min^1/2  : 
Sigma_h            .psi         : 
SigmaH             .psi         : 
SigmaV             .psi         : 
Pore Pressure      .psi         : 
Biot               .            : 
Porosity           .            : 
Permeability       .nD          : 
SoPhi              .            : 
TensileStrength    .psi         : 
Grad_SigmaH        .psi/ft      : 
Grad_Sigma_h       .psi/ft      : 
Std_KICh           .psi*in^1/2  : 
Std_KICvup         .psi*in^1/2  : 
Std_KICvdown       .psi*in^1/2  : 
Std_nuh            .            : 
Std_Eh             .psi         : 
Std_nuv            .            : 
Std_Ev             .psi         : 
Std_Gv             .psi         : 
Std_Cl             .ft/min^1/2  : 
Std_Sigma_h        .psi         : 
Std_SigmaH         .psi         : 
Std_SigmaV         .psi         : 
Std_Pore Pressure  .psi         : 
Std_Biot           .            : 
Std_Porosity       .            : 
Std_Permeability   .nD          : 
Std_SoPhi          .            : 
Std_TensileStrength.psi         : 
Std_Depth          .ft          : 
~Params ----------------------------------------------------
~Other -----------------------------------------------------
Exported from homogenization method
~ASCII -----------------------------------------------------
# ...
 7282.6218500000 2779.7891194233 4216.6032478522 4348.9607477976 0.2698896540 8196604.9708747528 0.2681695891 8122579.3017670391 3201527.8950564871 0.0003230039 5343.1280483521 5988.5860962069 7651.1792602392 4005.3048553021 0.9000000000 0.0324492274 373.0837012981 0.0000000000 1849.7767396909 0.8223118294 0.7336819292 17.9322082332 17.9322082332 17.9322082332 0.0047813768 97994.0560919691 0.0047813768 99782.9359906709 53554.0122945166 0.0000495589 0.1332297979 0.1333467921 0.0000000000 1571.3170592224 0.0000000000 0.0008127002 11.3755539452 0.0000000000 16.8575030217 7282.6218500000
 7301.7133500000 2805.6380195653 3628.3393790302 3205.8821343584 0.2743289367 8381619.2646311317 0.2738675527 8373600.8766382523 3286356.0841086782 0.0001348100 5396.1386402908 6053.8667215936 7673.0231377011 4015.8049391090 0.9000000000 0.0319145989 331.9441860065 0.0000000000 1873.9234244860 0.8291022163 0.7390236211 17.9228916496 17.9228916496 17.9228916496 0.0047813771 97976.2498417194 0.0047813771 97976.2498417201 53658.8979098130 0.0000494958 0.1331143923 0.1332314211 0.0000000000 1569.7103226188 0.0000000000 0.0008125783 11.3687740642 0.0000000000 16.7911376182 7301.7133500000
 7320.8048500000 2804.3678552979 3468.0723931647 3375.1330591669 0.2741160843 8469438.9880939517 0.2738531125 8465003.8479509596 3322452.4171277555 0.0003212630 5411.4495678926 6076.1801283380 7694.9041297037 4026.3050229160 0.9000000000 0.0319284203 328.3973516852 0.0000000000 1875.7062809335 0.8299879935 0.7391877913 17.9253635682 17.9253635682 17.9253635682 0.0047813735 97980.9739422472 0.0047813735 97980.9739422479 53771.8624680121 0.0000495128 0.1331573558 0.1332743647 0.0000000000 1570.2278532458 0.0000000000 0.0008126110 11.3703673154 0.0000000000 16.8087586326 7320.8048500000
 7339.8963500000 2752.8744335614 3077.5333299896 3664.1773095608 0.2644985970 8158472.4761076849 0.2478298499 7427459.5827564402 2961732.7381231515 0.0001472175 5376.5648204376 6021.7590891944 7716.7703144342 4036.8051067229 0.9000000000 0.0338248031 462.2317171034 0.0000000000 1823.1167041403 0.8204147310 0.7325123631 18.0227828281 18.0227828281 18.0227828281 0.0047815514 98167.6413868770 0.0044791598 80538.6483240751 41227.4529960158 0.0000716404 0.1151506662 0.1153721612 0.0000000000 1251.4739062945 0.0000000000 0.0008140317 11.7102268922 0.0000000000 17.4857640383 7339.8963500000
 7358.9878500000 2495.6954635341 3809.1143466850 3377.1595174940 0.1951156227 6015140.8062074585 0.1736044577 3772612.9769211267 1606736.6738432220 0.0002556563 5173.1473113386 5676.4576766447 7738.3525555623 4047.3056745148 0.9000000000 0.0485319762 1497.7223368160 0.0000000000 1492.8135810722 0.7713639148 0.7029699487 17.8185524318 17.8185524318 17.8185524318 0.0047198312 96955.1183953074 0.0043659147 73605.0364194169 35680.5496409584 0.0001021884 0.1232034207 0.1234197871 0.0000000000 1365.1165806754 0.0000000000 0.0008040622 11.5642943055 0.0000000000 17.4596299728 7358.9878500000
 7378.0794000000 2587.3784850069 3899.6435143881 3818.5770891993 0.2217050623 6611257.7046941649 0.2062929822 4600286.4116323385 1905668.5461730473 0.0004415969 5370.9598466913 5912.1099089227 7759.9237222500 4057.8066201890 0.9000000000 0.0415885060 962.0189702047 0.0000000000 1615.2115740771 0.8013074390 0.7279617846 18.0427622820 18.0427622820 18.0427622820 0.0047814970 98205.8217272610 0.0044746918 76857.6620393552 37315.8416985163 0.0000698960 0.1127824683 0.1130088474 0.0000000000 1223.8950562934 0.0000000000 0.0008145039 11.6621989070 0.0000000000 17.6281135984 7378.0794000000
 7397.1709500000 2516.3686023410 3692.5684533812 4020.3787728511 0.2014316421 6198824.8382434295 0.1781504483 3940979.4649272505 1671568.2076233989 0.0002492008 5237.2726717700 5753.2258580419 7781.5007238063 4068.3067308750 0.9000000000 0.0473598462 1408.0375363156 0.0000000000 1514.0288774128 0.7777602947 0.7080102254 18.0757841056 18.0757841056 18.0757841056 0.0047818004 98269.2163532402 0.0042459983 69956.1436222144 33877.9694220379 0.0001005577 0.1215368421 0.1217622196 0.0000000000 1345.4184244730 0.0000000000 0.0008146024 11.8796918700 0.0000000000 17.8534418843 7397.1709500000
 7416.2624500000 2540.4205243662 3010.0413521845 2784.1571210949 0.1963043662 5855309.3748967238 0.1730431158 3737164.4010206768 1592694.0206867943 0.0003873527 5184.3176192548 5673.7674232059 7802.7883153856 4078.8068146819 0.9000000000 0.0520005543 1585.8311303160 0.0000000000 1475.9184501506 0.7650440450 0.6990472161 18.0577989819 18.0577989819 18.0577989819 0.0047818114 98234.6761583669 0.0043052845 74198.1811956986 35714.6834462192 0.0001028501 0.1238189759 0.1240399941 0.0000000000 1372.7857559757 0.0000000000 0.0008142933 11.7390085011 0.0000000000 17.7311325786 7416.2624500000
 7435.3539500000 2535.0268765445 3135.0376974275 3356.4933047075 0.2005028911 6046638.6778142871 0.1775626305 3934079.2672337373 1670121.8322068397 0.0003292855 5221.1129401340 5724.7884183561 7824.0409052919 4089.3068984889 0.9000000000 0.0497869609 1472.3655258526 0.0000000000 1501.9925244596 0.7699416137 0.7022009948 18.0805997388 18.0805997388 18.0805997388 0.0047817105 98278.4708104204 0.0042459273 68957.7346552624 33419.2395936691 0.0001000641 0.1210832008 0.1213094825 0.0000000000 1339.7765757437 0.0000000000 0.0008147703 11.9356684545 0.0000000000 17.8859943138 7435.3539500000
 7454.4454500000 2526.9654995712 3442.1828949610 3500.8687884399 0.2046428680 6095233.4066281579 0.1832386853 3895468.3421454155 1645851.9212399311 0.0001954874 5318.0764863515 5824.0549442284 7845.4052825027 4099.8069822958 0.9000000000 0.0463614293 1329.7670278852 0.0000000000 1528.5732498151 0.7812861444 0.7134100748 17.7909951539 17.7909951539 17.7909951539 0.0047197858 96902.2808934838 0.0044553328 78964.0033806797 38234.0938446591 0.0000697734 0.1123524389 0.1125736355 0.0000000000 1220.1211067874 0.0000000000 0.0008037207 11.4463086722 0.0000000000 17.2693287697 7454.4454500000
 7473.5369500000 2657.0055621707 4389.2195035740 4200.6532604835 0.2487227776 7195380.9352152050 0.2297996002 5411914.5100808553 2193345.5662457296 0.0004020580 5585.0088499989 6161.2280929158 7867.0983361265 4110.3082573397 0.9000000000 0.0346308360 660.9611748821 0.0000000000 1721.8904454720 0.8244059184 0.7473046413 18.0312773522 18.0312773522 18.0312773522 0.0047814985 98183.8275866546 0.0045193717 79501.6729027469 38709.3214654729 0.0000706975 0.1138841055 0.1141081618 0.0000000000 1236.6021261098 0.0000000000 0.0008143550 11.6545737879 0.0000000000 17.5479162335 7473.5369500000
 7492.6284500000 2549.4703306123 3581.2846134139 3579.8995330471 0.2105382280 6244608.3521180712 0.1896550646 4038712.0717268093 1695185.0129211505 0.0002470412 5399.0012104094 5914.8550849817 7888.8466251929 4120.8084679046 0.9000000000 0.0444484211 1193.5351621079 0.0000000000 1562.4949790616 0.7894232477 0.7205750621 18.0753207422 18.0753207422 18.0753207422 0.0047834930 95678.2139074320 0.0042279651 68902.4173335915 33311.3702117680 0.0000997254 0.1205740703 0.1207850281 0.0000000000 1334.6364961001 0.0000000000 0.0008143384 11.7292997674 0.0000000000 17.8476718406 7492.6284500000
 7511.7200000000 2586.8823554306 6378.7900754476 6166.8475156499 0.2032904299 5799388.8182923421 0.1573896118 3298342.1516212970 1419774.1435711489 0.0002286912 5297.3717495296 5779.3326023822 7910.1246516416 4131.3085791657 0.9000000000 0.0502770545 1390.2433316742 0.0000000000 1474.0374648990 0.7693754030 0.7052142185 18.0531205527 18.0531205527 18.0531205527 0.0047816358 98225.7211774707 0.0044384829 72312.3595718144 35056.1117244538 0.0001022734 0.1236746817 0.1238959081 0.0000000000 1368.6881601200 0.0000000000 0.0008146972 11.7184212742 0.0000000000 17.6983316586 7511.7200000000
 7530.8115500000 2527.1625330384 3903.8863827135 4232.9418417837 0.2038444247 6065719.7972113714 0.1793886280 3783327.0522992583 1602774.2127049631 0.0004698140 5375.3126941822 5879.1751262867 7931.6716683783 4141.8086902548 0.9000000000 0.0464038942 1368.5044576796 0.0000000000 1520.1047527573 0.7806828105 0.7137760198 18.0884478457 18.0884478457 18.0884478457 0.0047823691 98293.6094389192 0.0041733652 67206.4538666235 32475.1955675732 0.0000988548 0.1197286011 0.1199575113 0.0000000000 1324.3229275737 0.0000000000 0.0008146667 11.8865993358 0.0000000000 17.9372727416 7530.8115500000
