~Version ---------------------------------------------------
VERS.   2.0 : CWLS log ASCII Standard -VERSION 2.0
WRAP.    NO : One line per depth step
DLM . SPACE : Column Data Section Delimiter
~Well ------------------------------------------------------
STRT.ft               6011.19455 : START DEPTH
STOP.ft                8162.3221 : STOP DEPTH
STEP.ft       14.389100000000326 : STEP
NULL.                   -9999.25 : NULL VALUE
COMP.                            : COMPANY
WELL.                     bypass : WELL
FLD .                            : FIELD
LOC .                            : LOCATION
PROV.                            : PROVINCE
CNTY.                            : COUNTY
STAT.                            : STATE
CTRY.                            : COUNTRY
SRVC.                            : SERVICE COMPANY
DATE. 2019-07-30 20:43:20.875901 : DATE
UWI .                            : UNIQUE WELL ID
API .                            : API NUMBER
~Curve Information -----------------------------------------
Depth              .ft          : 
KICh               .psi*in^1/2  : 
KICvup             .psi*in^1/2  : 
KICvdown           .psi*in^1/2  : 
nuh                .            : 
Eh                 .psi         : 
nuv                .            : 
Ev                 .psi         : 
Gv                 .psi         : 
Cl                 .ft/min^1/2  : 
Sigma_h            .psi         : 
SigmaH             .psi         : 
SigmaV             .psi         : 
Pore Pressure      .psi         : 
Biot               .            : 
Porosity           .            : 
Permeability       .nD          : 
SoPhi              .            : 
TensileStrength    .psi         : 
Grad_SigmaH        .psi/ft      : 
Grad_Sigma_h       .psi/ft      : 
Std_KICh           .psi*in^1/2  : 
Std_KICvup         .psi*in^1/2  : 
Std_KICvdown       .psi*in^1/2  : 
Std_nuh            .            : 
Std_Eh             .psi         : 
Std_nuv            .            : 
Std_Ev             .psi         : 
Std_Gv             .psi         : 
Std_Cl             .ft/min^1/2  : 
Std_Sigma_h        .psi         : 
Std_SigmaH         .psi         : 
Std_SigmaV         .psi         : 
Std_Pore Pressure  .psi         : 
Std_Biot           .            : 
Std_Porosity       .            : 
Std_Permeability   .nD          : 
Std_SoPhi          .            : 
Std_TensileStrength.psi         : 
Std_Depth          .ft          : 
~Params ----------------------------------------------------
~Other -----------------------------------------------------
Exported from homogenization method
~ASCII -----------------------------------------------------
# ...
 6212.6418500000 2800.4318864250 3785.3175664640 3493.9093876185 0.2421459947 6606715.1426228546 0.2323410690 5583840.8265848570 2262622.8729009223 0.0007113882 4047.7696100702 4579.6487265793 6564.9205852694 2609.2050361732 0.9000000000 0.0461053722 841.0743314245 0.0000000000 1692.1595358023 0.7371499657 0.6515375758 20.5803659400 20.5803659400 20.5803659400 0.0054735780 112276.0933619664 0.0053517061 109762.4884774052 52675.0777957538 0.0000881148 0.1318944573 0.1321122718 0.0000000000 1613.4752125974 0.0000000000 0.0009308096 13.1015472141 0.0000000000 19.6724779350 6212.6418500000
 6227.0309500000 2774.4186906485 3635.5398298690 4159.3181415813 0.2309429808 6327945.0993743604 0.2161986348 5148959.3297967128 2114087.3677500635 0.0007263705 3968.5359678604 4482.6089345229 6580.9658619168 2615.2480991862 0.9000000000 0.0501454538 1045.5127542799 0.0000000000 1639.6768118571 0.7198629605 0.6373078920 20.9709732232 20.9709732232 20.9709732232 0.0055707925 114313.8455067704 0.0053023747 103546.9055195265 49255.3566210477 0.0000870411 0.1308424937 0.1310701551 0.0000000000 1598.0246334994 0.0000000000 0.0009474344 13.3910952303 0.0000000000 20.2046532403 6227.0309500000
 6241.4200000000 2758.2388452730 4169.3841120719 3594.0843585259 0.2287083051 6316925.0121788122 0.2159415497 5056651.4581655664 2077840.1739144498 0.0005587900 3993.7825576985 4507.8935949323 6596.8408264150 2621.2911408020 0.9000000000 0.0496797268 1038.6207257802 0.0000000000 1635.8099983188 0.7222544861 0.6398836415 20.6014459446 20.6014459446 20.6014459446 0.0054737050 112316.4657439152 0.0052402616 101782.8934311766 48780.1245663234 0.0000856852 0.1288318871 0.1290550856 0.0000000000 1573.3109147566 0.0000000000 0.0009310267 13.1503195373 0.0000000000 19.8196026608 6241.4200000000
 6255.8090500000 2735.3772776576 3271.4429141450 3770.5788087962 0.2178276800 6083896.8748808810 0.2029009344 4655687.1808564523 1934439.7074316794 0.0003623901 3943.7654722077 4443.3350726402 6612.7739620727 2627.3341828884 0.9000000000 0.0535898705 1244.9823432355 0.0000000000 1581.9812748754 0.7102734494 0.6304165362 20.6191995635 20.6191995635 20.6191995635 0.0054741186 112350.4810613439 0.0051159477 98317.8638595030 46892.4957228239 0.0001216456 0.1419429704 0.1421975861 0.0000000000 1665.7773043257 0.0000000000 0.0009310268 13.1887937883 0.0000000000 19.9430316226 6255.8090500000
 6270.1981500000 2717.6205781627 3400.0900071528 3367.2820715910 0.2099199197 5878707.0944170961 0.1914104306 4373163.6076846039 1834550.7018703760 0.0005590232 3885.9914717646 4371.8671895262 6628.5504370234 2633.3788118784 0.9000000000 0.0568262811 1425.7027839081 0.0000000000 1539.7614362891 0.6972454594 0.6197557683 20.6417077638 20.6417077638 20.6417077638 0.0054743066 112393.6513353515 0.0050265056 90175.3501664472 43243.7750006020 0.0001170146 0.1374470338 0.1377102207 0.0000000000 1608.8050254303 0.0000000000 0.0009313041 13.2441958591 0.0000000000 20.0979601851 6270.1981500000
 6284.5872500000 2717.3373849338 4083.3432422559 3088.9469189938 0.2155227113 6132319.7688026847 0.1968065395 4476363.5321196513 1868197.7880785081 0.0007939258 3981.2016399346 4485.7022726159 6644.3086264952 2639.4219274312 0.9000000000 0.0534978892 1292.3302539743 0.0000000000 1565.8570732693 0.7137624309 0.6334865730 20.9509522040 20.9509522040 20.9509522040 0.0055706821 114275.5408531497 0.0053709123 110933.5767045033 54486.2876587455 0.0000898435 0.1344045432 0.1346259818 0.0000000000 1644.6645454030 0.0000000000 0.0009472175 13.3597713926 0.0000000000 20.0635247367 6284.5872500000
 6298.9763500000 2811.6420702592 4147.5429167031 4162.1345288051 0.2303067989 6411559.7054965440 0.2044323335 5287220.1866928441 2185306.4488490289 0.0005203021 3915.0817906475 4436.2168206336 6660.1932225627 2645.4649904442 0.9000000000 0.0537197094 1186.5230142743 0.0000000000 1621.7151375145 0.7042758337 0.6215425449 20.6147145405 20.6147145405 20.6147145405 0.0054748296 112341.8990294394 0.0050995874 103229.3009568402 49266.1059173760 0.0001245236 0.1446013423 0.1448512156 0.0000000000 1700.2707549819 0.0000000000 0.0009307306 13.1276781809 0.0000000000 19.9114701775 6298.9763500000
 6313.3654500000 2770.2752460794 3845.3182222326 4223.9175592271 0.2127896643 5890104.1117220875 0.1889743217 4519415.7934264569 1898174.7884872626 0.0007362680 3859.6064110972 4345.2721687192 6675.8678878378 2651.5080534571 0.9000000000 0.0599216320 1516.6519550735 0.0000000000 1531.0470449430 0.6882655856 0.6113389826 20.6284608949 20.6284608949 20.6284608949 0.0054750071 112368.2824247308 0.0049767557 97118.7316914941 46476.3682017812 0.0001207367 0.1407732961 0.1410301042 0.0000000000 1652.6094032848 0.0000000000 0.0009308568 13.1538557099 0.0000000000 20.0054487541 6313.3654500000
 6327.6333500000 2871.4080965380 4931.0883786681 4196.5238070827 0.2573898206 7091314.1719454126 0.2277703137 5935689.9719974604 2407601.4847992291 0.0002398801 4162.8455956477 4726.8166137071 6691.3791026287 2657.5015150530 0.9000000000 0.0464942240 870.4531939727 0.0000000000 1707.5305053269 0.7470117740 0.6578835033 20.8911736677 20.8911736677 20.8911736677 0.0055701657 114161.1167606893 0.0055462361 124203.7043128124 61272.9301371831 0.0000635350 0.1567269664 0.1568675376 0.0000000000 2013.2826369135 0.0000000000 0.0009466548 13.2574444591 0.0000000000 19.6440076895 6327.6333500000
 6341.7800000000 2928.6438360977 3417.2208629408 4269.4759488670 0.2809276266 8015686.4201180227 0.2792026774 7852575.9200561810 3068706.1827488504 0.0002773384 4349.9206031067 4975.6926025115 6707.3284994118 2663.4424694273 0.9000000000 0.0378749412 455.1829418370 0.0000000000 1830.6719386455 0.7845892797 0.6859147752 20.8877869276 20.8877869276 20.8877869276 0.0055701477 114154.6431136971 0.0055338402 119513.5113455608 60380.3497696567 0.0000632807 0.1562627217 0.1564036874 0.0000000000 2006.5660034731 0.0000000000 0.0009466393 13.2528774570 0.0000000000 19.6199117072 6341.7800000000
 6355.9266500000 2931.6317219683 3346.8000235609 3823.0783089815 0.2853756200 7880997.0994083313 0.2796688259 7423064.1523905648 2899881.7309238105 0.0002839652 4442.5822695693 5055.7102126151 6723.3672919391 2669.3834236253 0.9000000000 0.0365125612 441.4434693768 0.0000000000 1831.9306584228 0.7954324351 0.6989668878 20.5728721889 20.5728721889 20.5728721889 0.0054735467 112261.7852120025 0.0053076993 111388.3633726235 53802.9640410701 0.0000886561 0.1324803853 0.1326971635 0.0000000000 1621.7912529340 0.0000000000 0.0009307060 13.1059231372 0.0000000000 19.6186006466 6355.9266500000
 6370.0733500000 2773.9078478699 3168.8646407106 3101.7420129482 0.2307535228 6661777.5712635750 0.2179563645 5441344.7878273204 2232636.2774092611 0.0003451766 4072.6915674501 4613.9679032661 6739.2210842695 2675.3265763747 0.9000000000 0.0502488630 1036.4692963521 0.0000000000 1638.5980097678 0.7243194308 0.6393476721 20.9696714902 20.9696714902 20.9696714902 0.0055707746 114311.3818396912 0.0052582472 104971.9764178975 50336.7172730264 0.0000875364 0.1313793289 0.1316060488 0.0000000000 1605.6436695273 0.0000000000 0.0009474230 13.3989576707 0.0000000000 20.1945473102 6370.0733500000
 6384.2200000000 2810.8798384697 4543.0113086391 3661.7654333237 0.2432239721 6909068.5483256215 0.2169650089 5577802.1354112206 2280295.3346270621 0.0005472696 4133.6322947461 4689.3703357772 6754.8677434924 2681.2675305727 0.9000000000 0.0482005455 965.5914900164 0.0000000000 1672.3062665678 0.7345251786 0.6474764803 20.8946287004 20.8946287004 20.8946287004 0.0055701864 114167.7280451014 0.0055423347 118278.5925060888 60011.8530674764 0.0000632403 0.1562152265 0.1563562812 0.0000000000 2005.7138695183 0.0000000000 0.0009467137 13.2620555260 0.0000000000 19.6683250394 6384.2200000000
 6398.3666500000 2868.3337352967 3822.4848856183 4377.9792765723 0.2747192881 7797764.6138601312 0.2657835161 7275640.1519903392 2868457.6534002675 0.0006834294 4359.5266850974 4971.2507475270 6770.8007456101 2687.2084849470 0.9000000000 0.0369846529 485.6489646465 0.0000000000 1818.0414845950 0.7769562170 0.6813499325 20.5905654699 20.5905654699 20.5905654699 0.0054737222 112295.7098861035 0.0052123300 100209.6984149623 50203.0719393169 0.0000859293 0.1292295437 0.1294519439 0.0000000000 1578.0834909598 0.0000000000 0.0009308658 13.1573616734 0.0000000000 19.7407373766 6398.3666500000
