~Version ---------------------------------------------------
VERS.   2.0 : CWLS log ASCII Standard -VERSION 2.0
WRAP.    NO : One line per depth step
DLM . SPACE : Column Data Section Delimiter
~Well ------------------------------------------------------
STRT.ft               5857.54595 : START DEPTH
STOP.ft       7958.7521000000015 : STOP DEPTH
STEP.ft       14.211900000000242 : STEP
NULL.                   -9999.25 : NULL VALUE
COMP.                            : COMPANY
WELL.                     bypass : WELL
FLD .                            : FIELD
LOC .                            : LOCATION
PROV.                            : PROVINCE
CNTY.                            : COUNTY
STAT.                            : STATE
CTRY.                            : COUNTRY
SRVC.                            : SERVICE COMPANY
DATE. 2019-07-30 20:43:36.147719 : DATE
UWI .                            : UNIQUE WELL ID
API .                            : API NUMBER
~Curve Information -----------------------------------------
Depth              .ft          : 
KICh               .psi*in^1/2  : 
KICvup             .psi*in^1/2  : 
KICvdown           .psi*in^1/2  : 
nuh                .            : 
Eh                 .psi         : 
nuv                .            : 
Ev                 .psi         : 
Gv                 .psi         : 
Cl                 .ft/min^1/2  : 
Sigma_h            .psi         : 
SigmaH             .psi         : 
SigmaV             .psi         : 
Pore Pressure      .psi         : 
Biot               .            : 
Porosity           .            : 
Permeability       .nD          : 
SoPhi              .            : 
TensileStrength    .psi         : 
Grad_SigmaH        .psi/ft      : 
Grad_Sigma_h       .psi/ft      : 
Std_KICh           .psi*in^1/2  : 
Std_KICvup         .psi*in^1/2  : 
Std_KICvdown       .psi*in^1/2  : 
Std_nuh            .            : 
Std_Eh             .psi         : 
Std_nuv            .            : 
Std_Ev             .psi         : 
Std_Gv             .psi         : 
Std_Cl             .ft/min^1/2  : 
Std_Sigma_h        .psi         : 
Std_SigmaH         .psi         : 
Std_SigmaV         .psi         : 
Std_Pore Pressure  .psi         : 
Std_Biot           .            : 
Std_Porosity       .            : 
Std_Permeability   .nD          : 
Std_SoPhi          .            : 
Std_TensileStrength.psi         : 
Std_Depth          .ft          : 
~Params ----------------------------------------------------
~Other -----------------------------------------------------
Exported from homogenization method
~ASCII -----------------------------------------------------
# ...
 6476.7275000000 2826.3831028167 4544.3339131951 3825.8760003463 0.2477369690 6342058.9533519354 0.2366977521 5589654.1665666085 2253386.1467596241 0.0005566519 4142.8852807853 4651.1702087086 6726.3527525266 2720.1205899155 0.9000000000 0.0447163736 771.7421015850 0.0000000000 1729.0292912814 0.7181358500 0.6396571850 20.3778782407 20.3778782407 20.3778782407 0.0053815751 110664.1987655042 0.0053814944 125216.9870563033 58037.7647332457 0.0000833668 0.1374540357 0.1376708136 0.0000000000 1624.6426848272 0.0000000000 0.0009177020 12.9185523113 0.0000000000 20.3244274094 6476.7275000000
 6491.7491500000 2791.7362208269 4062.7708952504 3938.7373897077 0.2419008805 6467981.8923055260 0.2366788222 5530166.4964420088 2231925.2752738982 0.0004776660 4186.2258279445 4707.0388810348 6743.1854889421 2726.4296719311 0.9000000000 0.0444280977 760.1650380346 0.0000000000 1719.0231441181 0.7250802168 0.6448532947 20.0466145134 20.0466145134 20.0466145134 0.0052940787 108864.8648029195 0.0052934613 119482.6663269000 56086.7680290855 0.0000812506 0.1342697210 0.1344844796 0.0000000000 1585.5799120127 0.0000000000 0.0009028439 12.7110204210 0.0000000000 19.9946374463 6491.7491500000
 6507.1561000000 2758.6953819463 3681.9087582280 4059.3275122949 0.2470866160 6888681.6351000210 0.2414321054 5675080.5101831788 2280130.8325775168 0.0006131613 4314.9679596502 4867.3499311179 6760.5513103659 2732.8999054368 0.9000000000 0.0389189969 609.0843753815 0.0000000000 1756.2438963580 0.7479995648 0.6631111800 20.0466080165 20.0466080165 20.0466080165 0.0052939637 108864.8523060668 0.0053032211 114846.2060272484 53907.7897118140 0.0000800387 0.1326854468 0.1329027686 0.0000000000 1564.9088026140 0.0000000000 0.0009028736 12.7294169691 0.0000000000 19.9945938818 6507.1561000000
 6522.9483000000 2758.3034160551 3210.6639882884 3559.9369074422 0.2379968757 6642260.7102895454 0.2365512257 5567907.5387108875 2250411.7800358832 0.0005539670 4230.3057589227 4766.8386727472 6778.3665475610 2739.5339656245 0.9000000000 0.0436549743 741.6872617172 0.0000000000 1711.8400794929 0.7307797722 0.6485266423 19.7308989183 19.7308989183 19.7308989183 0.0052107388 107150.3481260286 0.0052099949 108396.4464066038 50406.7134670974 0.0000774391 0.1287842512 0.1290011499 0.0000000000 1517.0146942655 0.0000000000 0.0008883489 12.5691618272 0.0000000000 19.6797338802 6522.9483000000
 6538.7405500000 2726.0487026941 3796.3887886368 3539.3032895407 0.2276781452 6537989.9658209197 0.2206917847 5135361.8269322971 2100214.8129940606 0.0006299319 4201.7691557783 4734.3183415323 6796.0270972125 2746.1655434938 0.9000000000 0.0461926633 897.2653235149 0.0000000000 1667.0345066051 0.7240413204 0.6425960969 20.0466231167 20.0466231167 20.0466231167 0.0052946066 108864.8813512236 0.0051398620 106185.9429739377 49949.4801730527 0.0000777255 0.1293868094 0.1296096437 0.0000000000 1523.6956760840 0.0000000000 0.0009022324 12.8242206790 0.0000000000 19.9946951319 6538.7405500000
 6554.5328000000 2674.3473125219 3284.3208159251 3085.8703478064 0.2058680348 6101569.0158715351 0.1932854224 4438475.7626987454 1858351.2971331943 0.0006566841 4059.4953370215 4565.4851169830 6813.5409176460 2752.7991118568 0.9000000000 0.0534931685 1295.2089147788 0.0000000000 1564.3008347550 0.6965386026 0.6193416771 19.7310875660 19.7310875660 19.7310875660 0.0052114734 107150.7109904127 0.0049691338 92059.4686127412 43886.8297529795 0.0001037430 0.1321392148 0.1323666714 0.0000000000 1567.4998192424 0.0000000000 0.0008878427 12.6815401963 0.0000000000 19.6809987261 6554.5328000000
 6570.3250000000 2724.6402283271 3516.8792533872 3743.8017328551 0.2194458107 6469570.7127527492 0.2029242879 4873927.9524124796 2020800.7673973276 0.0006101632 4132.9077992111 4663.4414773857 6830.9517260463 2759.4314638637 0.9000000000 0.0510305721 1138.9985881650 0.0000000000 1612.0881510618 0.7097733335 0.6290263875 19.7308418951 19.7308418951 19.7308418951 0.0052108353 107150.2384422709 0.0051659256 116359.8125911944 56356.8532578457 0.0000801822 0.1325117448 0.1327225488 0.0000000000 1564.8573972952 0.0000000000 0.0008884323 12.5325388843 0.0000000000 19.6793515301 6570.3250000000
 6586.1172000000 2847.6316973825 3965.5843183930 3798.7880650186 0.2726075463 8260064.4197226167 0.2657425614 7802540.2727432521 3073632.6884490876 0.0005430381 4418.7001208440 5067.7662405413 6848.6388432016 2766.0639340883 0.9000000000 0.0359837913 451.9246329185 0.0000000000 1830.6629755118 0.7694618979 0.6709112496 20.0464387161 20.0464387161 20.0464387161 0.0052938145 108864.5266587649 0.0052938145 123871.8643219606 63194.9526670797 0.0000629208 0.1452266526 0.1453739715 0.0000000000 1806.9507954457 0.0000000000 0.0009035714 12.6188754236 0.0000000000 19.9934586794 6586.1172000000
 6601.9094500000 2827.2941436004 4001.5255961345 4852.1674876787 0.2754623828 8181714.4607271161 0.2657887632 7490619.7489235513 2951326.6837347019 0.0005274292 4490.7662908342 5132.2367544680 6866.7229269239 2772.6973842575 0.9000000000 0.0331104535 419.3268821030 0.0000000000 1846.7256979364 0.7773867232 0.6802223394 19.7308611093 19.7308611093 19.7308611093 0.0052107412 107150.2754000231 0.0051885472 115857.7509632311 57127.6830465294 0.0000611230 0.1414054700 0.1415520336 0.0000000000 1758.0871338867 0.0000000000 0.0008886442 12.4939218799 0.0000000000 19.6794803819 6601.9094500000
 6617.7017000000 2898.9087536497 6570.6720134818 4497.3929890824 0.2867980720 8261631.9527462153 0.2685636888 7584609.1856640577 2977563.3931904095 0.0005291338 4557.5760526987 5199.6062307434 6884.6287055332 2779.3289621029 0.9000000000 0.0345879608 452.1451640152 0.0000000000 1860.0929649467 0.7857117873 0.6886946948 20.0465171739 20.0465171739 20.0465171739 0.0052938153 108864.6775709321 0.0052938153 110433.1399522535 60038.6050385224 0.0000619452 0.1435609244 0.1437099515 0.0000000000 1783.4534109154 0.0000000000 0.0009036755 12.5988146270 0.0000000000 19.9939847771 6617.7017000000
 6633.4939000000 2946.6058218860 3783.0034810079 4062.4366468130 0.3047295314 9110206.5476495754 0.3043068651 9103313.7083758172 3489489.6971530425 0.0005357210 4738.6278244619 5436.8726582525 6902.7786482602 2785.9631405083 0.9000000000 0.0292896093 245.4451499230 0.0000000000 1943.8199684474 0.8196092045 0.7143487121 19.7308078889 19.7308078889 19.7308078889 0.0052104123 107150.1730310051 0.0052104123 107150.1730310033 58434.6399815549 0.0000608308 0.1410504364 0.1411973765 0.0000000000 1751.9427025019 0.0000000000 0.0008892506 12.4048943090 0.0000000000 19.6791235332 6633.4939000000
 6649.2861000000 2952.0538088999 4457.1806225003 4437.3860495110 0.3064532169 9117912.6513344198 0.3059675755 9109956.0758738630 3487472.9740273152 0.0004692889 4767.8776971217 5465.7911419768 6920.9014100230 2792.5948614244 0.9000000000 0.0290433339 240.4699904511 0.0000000000 1948.1325411493 0.8220117257 0.7170510677 20.0466157648 20.0466157648 20.0466157648 0.0052939681 108864.8672101505 0.0052747387 108856.6640397365 56188.7757400536 0.0000615055 0.1426682817 0.1428182370 0.0000000000 1771.9872224339 0.0000000000 0.0009032331 12.6725498038 0.0000000000 19.9946458267 6649.2861000000
 6665.0783000000 2750.0470596308 4272.7471177700 5281.3722421633 0.2390871209 6933040.6056978572 0.2232903888 5411823.8048559604 2203292.8720763754 0.0006380573 4356.5530436891 4916.0811421475 6938.8873233288 2799.2279627398 0.9000000000 0.0437635869 821.5854188427 0.0000000000 1698.1153271290 0.7375879053 0.6536386892 19.7309055561 19.7309055561 19.7309055561 0.0052110837 107150.3608937896 0.0051063427 104190.8530136835 48925.2614472637 0.0000764335 0.1273284552 0.1275478196 0.0000000000 1498.9744480897 0.0000000000 0.0008881096 12.6041346109 0.0000000000 19.6797783855 6665.0783000000
 6680.8705500000 2756.1111808208 3334.9615130788 3470.3412588916 0.2260851820 6588839.4612596175 0.2125724056 5262324.4353637164 2166939.2857260196 0.0006388542 4206.1660384972 4743.5544319135 6956.4588584769 2805.8607819461 0.9000000000 0.0505080347 1064.9105517911 0.0000000000 1635.3964159647 0.7100204077 0.6295835261 19.7308418631 19.7308418631 19.7308418631 0.0052115436 107150.2383807293 0.0050253869 107584.8849405080 52224.3158601147 0.0000777066 0.1289924924 0.1292090178 0.0000000000 1520.7463438093 0.0000000000 0.0008880216 12.5616917253 0.0000000000 19.6793513135 6680.8705500000
