~Version ---------------------------------------------------
VERS.   2.0 : CWLS log ASCII Standard -VERSION 2.0
WRAP.    NO : One line per depth step
DLM . SPACE : Column Data Section Delimiter
~Well ------------------------------------------------------
STRT.ft               6185.69585 : START DEPTH
STOP.ft        7989.874549999998 : STOP DEPTH
STEP.ft       13.981649999999718 : STEP
NULL.                   -9999.25 : NULL VALUE
COMP.                            : COMPANY
WELL.                     bypass : WELL
FLD .                            : FIELD
LOC .                            : LOCATION
PROV.                            : PROVINCE
CNTY.                            : COUNTY
STAT.                            : STATE
CTRY.                            : COUNTRY
SRVC.                            : SERVICE COMPANY
DATE. 2019-07-30 20:43:31.349442 : DATE
UWI .                            : UNIQUE WELL ID
API .                            : API NUMBER
~Curve Information -----------------------------------------
Depth              .ft          : 
KICh               .psi*in^1/2  : 
KICvup             .psi*in^1/2  : 
KICvdown           .psi*in^1/2  : 
nuh                .            : 
Eh                 .psi         : 
nuv                .            : 
Ev                 .psi         : 
Gv                 .psi         : 
Cl                 .ft/min^1/2  : 
Sigma_h            .psi         : 
SigmaH             .psi         : 
SigmaV             .psi         : 
Pore Pressure      .psi         : 
Biot               .            : 
Porosity           .            : 
Permeability       .nD          : 
SoPhi              .            : 
TensileStrength    .psi         : 
Grad_SigmaH        .psi/ft      : 
Grad_Sigma_h       .psi/ft      : 
Std_KICh           .psi*in^1/2  : 
Std_KICvup         .psi*in^1/2  : 
Std_KICvdown       .psi*in^1/2  : 
Std_nuh            .            : 
Std_Eh             .psi         : 
Std_nuv            .            : 
Std_Ev             .psi         : 
Std_Gv             .psi         : 
Std_Cl             .ft/min^1/2  : 
Std_Sigma_h        .psi         : 
Std_SigmaH         .psi         : 
Std_SigmaV         .psi         : 
Std_Pore Pressure  .psi         : 
Std_Biot           .            : 
Std_Porosity       .            : 
Std_Permeability   .nD          : 
Std_SoPhi          .            : 
Std_TensileStrength.psi         : 
Std_Depth          .ft          : 
~Params ----------------------------------------------------
~Other -----------------------------------------------------
Exported from homogenization method
~ASCII -----------------------------------------------------
# ...
 7447.4846500000 2501.4084848696 3285.4747379272 3993.4287533860 0.2024764580 6151328.1888179211 0.1689717589 3847952.5231398605 1641290.4884027916 0.0002504028 5205.9074525489 5717.4624312796 7789.3862534711 4095.9790471004 0.9000000000 0.0471081435 1507.3408396528 0.0000000000 1514.7318510023 0.7677038222 0.6990155331 19.4094208709 19.4094208709 19.4094208709 0.0051309879 105475.4887326907 0.0045940059 72437.1921970387 35412.0731722045 0.0000983534 0.1295446304 0.1297860323 0.0000000000 1373.2229365977 0.0000000000 0.0008746842 12.9419566805 0.0000000000 19.2429305337 7447.4846500000
 7463.9643500000 2438.8996295628 3225.1775645812 3202.0489498566 0.1896785393 6031384.2207613215 0.1680507160 3655333.2522420017 1564395.1602862631 0.0005152374 5220.7674990160 5727.7434611450 7807.9202450666 4105.0428683471 0.9000000000 0.0473546684 1579.3354330378 0.0000000000 1474.7388656639 0.7673862297 0.6994630808 19.3938598647 19.3938598647 19.3938598647 0.0051309989 105445.6202578113 0.0046963797 75298.5307544126 36875.1543882773 0.0000998943 0.1314008558 0.1316386650 0.0000000000 1393.5301905635 0.0000000000 0.0008746407 12.8047606493 0.0000000000 19.1365725067 7463.9643500000
 7480.4440500000 2477.6385941097 6379.7243958490 4203.7399159095 0.2140123844 6682293.0430373987 0.1903397545 4186012.1091964236 1757084.7552667966 0.0001954637 5446.8069470743 5997.2373322264 7826.6261268741 4114.1066895939 0.9000000000 0.0381112498 1103.5300197801 0.0000000000 1585.5015841057 0.8017221026 0.7281395210 19.3784024862 19.3784024862 19.3784024862 0.0051311193 105415.9275495202 0.0047741382 78582.8624901934 38630.1789547079 0.0001016417 0.1334066574 0.1336407086 0.0000000000 1415.9172097984 0.0000000000 0.0008745439 12.6092552621 0.0000000000 19.0316758733 7480.4440500000
 7496.9237500000 2390.0659815428 4818.3167700656 6635.7439311274 0.1828758886 5762264.0690558450 0.1420285882 3263062.2862773170 1431540.0416264809 0.0002237619 5088.7365257079 5575.8767341152 7845.3705346827 4123.1705108406 0.9000000000 0.0534133510 2027.3377248182 0.0000000000 1383.2032028022 0.7437552948 0.6787766150 19.4368249255 19.4368249255 19.4368249255 0.0051333318 105528.4560866675 0.0043983036 76819.7996636024 37544.6744723793 0.0001001130 0.1308489129 0.1310881616 0.0000000000 1391.2081441993 0.0000000000 0.0008738186 13.1378562233 0.0000000000 19.4187437052 7496.9237500000
 7513.4034500000 2633.0307584887 5008.5703340406 3907.9863279861 0.1901210554 5616491.3991654748 0.1732370065 4266783.2594745634 1818997.2453614504 0.0004197053 4996.7705138101 5468.6965732483 7863.3251174700 4132.2343320874 0.9000000000 0.0597223543 1726.3137639879 0.0000000000 1490.5861772323 0.7278587673 0.6650475443 19.3625105200 19.3625105200 19.3625105200 0.0051312616 105385.3984673425 0.0047581360 86387.6997331801 41662.1617551331 0.0001049496 0.1366678484 0.1368961340 0.0000000000 1454.8305087807 0.0000000000 0.0008736812 12.5197148477 0.0000000000 18.9238854753 7513.4034500000
 7529.8831500000 2551.1026482340 3538.0573834843 3450.4377030823 0.2146034796 6487969.4792790301 0.1953864854 4445208.4036339121 1858427.8884886303 0.0002425726 5381.6036585905 5915.7672426873 7881.6106290650 4141.2981533341 0.9000000000 0.0435425270 1119.7663061641 0.0000000000 1581.2205390748 0.7856386513 0.7146994915 19.3571627829 19.3571627829 19.3571627829 0.0051309824 105375.2057912972 0.0047989633 86952.3191320715 42210.3728696271 0.0000688402 0.1200961244 0.1203128236 0.0000000000 1304.8470990597 0.0000000000 0.0008738341 12.6037490736 0.0000000000 18.8849341625 7529.8831500000
 7546.3628500000 2555.4662488260 3764.5000319011 4165.1488054222 0.2036507870 6256671.3197595896 0.1830218124 4267874.0358638810 1803295.1379159805 0.0002514572 5271.4776748595 5791.2855283657 7900.1684700142 4150.3619745808 0.9000000000 0.0481540333 1391.2741095205 0.0000000000 1534.8737856534 0.7674273877 0.6985454821 19.3732818133 19.3732818133 19.3732818133 0.0051311084 105406.0926343922 0.0047798018 80254.3864702435 39141.2627833624 0.0001022783 0.1340422310 0.1342751140 0.0000000000 1423.4505148762 0.0000000000 0.0008743331 12.6202983677 0.0000000000 18.9968830023 7546.3628500000
 7562.8425500000 2492.4246796333 4202.2872370671 4977.4927026441 0.2113975035 6617223.6587713566 0.1936777812 4263012.1668459699 1785794.4652654673 0.0005122324 5481.5858530488 6027.8329469735 7918.8360628689 4159.4257958276 0.9000000000 0.0402116551 1104.8662734460 0.0000000000 1576.2371729544 0.7970327171 0.7248049681 19.3848991347 19.3848991347 19.3848991347 0.0051309832 105428.3889462539 0.0046624419 78636.4464405916 38225.1023039112 0.0001011698 0.1325671494 0.1328027630 0.0000000000 1407.9267450050 0.0000000000 0.0008742942 12.7051754945 0.0000000000 19.0763558407 7562.8425500000
 7579.3222500000 2472.5523536983 3583.2207041745 3702.3852190034 0.1994957702 6300821.7847636528 0.1778298349 3932795.1239855769 1669294.0886982775 0.0001943041 5372.3320862663 5897.6212903935 7937.4581879984 4168.4896170743 0.9000000000 0.0449940973 1395.5467099967 0.0000000000 1514.9088362047 0.7781198761 0.7088143120 19.4095696477 19.4095696477 19.4095696477 0.0051309278 105475.7751197813 0.0046931058 71488.7823673326 35399.5298304451 0.0000984405 0.1299661244 0.1302067490 0.0000000000 1376.4492638200 0.0000000000 0.0008751813 12.9120658607 0.0000000000 19.2439193940 7579.3222500000
 7595.8019500000 2334.9586016673 4662.9663828851 4095.4035667231 0.1947918584 6849914.7306618225 0.1803855342 4035583.3587337080 1709300.6541033022 0.0002550192 5494.2532651759 6067.5677452381 7956.3111468705 4177.5534383211 0.9000000000 0.0352707030 1168.7494863650 0.0000000000 1550.9085319587 0.7988054171 0.7233276093 19.4098868327 19.4098868327 19.4098868327 0.0051311726 105476.3984081775 0.0047775561 71655.4499608560 35960.8127824494 0.0000990116 0.1308429745 0.1310819844 0.0000000000 1385.2282417961 0.0000000000 0.0008755200 12.8441354646 0.0000000000 19.2456444122 7595.8019500000
 7612.2816500000 2349.2637257339 4443.4549025987 4919.9001945298 0.1861205510 6327826.7810028289 0.1609207944 3610481.0819467725 1555520.4491011340 0.0005234046 5347.8629385387 5881.3522854421 7975.3305752967 4186.6172595678 0.9000000000 0.0433177758 1663.4166574086 0.0000000000 1462.9535039042 0.7726135942 0.7025308816 19.4352983332 19.4352983332 19.4352983332 0.0051312017 105525.2627469447 0.0044719548 68900.8443139592 33938.8654745686 0.0000967944 0.1276794344 0.1279246712 0.0000000000 1352.8214044440 0.0000000000 0.0008751102 13.2604162392 0.0000000000 19.4164947738 7612.2816500000
 7628.7613500000 2366.9741969772 4339.6944626006 3686.9514057543 0.1786747687 5976378.3076291941 0.1508231082 3367367.4408570561 1462843.1264875969 0.0002545647 5261.0571762766 5768.0993618241 7993.8881716471 4195.6810808146 0.9000000000 0.0486001795 1880.1591140837 0.0000000000 1409.4590743555 0.7560990700 0.6896345206 19.4418108408 19.4418108408 19.4418108408 0.0051316392 105537.7907651384 0.0044773616 67644.0925780061 33529.5419484889 0.0000963621 0.1272708703 0.1275169577 0.0000000000 1347.8441864252 0.0000000000 0.0008752634 13.1744214720 0.0000000000 19.4601217552 7628.7613500000
 7645.2410500000 2425.9607464635 3754.9317977269 4348.0084373702 0.1859124101 6031791.4700774373 0.1598931564 3669103.8504468319 1581493.9469444964 0.0002486631 5265.6179256099 5774.2382434778 8012.4859841104 4204.7452207868 0.9000000000 0.0494526843 1758.5969837458 0.0000000000 1445.1735540447 0.7552722283 0.6887445263 19.3621852210 19.3621852210 19.3621852210 0.0051312511 105384.8454079815 0.0047593615 88119.7590869194 42610.7525662804 0.0001059386 0.1377140024 0.1379405536 0.0000000000 1466.9679378998 0.0000000000 0.0008736681 12.5926484443 0.0000000000 18.9193346423 7645.2410500000
 7661.7207500000 2666.8693415653 4191.2933570373 5269.7384597859 0.2155801244 6266173.6799247926 0.2013170682 4801885.6954560122 1998174.7417732913 0.0004657047 5353.5315424132 5869.0198721368 8030.8998479827 4213.8090620582 0.9000000000 0.0495761775 1179.9229425708 0.0000000000 1591.5538694473 0.7660185047 0.6987374922 19.3573995398 19.3573995398 19.3573995398 0.0051314318 105375.6095554585 0.0047689256 87838.1182983350 42330.4513146380 0.0001056755 0.1374397570 0.1376666975 0.0000000000 1463.7438139196 0.0000000000 0.0008735747 12.5041123772 0.0000000000 18.8882364212 7661.7207500000
