~Version ---------------------------------------------------
VERS.   2.0 : CWLS log ASCII Standard -VERSION 2.0
WRAP.    NO : One line per depth step
DLM . SPACE : Column Data Section Delimiter
~Well ------------------------------------------------------
STRT.ft               5857.54595 : START DEPTH
STOP.ft       7958.7521000000015 : STOP DEPTH
STEP.ft       14.211900000000242 : STEP
NULL.                   -9999.25 : NULL VALUE
COMP.                            : COMPANY
WELL.                     bypass : WELL
FLD .                            : FIELD
LOC .                            : LOCATION
PROV.                            : PROVINCE
CNTY.                            : COUNTY
STAT.                            : STATE
CTRY.                            : COUNTRY
SRVC.                            : SERVICE COMPANY
DATE. 2019-07-30 20:43:36.147719 : DATE
UWI .                            : UNIQUE WELL ID
API .                            : API NUMBER
~Curve Information -----------------------------------------
Depth              .ft          : 
KICh               .psi*in^1/2  : 
KICvup             .psi*in^1/2  : 
KICvdown           .psi*in^1/2  : 
nuh                .            : 
Eh                 .psi         : 
nuv                .            : 
Ev                 .psi         : 
Gv                 .psi         : 
Cl                 .ft/min^1/2  : 
Sigma_h            .psi         : 
SigmaH             .psi         : 
SigmaV             .psi         : 
Pore Pressure      .psi         : 
Biot               .            : 
Porosity           .            : 
Permeability       .nD          : 
SoPhi              .            : 
TensileStrength    .psi         : 
Grad_SigmaH        .psi/ft      : 
Grad_Sigma_h       .psi/ft      : 
Std_KICh           .psi*in^1/2  : 
Std_KICvup         .psi*in^1/2  : 
Std_KICvdown       .psi*in^1/2  : 
Std_nuh            .            : 
Std_Eh             .psi         : 
Std_nuv            .            : 
Std_Ev             .psi         : 
Std_Gv             .psi         : 
Std_Cl             .ft/min^1/2  : 
Std_Sigma_h        .psi         : 
Std_SigmaH         .psi         : 
Std_SigmaV         .psi         : 
Std_Pore Pressure  .psi         : 
Std_Biot           .            : 
Std_Porosity       .            : 
Std_Permeability   .nD          : 
Std_SoPhi          .            : 
Std_TensileStrength.psi         : 
Std_Depth          .ft          : 
~Params ----------------------------------------------------
~Other -----------------------------------------------------
Exported from homogenization method
~ASCII -----------------------------------------------------
# ...
 7473.4090500000 2752.1525205313 3170.7116430226 3172.6670274482 0.2606128272 7382332.0072629238 0.2566517197 6532220.1305959625 2595265.7726228908 0.0001968308 5534.0605475568 6119.6750874161 7850.3127780688 4110.2375856121 0.9000000000 0.0350364849 487.5368645425 0.0000000000 1786.9970823116 0.8188599134 0.7405001533 22.7830259648 22.7830259648 22.7830259648 0.0060164727 123726.0767970486 0.0059603436 131250.8019619156 60662.0015750506 0.0000907927 0.1503864080 0.1506340772 0.0000000000 1774.3221922764 0.0000000000 0.0010265533 14.4789405224 0.0000000000 22.7224985928 7473.4090500000
 7485.5600000000 2700.1198907930 3200.9450516302 3221.8402709453 0.2484741493 7081030.3455396965 0.2390736970 5787212.6275234753 2330394.8488467280 0.0004626531 5511.5705260438 6078.7452928801 7864.1656148656 4116.9195941571 0.9000000000 0.0371327197 610.8583790196 0.0000000000 1737.2059913127 0.8120628641 0.7362936809 22.3226708320 22.3226708320 22.3226708320 0.0058949207 121226.2167551802 0.0058722052 139204.8160341351 64162.2025411275 0.0000694613 0.1603760397 0.1605414577 0.0000000000 1995.5312177116 0.0000000000 0.0010057674 14.1536747751 0.0000000000 22.2631122755 7485.5600000000
 7497.7109500000 2755.2627365520 3003.0308660049 3162.2665902644 0.2534521857 7412641.9663924379 0.2480409217 6597595.9657297973 2638635.3759798310 0.0002113458 5467.4333163785 6058.8114360102 7877.9882128034 4123.6040011135 0.9000000000 0.0388413114 592.1964100649 0.0000000000 1752.3830532344 0.8080881587 0.7292136697 22.7829802435 22.7829802435 22.7829802435 0.0060165035 123725.9888529990 0.0060242979 158811.5226667860 74159.8503066802 0.0000727055 0.1670035606 0.1671690356 0.0000000000 2081.8268291759 0.0000000000 0.0010263769 14.4048444699 0.0000000000 22.7221920048 7497.7109500000
 7509.8618500000 2735.6520637899 3616.1635870468 3986.2545904398 0.2565072515 7266874.3000641614 0.2469253017 6169380.3032255527 2467724.9861365343 0.0002130663 5549.8633584572 6128.2025834242 7891.8017420534 4130.2869719898 0.9000000000 0.0359325283 554.9231950400 0.0000000000 1766.7244110181 0.8160206813 0.7390100470 22.7831246459 22.7831246459 22.7831246459 0.0060165579 123726.2666089441 0.0059255348 125574.3432881716 58734.4610438044 0.0000895263 0.1487182896 0.1489687307 0.0000000000 1752.6824604653 0.0000000000 0.0010266599 14.4950667131 0.0000000000 22.7231602796 7509.8618500000
 7522.0127500000 2720.1500420865 3425.0354418175 3943.5416907799 0.2454070845 7121557.5167404134 0.2350103487 5851428.7931886259 2362239.5202410552 0.0001388487 5494.5023442633 6066.3280232243 7905.6415895202 4136.9689539612 0.9000000000 0.0398372182 685.3571638134 0.0000000000 1718.5695257832 0.8064767004 0.7304563987 22.7829784124 22.7829784124 22.7829784124 0.0060166100 123725.9853310648 0.0059940306 149596.1888473132 70331.2812298923 0.0000718172 0.1654075862 0.1655746536 0.0000000000 2059.9574266489 0.0000000000 0.0010261292 14.4385278651 0.0000000000 22.7221797228 7522.0127500000
 7534.1636500000 2796.5230458224 3579.1263624151 3091.5489824112 0.2646052431 7799008.5234780665 0.2638984365 7400020.1335799098 2926496.7981666736 0.0005012643 5535.9039013035 6152.6187667699 7919.3960016068 4143.6521731057 0.9000000000 0.0365009860 482.4497319240 0.0000000000 1797.7984163757 0.8166292972 0.7347735142 22.3227090982 22.3227090982 22.3227090982 0.0058949652 121226.2903597108 0.0058645679 150489.5464631871 70023.3716968612 0.0000706702 0.1625675574 0.1627307468 0.0000000000 2025.5166792331 0.0000000000 0.0010057835 14.1358228794 0.0000000000 22.2633688657 7534.1636500000
 7546.3145500000 2727.3760239166 3048.1512521830 3319.0863974683 0.2466539597 7271832.0227464335 0.2371982202 6140997.8361063022 2477606.4582829075 0.0001355070 5491.4228689262 6074.7308483579 7933.2264440376 4150.3363040447 0.9000000000 0.0399547762 678.8084516826 0.0000000000 1722.7382890518 0.8049930609 0.7276959942 22.7829647925 22.7829647925 22.7829647925 0.0060165705 123725.9591334580 0.0059741804 139918.9117289130 67499.9150564524 0.0000710512 0.1640823579 0.1642507741 0.0000000000 2041.4419384097 0.0000000000 0.0010261562 14.4496255747 0.0000000000 22.7220883963 7546.3145500000
 7558.4654500000 2832.9041168383 3437.7647794006 3265.3250298840 0.2667608349 7920229.0547276698 0.2648048590 7613639.2617592402 3005832.0688315518 0.0001933476 5548.7967365995 6174.0314957417 7946.9532501201 4157.0182860161 0.9000000000 0.0379101017 502.4345929088 0.0000000000 1799.4566308040 0.8168366366 0.7341168354 22.7830235434 22.7830235434 22.7830235434 0.0060165372 123726.0721397432 0.0060236894 146862.1983605920 69119.0434010473 0.0000714987 0.1648343264 0.1650019763 0.0000000000 2051.9906880492 0.0000000000 0.0010266092 14.3996660517 0.0000000000 22.7224823520 7558.4654500000
 7570.6163500000 2715.0747206047 3214.2135526942 3628.3602976949 0.2546001760 7218399.4039095566 0.2448060315 5909115.1909468360 2367103.6290848800 0.0002173092 5634.2506104868 6209.6051769968 7960.7942532191 4163.7003450978 0.9000000000 0.0350994631 549.8323032895 0.0000000000 1761.9030836340 0.8202245220 0.7442261436 22.3228222935 22.3228222935 22.3228222935 0.0058949153 121226.5080886984 0.0058361403 119954.6937692599 55352.1320381982 0.0000867304 0.1444052574 0.1446528604 0.0000000000 1700.2723725202 0.0000000000 0.0010057920 14.2006801549 0.0000000000 22.2641278969 7570.6163500000
 7582.7672500000 2653.0940964391 2997.0576821740 2996.6903483980 0.2346608574 6700452.8902697777 0.2270115417 5048565.0360267451 2056570.0709781081 0.0004933385 5581.5254658186 6124.2212879080 7974.6573370935 4170.3856360996 0.9000000000 0.0392266815 730.9985721914 0.0000000000 1686.2481360084 0.8076499101 0.7360802833 22.7831850240 22.7831850240 22.7831850240 0.0060165381 123726.3827454847 0.0059171299 125291.6986442198 58395.3499575854 0.0000893855 0.1485041233 0.1487549262 0.0000000000 1750.0748388472 0.0000000000 0.0010266651 14.5019875873 0.0000000000 22.7235651297 7582.7672500000
 7594.9181500000 2698.5916085298 3289.7042455303 3934.2267348710 0.2463765468 7004362.8997349860 0.2337063302 5546393.4658177765 2241670.4406991405 0.0002305478 5599.3132116297 6161.2912846232 7988.4997805929 4177.0676180710 0.9000000000 0.0375881631 659.7804962477 0.0000000000 1724.7556408136 0.8112386681 0.7372447077 22.7830664599 22.7830664599 22.7830664599 0.0060166564 123726.1546886798 0.0059199717 131597.3205721134 60252.0030692097 0.0000906638 0.1501053866 0.1503535138 0.0000000000 1771.3588183952 0.0000000000 0.0010260439 14.5006283830 0.0000000000 22.7227701262 7594.9181500000
 7607.0690500000 2743.6873979966 4139.6483375295 3513.9227854204 0.2474045169 6881518.7053107489 0.2328623062 5440629.4219265645 2199159.4942444083 0.0001460609 5604.8788709165 6156.5458411600 8002.2462289890 4183.7496000424 0.9000000000 0.0398159232 694.9015744047 0.0000000000 1724.1415215251 0.8093190427 0.7367987373 22.3233731576 22.3233731576 22.3233731576 0.0058951736 121227.5676848527 0.0058269285 119496.8455265862 59917.7895119489 0.0000681395 0.1581335037 0.1583012640 0.0000000000 1963.8707764270 0.0000000000 0.0010064226 14.1373451081 0.0000000000 22.2678211085 7607.0690500000
 7619.2200000000 2859.9707058649 3733.5108697371 3818.1049036727 0.3076402374 8729057.6931315083 0.3062888259 8673883.8029703386 3319255.0170303867 0.0001476678 5957.7889558635 6625.3317129450 8016.2490304949 4190.4339133695 0.9000000000 0.0223826077 180.1770559701 0.0000000000 1966.0839827323 0.8695551136 0.7819421090 22.7832633686 22.7832633686 22.7832633686 0.0060166923 123726.5334401602 0.0060166923 146198.5318621486 71935.0498445035 0.0000717287 0.1653270876 0.1654942364 0.0000000000 2058.1321296128 0.0000000000 0.0010274022 14.3229318886 0.0000000000 22.7240904574 7619.2200000000
 7631.3709500000 2858.6487155698 4938.0787825941 5149.1884420115 0.3016367397 8106080.9896288197 0.2883052516 7461421.5881007547 2883372.9908065149 0.0004987047 5953.8579250367 6576.6185419281 8030.3930014146 4197.1170044488 0.9000000000 0.0254394047 270.1264110940 0.0000000000 1929.0144931577 0.8617872968 0.7801819574 22.7833916905 22.7833916905 22.7833916905 0.0060166348 123726.7802683373 0.0060117385 132556.2212573297 64437.1481880689 0.0000702803 0.1626826178 0.1628524832 0.0000000000 2022.1367826955 0.0000000000 0.0010270226 14.3759927670 0.0000000000 22.7249508134 7631.3709500000
