~Version ---------------------------------------------------
VERS.   2.0 : CWLS log ASCII Standard -VERSION 2.0
WRAP.    NO : One line per depth step
DLM . SPACE : Column Data Section Delimiter
~Well ------------------------------------------------------
STRT.ft               6185.69585 : START DEPTH
STOP.ft        7989.874549999998 : STOP DEPTH
STEP.ft       13.981649999999718 : STEP
NULL.                   -9999.25 : NULL VALUE
COMP.                            : COMPANY
WELL.                     bypass : WELL
FLD .                            : FIELD
LOC .                            : LOCATION
PROV.                            : PROVINCE
CNTY.                            : COUNTY
STAT.                            : STATE
CTRY.                            : COUNTRY
SRVC.                            : SERVICE COMPANY
DATE. 2019-07-30 20:43:31.349442 : DATE
UWI .                            : UNIQUE WELL ID
API .                            : API NUMBER
~Curve Information -----------------------------------------
Depth              .ft          : 
KICh               .psi*in^1/2  : 
KICvup             .psi*in^1/2  : 
KICvdown           .psi*in^1/2  : 
nuh                .            : 
Eh                 .psi         : 
nuv                .            : 
Ev                 .psi         : 
Gv                 .psi         : 
Cl                 .ft/min^1/2  : 
Sigma_h            .psi         : 
SigmaH             .psi         : 
SigmaV             .psi         : 
Pore Pressure      .psi         : 
Biot               .            : 
Porosity           .            : 
Permeability       .nD          : 
SoPhi              .            : 
TensileStrength    .psi         : 
Grad_SigmaH        .psi/ft      : 
Grad_Sigma_h       .psi/ft      : 
Std_KICh           .psi*in^1/2  : 
Std_KICvup         .psi*in^1/2  : 
Std_KICvdown       .psi*in^1/2  : 
Std_nuh            .            : 
Std_Eh             .psi         : 
Std_nuv            .            : 
Std_Ev             .psi         : 
Std_Gv             .psi         : 
Std_Cl             .ft/min^1/2  : 
Std_Sigma_h        .psi         : 
Std_SigmaH         .psi         : 
Std_SigmaV         .psi         : 
Std_Pore Pressure  .psi         : 
Std_Biot           .            : 
Std_Porosity       .            : 
Std_Permeability   .nD          : 
Std_SoPhi          .            : 
Std_TensileStrength.psi         : 
Std_Depth          .ft          : 
~Params ----------------------------------------------------
~Other -----------------------------------------------------
Exported from homogenization method
~ASCII -----------------------------------------------------
# ...
 6385.2661000000 2781.8029711795 4562.6423157289 6143.4642530868 0.2258936097 6874131.1469958853 0.2109512072 5923104.1312359236 2442707.8502822798 0.0005970310 3898.7821367278 4459.5266493650 6592.6197098910 2681.7066134801 0.9000000000 0.0519955450 1141.0057299753 0.0000000000 1646.3915843429 0.6984088963 0.6105903929 20.6323416206 20.6323416206 20.6323416206 0.0054754774 112375.6994329188 0.0052116395 104123.5078976554 51160.7101108099 0.0001191127 0.1536877476 0.1539184654 0.0000000000 1641.7856617297 0.0000000000 0.0009309284 13.1479293187 0.0000000000 20.0330836462 6385.2661000000
 6399.5805500000 2691.5237062616 3727.5603487641 3344.6799472128 0.1856563724 5748102.7541834498 0.1643271123 4354376.2980466047 1865811.9737438746 0.0005442445 3645.3902413303 4130.1936707082 6608.0858460365 2687.7192694121 0.9000000000 0.0659535594 1779.8237103850 0.0000000000 1456.7851191910 0.6453850590 0.5696295582 21.0289458694 21.0289458694 21.0289458694 0.0055732108 114425.0551749726 0.0050680640 95778.6558379002 46564.9486246297 0.0001149120 0.1491409468 0.1493875055 0.0000000000 1589.6642239091 0.0000000000 0.0009474559 13.4131886089 0.0000000000 20.6030648186 6399.5805500000
 6413.8950000000 2642.4123430166 3501.8706388041 3147.4165147037 0.1819452308 5663122.1870422009 0.1633694410 4178731.3507186561 1793369.5459089137 0.0003432715 3667.4037458944 4146.5394993333 6623.3958221875 2693.7303282010 0.9000000000 0.0644076910 1765.9830208454 0.0000000000 1452.9540161825 0.6464931994 0.5717904247 20.6450282180 20.6450282180 20.6450282180 0.0054755281 112400.0262991134 0.0051175989 100033.9718803032 48910.9701104659 0.0001165218 0.1507018863 0.1509373091 0.0000000000 1608.4342902052 0.0000000000 0.0009309263 13.1763488237 0.0000000000 20.1206024876 6413.8950000000
 6428.2094500000 2661.8552864673 5344.6829768825 4309.1833962866 0.2065616445 6263405.3053455045 0.1819913669 4677838.3602197124 1973844.2154945980 0.0005992962 3857.6962074811 4376.8081263884 6638.8976194643 2699.7433431835 0.9000000000 0.0542194777 1353.9743895212 0.0000000000 1555.5622056581 0.6808751582 0.6001198681 20.5984512368 20.5984512368 20.5984512368 0.0054736064 112310.7779912173 0.0053556589 103028.3262981122 51704.8119095409 0.0000761984 0.1323564362 0.1325796374 0.0000000000 1440.1040646869 0.0000000000 0.0009311279 13.1566532907 0.0000000000 19.7970262670 6428.2094500000
 6442.5239000000 2682.5712384244 5141.6362836834 4947.3198970964 0.2307316263 6817399.2822726546 0.2122498301 5467743.5665019434 2247381.5897739725 0.0005554761 4053.0001607776 4606.9307770397 6654.8290018986 2705.7551681524 0.9000000000 0.0440995851 901.8911934336 0.0000000000 1672.7329886192 0.7150816743 0.6291013000 20.9530661436 20.9530661436 20.9530661436 0.0055703877 114279.6278186011 0.0054644371 106465.2700715457 53281.1412735395 0.0000778745 0.1351576911 0.1353839694 0.0000000000 1471.0149984340 0.0000000000 0.0009475682 13.3773307729 0.0000000000 20.0768907006 6442.5239000000
 6456.8383500000 2726.8002597204 4415.6276718146 5321.6746930270 0.2398536986 6935590.4496332910 0.2222968990 5711306.6041604923 2329818.2716645971 0.0006314468 4119.3921638608 4678.7799736770 6670.9472250738 2711.7662917322 0.9000000000 0.0432295675 828.8255646784 0.0000000000 1698.9184897468 0.7246239909 0.6379890498 20.6012760374 20.6012760374 20.6012760374 0.0054735985 112316.1797586005 0.0053462118 104430.6840846907 51780.2712835021 0.0000763570 0.1325187884 0.1327417476 0.0000000000 1442.3335331713 0.0000000000 0.0009311968 13.1612985470 0.0000000000 19.8170316900 6456.8383500000
 6471.1528000000 2697.7338711026 4189.5438497089 4658.0173969012 0.2285346151 6583781.6826999960 0.2116907403 5222035.3463431355 2149080.0709575266 0.0005969731 4071.9542863132 4607.8595511576 6687.0041170658 2717.7800081037 0.9000000000 0.0459862771 958.2681196299 0.0000000000 1655.9860501099 0.7120616208 0.6292471237 20.9575564375 20.9575564375 20.9575564375 0.0055704632 114288.1860144976 0.0054356445 107901.1757487301 52542.5985427404 0.0000777695 0.1348607301 0.1350875517 0.0000000000 1468.2480590149 0.0000000000 0.0009475186 13.3736241549 0.0000000000 20.1097222663 6471.1528000000
 6485.3756000000 2665.2708785199 3710.5076639845 4103.9113087953 0.2210856714 6366819.4107423350 0.2083982007 5062345.8710701773 2092400.8898984785 0.0002499706 4029.9664565442 4551.3729032602 6702.8887617731 2723.7522622283 0.9000000000 0.0472293151 1016.6964585445 0.0000000000 1633.7703001599 0.7017901790 0.6213929162 20.6353625843 20.6353625843 20.6353625843 0.0054737963 112381.4926739228 0.0052382585 95679.2517902494 46261.9539337039 0.0001141617 0.1485241760 0.1487629955 0.0000000000 1581.5417485962 0.0000000000 0.0009315036 13.2580290120 0.0000000000 20.0538960547 6485.3756000000
 6499.5068500000 2591.4455848515 3366.8539974827 3128.4529777603 0.2022841371 6072149.1346575152 0.1921622079 4472299.6644943040 1875307.7287470875 0.0001967146 3978.7134294738 4483.7645190931 6718.6009122353 2729.6879520639 0.9000000000 0.0501753904 1223.9118949400 0.0000000000 1567.9754220171 0.6898622653 0.6121562022 20.9921970163 20.9921970163 20.9921970163 0.0055705506 114354.5295558402 0.0053803852 99850.9408654616 48191.2217615460 0.0000758641 0.1321623064 0.1323941324 0.0000000000 1436.4689598416 0.0000000000 0.0009479524 13.4549834116 0.0000000000 20.3515120184 6499.5068500000
 6513.6381500000 2654.3813185827 4366.3899287601 3809.1861443583 0.2176574635 6283450.3192925379 0.2049850388 4901022.3406956932 2031892.6242237925 0.0002559161 4040.8013055044 4556.8290479399 6734.3042039768 2735.6234594836 0.9000000000 0.0479189792 1065.6247011423 0.0000000000 1618.1808405891 0.6995827743 0.6203601140 20.9715061436 20.9715061436 20.9715061436 0.0055705881 114314.8898369759 0.0054252190 107443.0207625161 52172.4614854637 0.0000776659 0.1347051735 0.1349324040 0.0000000000 1466.4728920791 0.0000000000 0.0009476866 13.3932373786 0.0000000000 20.2075474964 6513.6381500000
 6527.7694000000 2685.3321268671 3672.3122545262 3468.7795667874 0.2191205447 6281648.7679275814 0.2085773985 5061086.0818339614 2091859.1241116992 0.0001824345 4031.8018122359 4547.0624889003 6750.0600906908 2741.5580723505 0.9000000000 0.0490594043 1058.6020117008 0.0000000000 1623.9927422170 0.6965721689 0.6176385171 20.9909292846 20.9909292846 20.9909292846 0.0055706212 114352.1199039094 0.0053277300 99856.8095549968 48075.2106579627 0.0000757585 0.1319061855 0.1321384443 0.0000000000 1434.0171306946 0.0000000000 0.0009478691 13.4639673311 0.0000000000 20.3420377449 6527.7694000000
 6541.9006500000 2605.0417495876 2829.4510988801 2866.1304993266 0.2029784479 6024942.4433253417 0.1919217424 4422885.3919360694 1855085.5406804059 0.0002787767 4008.4863782549 4509.3218216420 6765.7486254468 2747.4926851033 0.9000000000 0.0509575708 1254.9954582647 0.0000000000 1561.2540204045 0.6892984261 0.6127403323 20.6250345230 20.6250345230 20.6250345230 0.0054736095 112361.6820439699 0.0052927222 98893.2262566873 48062.8094093292 0.0000748154 0.1302652553 0.1304923275 0.0000000000 1416.1347017521 0.0000000000 0.0009315162 13.2195776456 0.0000000000 19.9828574506 6541.9006500000
 6556.0319000000 2655.2139084814 3569.1842652945 4169.7989724907 0.2174430012 6306264.6411834192 0.2053474915 4918743.6979440805 2038599.3073693828 0.0002590371 4069.7848959131 4587.7774947568 6781.4816354686 2753.4287476647 0.9000000000 0.0479825576 1063.2918246947 0.0000000000 1617.0222884643 0.6997796174 0.6207695383 20.9876069767 20.9876069767 20.9876069767 0.0055706765 114345.7395727082 0.0053462742 102400.8441325946 49351.5382798261 0.0000763526 0.1327500085 0.1329807548 0.0000000000 1443.9430438174 0.0000000000 0.0009477856 13.4437361945 0.0000000000 20.3194504217 6556.0319000000
 6570.1631500000 2619.5463396827 3190.7372883705 3416.0056497525 0.2031113379 6037082.2365333941 0.1895813299 4466694.4371737242 1876606.2411286046 0.0002042779 3998.3695100976 4500.1586667977 6797.1555315138 2759.3638619235 0.9000000000 0.0524706297 1313.4027757331 0.0000000000 1552.4748150983 0.6849386483 0.6085647219 21.0101031517 21.0101031517 21.0101031517 0.0055709050 114388.8795195048 0.0052262540 95060.9447869669 45915.6025986236 0.0001147157 0.1493394520 0.1495855472 0.0000000000 1589.8739254822 0.0000000000 0.0009479979 13.5154023811 0.0000000000 20.4745489786 6570.1631500000
