~Version ---------------------------------------------------
VERS.   2.0 : CWLS log ASCII Standard -VERSION 2.0
WRAP.    NO : One line per depth step
DLM . SPACE : Column Data Section Delimiter
~Well ------------------------------------------------------
STRT.ft               5857.54595 : START DEPTH
STOP.ft       7958.7521000000015 : STOP DEPTH
STEP.ft       14.211900000000242 : STEP
NULL.                   -9999.25 : NULL VALUE
COMP.                            : COMPANY
WELL.                     bypass : WELL
FLD .                            : FIELD
LOC .                            : LOCATION
PROV.                            : PROVINCE
CNTY.                            : COUNTY
STAT.                            : STATE
CTRY.                            : COUNTRY
SRVC.                            : SERVICE COMPANY
DATE. 2019-07-30 20:43:36.147719 : DATE
UWI .                            : UNIQUE WELL ID
API .                            : API NUMBER
~Curve Information -----------------------------------------
Depth              .ft          : 
KICh               .psi*in^1/2  : 
KICvup             .psi*in^1/2  : 
KICvdown           .psi*in^1/2  : 
nuh                .            : 
Eh                 .psi         : 
nuv                .            : 
Ev                 .psi         : 
Gv                 .psi         : 
Cl                 .ft/min^1/2  : 
Sigma_h            .psi         : 
SigmaH             .psi         : 
SigmaV             .psi         : 
Pore Pressure      .psi         : 
Biot               .            : 
Porosity           .            : 
Permeability       .nD          : 
SoPhi              .            : 
TensileStrength    .psi         : 
Grad_SigmaH        .psi/ft      : 
Grad_Sigma_h       .psi/ft      : 
Std_KICh           .psi*in^1/2  : 
Std_KICvup         .psi*in^1/2  : 
Std_KICvdown       .psi*in^1/2  : 
Std_nuh            .            : 
Std_Eh             .psi         : 
Std_nuv            .            : 
Std_Ev             .psi         : 
Std_Gv             .psi         : 
Std_Cl             .ft/min^1/2  : 
Std_Sigma_h        .psi         : 
Std_SigmaH         .psi         : 
Std_SigmaV         .psi         : 
Std_Pore Pressure  .psi         : 
Std_Biot           .            : 
Std_Porosity       .            : 
Std_Permeability   .nD          : 
Std_SoPhi          .            : 
Std_TensileStrength.psi         : 
Std_Depth          .ft          : 
~Params ----------------------------------------------------
~Other -----------------------------------------------------
Exported from homogenization method
~ASCII -----------------------------------------------------
# ...
 7272.0454500000 2759.6640367523 5652.9407261849 4559.7263435232 0.2656366554 7311916.6863460839 0.2447535977 6051400.7356421687 2420012.1107806098 0.0006259473 5427.4553029621 6005.1816713720 7619.6243922876 3999.4872429558 0.9000000000 0.0344824808 538.2115035870 0.0000000000 1792.9470139074 0.8257898981 0.7463450745 20.0466312800 20.0466312800 20.0466312800 0.0052938417 108864.8970552043 0.0052749897 116735.0731975830 56367.5184962186 0.0000618260 0.1431038142 0.1432533170 0.0000000000 1778.8711355615 0.0000000000 0.0009034989 12.6695920319 0.0000000000 19.9947498107 7272.0454500000
 7287.4859500000 2790.0304014500 19831.6240157878 19357.5250092876 0.2795222249 7462448.2489456758 0.2603089753 6408378.2770088017 2525537.4016724061 0.0007511178 5529.0766971507 6112.2981608814 7637.3359691860 4007.9793846359 0.9000000000 0.0301968304 388.5229684783 0.0000000000 1853.0551296042 0.8387389290 0.7587083852 20.0468096321 20.0468096321 20.0468096321 0.0052938410 108865.2401263319 0.0052531141 108196.3164249272 52259.1237165397 0.0000610654 0.1417329873 0.1418839359 0.0000000000 1760.1454946538 0.0000000000 0.0009034328 12.7078519900 0.0000000000 19.9959453101 7287.4859500000
 7302.9264500000 2643.0241123285 3969.9731493424 5329.3110565399 0.2330415102 6480528.6957376637 0.2124345091 4628104.6889452403 1901369.9405802214 0.0005978747 5341.4744218739 5867.0470520163 7655.0397474603 4016.4717559673 0.9000000000 0.0403055898 843.0739256443 0.0000000000 1669.6997821053 0.8033830126 0.7314156124 20.0470965375 20.0470965375 20.0470965375 0.0052939031 108865.7919828972 0.0050749345 80992.2497358661 38353.5582904666 0.0000995921 0.1284806072 0.1287221023 0.0000000000 1516.0440471636 0.0000000000 0.0009028905 12.9841773236 0.0000000000 19.9978691697 7302.9264500000
 7318.3669000000 2627.2607112021 21115.4470163920 20852.1486109519 0.2228366116 6098628.2026786488 0.2037088407 4126689.5131752864 1706696.5664610791 0.0010030970 5334.3382530230 5833.0662224564 7672.4736580320 4024.9647308462 0.9000000000 0.0423292759 936.2949612054 0.0000000000 1638.1259390935 0.7970447918 0.7288973518 20.0464945266 20.0464945266 20.0464945266 0.0052938089 108864.6340103955 0.0052568015 112869.8340702734 54787.2749443590 0.0000615320 0.1425910240 0.1427410636 0.0000000000 1771.8016100358 0.0000000000 0.0009032019 12.7058745930 0.0000000000 19.9938328782 7318.3669000000
 7333.8073500000 2838.9191962316 21209.7764922164 20021.1632513026 0.2796970841 7867524.8590930616 0.2782542219 7753680.2486722171 3031166.8613973549 0.0007190596 5460.2430144406 6075.0388873978 7690.0354390358 4033.4568441789 0.9000000000 0.0331636657 367.8980123389 0.0000000000 1856.0653325327 0.8283608496 0.7445304674 20.0464572684 20.0464572684 20.0464572684 0.0052937772 108864.5623437086 0.0052937772 113224.0369840956 58981.3157253036 0.0000619566 0.1435053286 0.1436544139 0.0000000000 1783.2278915112 0.0000000000 0.0009034104 12.6280036920 0.0000000000 19.9935830821 7333.8073500000
 7349.2478500000 2849.1863662120 20817.4255772079 20808.4984492094 0.2886085116 8325546.4028983423 0.2878280484 8282955.7903355127 3215502.2114180364 0.0005408850 5555.0630616193 6201.1511735808 7707.7282872317 4041.9489858590 0.9000000000 0.0302165398 299.0164269868 0.0000000000 1891.1153971014 0.8437803841 0.7558682433 20.0464628299 20.0464628299 20.0464628299 0.0052938555 108864.5730410698 0.0052938555 116286.8785931730 60348.3754272467 0.0000622297 0.1439893237 0.1441379064 0.0000000000 1789.8967483656 0.0000000000 0.0009037919 12.6107375235 0.0000000000 19.9936203754 7349.2478500000
 7364.6883500000 2797.0064176313 20476.4483098388 20628.6379978830 0.2845915890 8079550.6854658239 0.2827449513 7884633.0323858354 3069135.7094272743 0.0006959338 5548.0381213459 6176.9968312087 7725.5561898888 4050.4411275391 0.9000000000 0.0278640168 282.9547611956 0.0000000000 1886.2711917061 0.8387315984 0.7533296533 20.3778235386 20.3778235386 20.3778235386 0.0053813017 110664.0935466848 0.0053882927 119260.4458928371 57517.2368064638 0.0000629017 0.1455879172 0.1457397674 0.0000000000 1809.7296688340 0.0000000000 0.0009185850 12.8716756819 0.0000000000 20.3240606121 7364.6883500000
 7380.1288000000 2620.2728454082 19917.7859224981 19975.1341104150 0.2444812622 7217377.3245602585 0.2407821946 5552767.1137515809 2234589.2866359320 0.0005746890 5535.0788184614 6115.0294809222 7743.3874782123 4058.9332414732 0.9000000000 0.0321405503 518.0287033758 0.0000000000 1749.3615594064 0.8285803198 0.7499975906 20.0466399647 20.0466399647 20.0466399647 0.0052938452 108864.9137583422 0.0052171247 99454.2581315402 47079.9863072059 0.0000762374 0.1275793183 0.1278053268 0.0000000000 1499.2314119821 0.0000000000 0.0009034033 12.7899962843 0.0000000000 19.9948080964 7380.1288000000
 7395.5692500000 2599.7606099913 21344.1552509421 20932.2531116040 0.2254602077 6572886.3465992203 0.2174363148 4698619.4350215392 1929135.7955258535 0.0008777969 5427.0939475315 5963.4545984177 7761.0653818874 4067.4253556814 0.9000000000 0.0391733337 798.8439995367 0.0000000000 1660.3242066008 0.8063550481 0.7338304550 20.0466598593 20.0466598593 20.0466598593 0.0052937780 108864.9520273948 0.0051911460 98482.7104785785 46586.9696501769 0.0000759863 0.1272105209 0.1274371857 0.0000000000 1494.7002457319 0.0000000000 0.0009033805 12.8162854545 0.0000000000 19.9949414369 7395.5692500000
 7411.0097500000 2632.7574062290 4096.3685945684 3719.1199485537 0.2355983521 6729364.6168313622 0.2174173942 4920112.9100992000 2014523.7281360731 0.0002972193 5435.1895295560 5979.8134848714 7778.6901793400 4075.9174973615 0.9000000000 0.0385348317 779.9983897810 0.0000000000 1683.0679810527 0.8068824204 0.7333939251 21.0932017414 21.0932017414 21.0932017414 0.0055702683 114548.5087970178 0.0054689792 118393.7409114757 56473.3140138093 0.0000646608 0.1498267954 0.1499848870 0.0000000000 1861.9686788223 0.0000000000 0.0009504849 13.4259906474 0.0000000000 21.0384101120 7411.0097500000
 7424.8054500000 2778.7987593707 4237.6560249745 4636.5386863629 0.2810894370 8009340.0797168138 0.2769286275 7491647.1614406258 2930288.8147509475 0.0000913815 5616.0216421095 6241.2192160008 7794.4768292130 4083.5062715858 0.9000000000 0.0283714851 319.2395797112 0.0000000000 1869.1941716749 0.8405902697 0.7563863700 22.7830365838 22.7830365838 22.7830365838 0.0060165370 123726.0972226606 0.0060187481 160090.5543197353 74951.1623727575 0.0000728103 0.1671635983 0.1673289146 0.0000000000 2084.1445291425 0.0000000000 0.0010270707 14.3606814135 0.0000000000 22.7225697937 7424.8054500000
 7436.9563500000 2782.2984139253 3164.5186862988 2894.0752723685 0.2721036565 7766173.4157719165 0.2709404662 7336623.9216218824 2884702.3363598017 0.0004963960 5535.6175794742 6146.1160538679 7808.4799294720 4090.1882535572 0.9000000000 0.0321078547 380.7409189491 0.0000000000 1834.3180044760 0.8264289535 0.7443391246 22.7830568155 22.7830568155 22.7830568155 0.0060165453 123726.1361382816 0.0060165453 150007.8427737841 73404.4027489038 0.0000721284 0.1660613748 0.1662277873 0.0000000000 2068.1704641076 0.0000000000 0.0010270800 14.3485507539 0.0000000000 22.7227054484 7436.9563500000
 7449.1072500000 2815.6409137809 3540.3616054745 3844.2044874764 0.2853991717 8287524.2712925160 0.2836856815 8169236.5806219876 3180592.3329026224 0.0001663839 5610.0821812544 6254.8254216113 7822.4953221378 4096.8704044229 0.9000000000 0.0290045255 303.3762913986 0.0000000000 1883.1071909197 0.8396745022 0.7531214135 22.3226749850 22.3226749850 22.3226749850 0.0058948955 121226.2247432765 0.0058948955 153261.1293213327 73737.2130767875 0.0000712198 0.1636650887 0.1638271863 0.0000000000 2039.7750662435 0.0000000000 0.0010059643 14.0756250128 0.0000000000 22.2631401283 7449.1072500000
 7461.2581500000 2801.4531732810 3190.6723868978 2962.6807693441 0.2711439843 7770567.3339041648 0.2706946376 7436687.9824056160 2925126.1019390686 0.0001034828 5528.4859214903 6139.7909687579 7836.4204951934 4103.5556036407 0.9000000000 0.0337642035 405.9379299913 0.0000000000 1826.8450372605 0.8228894974 0.7409589389 22.7829603339 22.7829603339 22.7829603339 0.0060164475 123725.9505574482 0.0060291642 156570.5687669610 72685.9698476985 0.0000723848 0.1663937535 0.1665598356 0.0000000000 2073.6265663677 0.0000000000 0.0010266433 14.3896799441 0.0000000000 22.7220584985 7461.2581500000
