~Version ---------------------------------------------------
VERS.   2.0 : CWLS log ASCII Standard -VERSION 2.0
WRAP.    NO : One line per depth step
DLM . SPACE : Column Data Section Delimiter
~Well ------------------------------------------------------
STRT.ft               5569.94125 : START DEPTH
STOP.ft        8198.326850000001 : STOP DEPTH
STEP.ft        14.50250000000051 : STEP
NULL.                   -9999.25 : NULL VALUE
COMP.                            : COMPANY
WELL.                     bypass : WELL
FLD .                            : FIELD
LOC .                            : LOCATION
PROV.                            : PROVINCE
CNTY.                            : COUNTY
STAT.                            : STATE
CTRY.                            : COUNTRY
SRVC.                            : SERVICE COMPANY
DATE. 2019-07-30 20:43:31.496337 : DATE
UWI .                            : UNIQUE WELL ID
API .                            : API NUMBER
~Curve Information -----------------------------------------
Depth              .ft          : 
KICh               .psi*in^1/2  : 
KICvup             .psi*in^1/2  : 
KICvdown           .psi*in^1/2  : 
nuh                .            : 
Eh                 .psi         : 
nuv                .            : 
Ev                 .psi         : 
Gv                 .psi         : 
Cl                 .ft/min^1/2  : 
Sigma_h            .psi         : 
SigmaH             .psi         : 
SigmaV             .psi         : 
Pore Pressure      .psi         : 
Biot               .            : 
Porosity           .            : 
Permeability       .nD          : 
SoPhi              .            : 
TensileStrength    .psi         : 
Grad_SigmaH        .psi/ft      : 
Grad_Sigma_h       .psi/ft      : 
Std_KICh           .psi*in^1/2  : 
Std_KICvup         .psi*in^1/2  : 
Std_KICvdown       .psi*in^1/2  : 
Std_nuh            .            : 
Std_Eh             .psi         : 
Std_nuv            .            : 
Std_Ev             .psi         : 
Std_Gv             .psi         : 
Std_Cl             .ft/min^1/2  : 
Std_Sigma_h        .psi         : 
Std_SigmaH         .psi         : 
Std_SigmaV         .psi         : 
Std_Pore Pressure  .psi         : 
Std_Biot           .            : 
Std_Porosity       .            : 
Std_Permeability   .nD          : 
Std_SoPhi          .            : 
Std_TensileStrength.psi         : 
Std_Depth          .ft          : 
~Params ----------------------------------------------------
~Other -----------------------------------------------------
Exported from homogenization method
~ASCII -----------------------------------------------------
 5569.9412500000 2666.5972914264 3154.3474564794 3015.7356608173 0.1986796209 6092237.2118121702 0.1981270631 4744692.2668487690 1979668.4458664893 0.0004715911 3384.6038244172 3892.8494895316 5737.8774855321 2339.2703292536 0.9000000000 0.0529360726 1164.6917768613 0.0000000000 1606.7764289870 0.6989031508 0.6076552108 20.6029049455 20.6029049455 20.6029049455 0.0054738998 112319.2526158473 0.0054665590 100353.0162293971 49850.2608286233 0.0000842476 0.1351968855 0.1354437612 0.0000000000 1469.9103997823 0.0000000000 0.0009308972 13.1502165180 0.0000000000 19.8300439503 5569.9412500000
 5584.4437500000 2712.2465003711 3652.6611486438 3569.0344156621 0.2166131974 6712808.5174895776 0.2054095464 5492492.1058795964 2267818.4092058023 0.0004532353 3430.8509639375 3982.6128987983 5753.8711398669 2345.3613790726 0.9000000000 0.0491568447 986.5392883839 0.0000000000 1661.7864323505 0.7131619687 0.6143585857 20.5768335477 20.5768335477 20.5768335477 0.0054736400 112269.3422088773 0.0054726560 111530.6449132412 56795.6117478197 0.0000882743 0.1404542436 0.1406916139 0.0000000000 1532.0762106563 0.0000000000 0.0009306946 13.1014859625 0.0000000000 19.6473163086 5584.4437500000
 5598.9462500000 2738.8794753784 3784.8285174271 3264.1779393132 0.2208988038 6525683.1087264875 0.2141645570 5487567.8052567150 2253921.5776731521 0.0004565307 3462.1977659143 3996.6960460649 5769.9609838674 2351.4524288916 0.9000000000 0.0492862832 965.5026229824 0.0000000000 1665.9511782850 0.7138300437 0.6183659588 20.5829800304 20.5829800304 20.5829800304 0.0054738204 112281.0948645279 0.0054460006 109706.5467888726 53320.8613435825 0.0000866366 0.1380846517 0.1383261516 0.0000000000 1505.1855603510 0.0000000000 0.0009306626 13.1084316835 0.0000000000 19.6909001018 5598.9462500000
 5613.4487500000 2738.3782567890 3593.4127674824 4182.2604567849 0.2119685031 5909880.1458971212 0.2068978411 4952033.4668078367 2049719.9991622944 0.0004693302 3401.0224263337 3888.6489719749 5785.9893766676 2357.5434787106 0.9000000000 0.0539079249 1166.5708129801 0.0000000000 1621.6987626995 0.6927379487 0.6058703976 20.5951542345 20.5951542345 20.5951542345 0.0054741329 112304.4046376878 0.0054402132 107164.8215713069 51837.6318716860 0.0000857793 0.1369719878 0.1372155740 0.0000000000 1492.0044114221 0.0000000000 0.0009306580 13.1293538832 0.0000000000 19.7760870123 5613.4487500000
 5627.9512500000 2723.0806109869 3410.1931493093 3085.2805697609 0.2116127088 5977407.5324237477 0.2108141877 4994831.0155648245 2062258.0986493325 0.0004687584 3435.5861362577 3928.9292226136 5801.8552401871 2363.6345285296 0.9000000000 0.0523935371 1095.7137839473 0.0000000000 1631.7440769941 0.6981100312 0.6104505856 20.5971051082 20.5971051082 20.5971051082 0.0054737896 112308.1402335820 0.0054726228 103105.5237323565 50777.5795684386 0.0000849228 0.1360285805 0.1362738867 0.0000000000 1479.9740872761 0.0000000000 0.0009308722 13.1384854429 0.0000000000 19.7897267471 5627.9512500000
 5642.4537500000 2735.1463276915 3210.9429972942 3125.8621794005 0.2211002900 6746521.9401127687 0.2111497217 5638508.0692246985 2315893.2334486148 0.0004546866 3484.9026168902 4037.3979356928 5817.8751295963 2369.7255783486 0.9000000000 0.0489569436 947.6846967050 0.0000000000 1670.6322297252 0.7155393938 0.6176218311 20.5859539550 20.5859539550 20.5859539550 0.0054740037 112286.8136424454 0.0054210821 110461.5492748021 56130.2064972210 0.0000878201 0.1397608704 0.1399995062 0.0000000000 1524.4174747603 0.0000000000 0.0009306236 13.1105566136 0.0000000000 19.7108386986 5642.4537500000
 5656.9562500000 2701.0730510761 3218.1640992040 3367.8583975229 0.2015592051 6310079.5638585091 0.1897640037 4915416.9879539469 2060684.6489662246 0.0004760440 3398.3583242494 3923.5159308974 5833.8556450864 2375.8166281676 0.9000000000 0.0561580724 1319.9221874531 0.0000000000 1577.1315449114 0.6935736742 0.6007397219 20.6003168895 20.6003168895 20.6003168895 0.0054740490 112314.3140518933 0.0053902340 105203.0618871710 52354.9169712200 0.0000856677 0.1368526918 0.1370965515 0.0000000000 1490.5287085823 0.0000000000 0.0009308278 13.1336053326 0.0000000000 19.8113567227 5656.9562500000
 5671.4587500000 2755.0712826574 4057.5276489948 4240.9938704797 0.2376748814 7353141.3585748458 0.2273791554 6418615.6481346125 2607989.9739065287 0.0004393965 3595.3397098185 4189.4489923825 5849.8447091242 2381.9076779866 0.9000000000 0.0441296843 772.0297275532 0.0000000000 1725.2258157284 0.7386898463 0.6339356184 20.5656693853 20.5656693853 20.5656693853 0.0054735326 112247.9800002581 0.0054729063 112747.0202488638 58104.3132325232 0.0000889206 0.1413367610 0.1415725323 0.0000000000 1542.3262414733 0.0000000000 0.0009306046 13.0860903609 0.0000000000 19.5686959391 5671.4587500000
 5685.9612500000 2777.9095579435 5100.8598975432 4298.5569275095 0.2505947791 7722108.4963908587 0.2329042950 6818329.1015915414 2752392.9511231421 0.0004265689 3664.0466565806 4281.5215273844 5866.0879793407 2387.9987278056 0.9000000000 0.0406705004 651.4068217173 0.0000000000 1771.6459624355 0.7529987172 0.6444023263 20.5564503949 20.5564503949 20.5564503949 0.0054736096 112230.3791111312 0.0054224142 107174.7823024176 56452.1439316396 0.0000562507 0.1514642818 0.1515993299 0.0000000000 1785.5613000340 0.0000000000 0.0009304676 13.0777982081 0.0000000000 19.5023630319 5685.9612500000
 5700.4637500000 2703.8145742528 3464.6245374875 4915.0331002848 0.2135030996 6649005.4964718185 0.2032419948 5140390.4357195478 2132460.2312241476 0.0004721515 3549.3894384411 4097.3077337403 5882.3654458041 2394.0897776245 0.9000000000 0.0508848454 1097.4097509544 0.0000000000 1624.3876735268 0.7187674395 0.6226492430 20.6023992173 20.6023992173 20.6023992173 0.0054738248 112318.2936156790 0.0054471430 102365.4588346975 51329.5671197175 0.0000850251 0.1361861189 0.1364312013 0.0000000000 1481.7583652247 0.0000000000 0.0009309540 13.1504743642 0.0000000000 19.8261800069 5700.4637500000
 5714.9662500000 2677.6883544706 3244.3704781766 3723.9675177821 0.2023026841 6334789.2033995241 0.1943750703 4799273.2829412604 2005279.5330170875 0.0004804917 3496.1012707410 4022.9893237478 5898.3553814660 2400.1808274435 0.9000000000 0.0535455031 1226.3412354231 0.0000000000 1591.2539676949 0.7039392969 0.6117448674 20.6289939924 20.6289939924 20.6289939924 0.0054751021 112369.2783038560 0.0052507243 96506.7119142327 47457.2580157990 0.0000826401 0.1326780707 0.1329298901 0.0000000000 1442.3810059732 0.0000000000 0.0009308544 13.1490516056 0.0000000000 20.0100461190 5714.9662500000
 5729.4687500000 2711.7099776187 3443.7296431324 3565.3493551127 0.1899916707 5840465.3937198697 0.1727691674 4415659.5734044053 1879796.3709403004 0.0004903873 3338.2658726900 3829.0647192139 5914.0897993824 2406.2718772625 0.9000000000 0.0641395595 1682.3969602903 0.0000000000 1490.9863040593 0.6683106037 0.5826484127 20.6155926626 20.6155926626 20.6155926626 0.0054748917 112343.5933864477 0.0052676634 104377.4658448098 51516.1363789193 0.0000850982 0.1358471539 0.1360929628 0.0000000000 1480.0290858343 0.0000000000 0.0009307124 13.1281284488 0.0000000000 19.9171672975 5729.4687500000
 5743.9712500000 2713.4858093165 2963.0856895857 3348.7018478793 0.2074439338 6450416.4033936504 0.1965234831 5098103.9375240058 2126176.2517550527 0.0004779818 3490.1892025191 4024.4099826825 5929.8174005232 2412.3629270815 0.9000000000 0.0547014266 1251.0832597678 0.0000000000 1592.7845806086 0.7006319857 0.6076265097 20.5771602141 20.5771602141 20.5771602141 0.0054738303 112270.0237847021 0.0053794508 104555.4357217909 54064.9550071563 0.0000861322 0.1375680723 0.1378104118 0.0000000000 1498.4754472126 0.0000000000 0.0009306163 13.1114970717 0.0000000000 19.6475944300 5743.9712500000
 5758.4737500000 2850.5463642853 4181.9257472656 3760.7212920337 0.2707548128 8572904.5457737725 0.2590548782 8099657.2159822434 3205249.4504668671 0.0004135033 3844.3721451428 4519.0030385075 5945.9337386519 2418.4539769005 0.9000000000 0.0367198456 459.0821959873 0.0000000000 1842.2806980856 0.7847570788 0.6676026170 20.5095861773 20.5095861773 20.5095861773 0.0054732575 112140.7075600978 0.0054732575 112140.7075600986 63103.7491025610 0.0000567981 0.1527235356 0.1528571462 0.0000000000 1801.0281100848 0.0000000000 0.0009299802 13.0129445682 0.0000000000 19.1722810494 5758.4737500000
