~Version ---------------------------------------------------
VERS.   2.0 : CWLS log ASCII Standard -VERSION 2.0
WRAP.    NO : One line per depth step
DLM . SPACE : Column Data Section Delimiter
~Well ------------------------------------------------------
STRT.ft               5857.54595 : START DEPTH
STOP.ft       7958.7521000000015 : STOP DEPTH
STEP.ft       14.211900000000242 : STEP
NULL.                   -9999.25 : NULL VALUE
COMP.                            : COMPANY
WELL.                     bypass : WELL
FLD .                            : FIELD
LOC .                            : LOCATION
PROV.                            : PROVINCE
CNTY.                            : COUNTY
STAT.                            : STATE
CTRY.                            : COUNTRY
SRVC.                            : SERVICE COMPANY
DATE. 2019-07-30 20:43:36.147719 : DATE
UWI .                            : UNIQUE WELL ID
API .                            : API NUMBER
~Curve Information -----------------------------------------
Depth              .ft          : 
KICh               .psi*in^1/2  : 
KICvup             .psi*in^1/2  : 
KICvdown           .psi*in^1/2  : 
nuh                .            : 
Eh                 .psi         : 
nuv                .            : 
Ev                 .psi         : 
Gv                 .psi         : 
Cl                 .ft/min^1/2  : 
Sigma_h            .psi         : 
SigmaH             .psi         : 
SigmaV             .psi         : 
Pore Pressure      .psi         : 
Biot               .            : 
Porosity           .            : 
Permeability       .nD          : 
SoPhi              .            : 
TensileStrength    .psi         : 
Grad_SigmaH        .psi/ft      : 
Grad_Sigma_h       .psi/ft      : 
Std_KICh           .psi*in^1/2  : 
Std_KICvup         .psi*in^1/2  : 
Std_KICvdown       .psi*in^1/2  : 
Std_nuh            .            : 
Std_Eh             .psi         : 
Std_nuv            .            : 
Std_Ev             .psi         : 
Std_Gv             .psi         : 
Std_Cl             .ft/min^1/2  : 
Std_Sigma_h        .psi         : 
Std_SigmaH         .psi         : 
Std_SigmaV         .psi         : 
Std_Pore Pressure  .psi         : 
Std_Biot           .            : 
Std_Porosity       .            : 
Std_Permeability   .nD          : 
Std_SoPhi          .            : 
Std_TensileStrength.psi         : 
Std_Depth          .ft          : 
~Params ----------------------------------------------------
~Other -----------------------------------------------------
Exported from homogenization method
~ASCII -----------------------------------------------------
# ...
 6056.5121500000 2798.9343081084 3222.6721759197 3384.2758596458 0.2424834624 7850449.4449214917 0.2382100684 7160646.5938664600 2882575.7821225515 0.0004782975 3859.9291015574 4491.7644283328 6258.5632046651 2543.6299917315 0.9000000000 0.0451024500 746.3394586303 0.0000000000 1724.9894096749 0.7416421064 0.6373188076 20.7261755210 20.7261755210 20.7261755210 0.0054735060 112555.9011874297 0.0054777057 139453.9820707239 68811.1861621687 0.0000661068 0.1520413035 0.1521917212 0.0000000000 1894.3218438195 0.0000000000 0.0009334202 13.1085889012 0.0000000000 20.6714243876 6056.5121500000
 6070.7240500000 2834.5762539281 4238.2402522403 3334.5781829070 0.2723174488 7872356.0145256566 0.2707638454 7629613.8070399258 2998110.8839307325 0.0004429752 4054.2127726839 4672.9542685095 6274.5773824497 2549.5994086642 0.9000000000 0.0343462854 387.8232931966 0.0000000000 1848.0705784294 0.7697523772 0.6678301862 20.7262578849 20.7262578849 20.7262578849 0.0054734063 112556.0596136082 0.0054779220 131024.0738797317 62383.6283773812 0.0000648536 0.1496300677 0.1497829100 0.0000000000 1862.1606691543 0.0000000000 0.0009337959 13.0917836623 0.0000000000 20.6719766583 6070.7240500000
 6085.3595500000 2791.3421918129 3904.3794990952 4191.9046587564 0.2435303612 6358425.8328994326 0.2360656923 5534269.4342054464 2233449.8031942621 0.0004858376 3895.6424879588 4406.9630018197 6291.2002153346 2555.7458671950 0.9000000000 0.0437526110 746.2982728965 0.0000000000 1728.3474697871 0.7241910631 0.6401663626 20.3780051704 20.3780051704 20.3780051704 0.0053818505 110664.4429129124 0.0053860248 116550.1944057580 53611.0339792634 0.0000809660 0.1342649811 0.1344868930 0.0000000000 1583.3424880887 0.0000000000 0.0009172992 12.9660778068 0.0000000000 20.3252785167 6085.3595500000
 6100.4186500000 2795.7801021623 3693.4325522458 3248.6614567893 0.2451771865 6351526.7210398717 0.2418018516 5543154.6837428492 2229414.0210590502 0.0002225001 3940.5886648355 4450.6788584180 6307.9992423862 2562.0705970605 0.9000000000 0.0424425772 670.1288127625 0.0000000000 1747.3397089444 0.7295694138 0.6459538092 20.3780229346 20.3780229346 20.3780229346 0.0053815594 110664.4770823309 0.0053839078 125081.2093237868 58132.3504483777 0.0000833811 0.1374888913 0.1377056163 0.0000000000 1624.9989331696 0.0000000000 0.0009176323 12.9146402762 0.0000000000 20.3253976277 6100.4186500000
 6115.4777500000 2789.1275135027 3394.9751878392 3239.7390704660 0.2366468681 6069848.8178002378 0.2362177977 5263716.4326281110 2128759.9117750013 0.0005023403 3895.8179506349 4386.6491631798 6324.8889712155 2568.3953269261 0.9000000000 0.0459495072 786.6976617618 0.0000000000 1710.9018675609 0.7173027754 0.6370422901 20.0465608404 20.0465608404 20.0465608404 0.0052942150 108864.7615628539 0.0053001586 122648.0466682027 56652.2784129152 0.0000818178 0.1349602037 0.1351738609 0.0000000000 1594.8833194578 0.0000000000 0.0009025142 12.7253006172 0.0000000000 19.9942775748 6115.4777500000
 6130.5368500000 2820.0202570321 3789.8395216382 4016.0206590083 0.2484043712 6436067.6857610615 0.2425715859 5778787.2881684527 2321092.2291786731 0.0002155891 3934.2349129822 4449.7784206901 6341.7139673648 2574.7205275719 0.9000000000 0.0433421279 697.4394484917 0.0000000000 1747.0567381831 0.7258382960 0.6417439466 20.3779871943 20.3779871943 20.3779871943 0.0053819115 110664.4083363022 0.0053701153 117771.6141794139 54804.7683412347 0.0000814566 0.1349318266 0.1351526416 0.0000000000 1591.9061721982 0.0000000000 0.0009173250 12.9520510392 0.0000000000 20.3251579760 6130.5368500000
 6145.5959500000 2773.2028410080 4138.5098709935 3232.7925608374 0.2276728302 5859744.6289703688 0.2242594415 4933344.8420481030 2014317.6614518503 0.0005141408 3855.4910996190 4332.7961669739 6358.4747178661 2581.0455882489 0.9000000000 0.0493666310 950.6007538036 0.0000000000 1667.2217579463 0.7050245741 0.6273583768 20.3779104769 20.3779104769 20.3779104769 0.0053818419 110664.2607708092 0.0053669534 121586.3088332185 55773.5631290686 0.0000822025 0.1358468233 0.1360661546 0.0000000000 1604.1944865875 0.0000000000 0.0009173438 12.9522317865 0.0000000000 20.3246435781 6145.5959500000
 6160.6550000000 2800.6983769140 3528.4711185970 3848.8190240720 0.2382330034 6079647.3952949736 0.2350821635 5347275.9505186239 2163527.3717057924 0.0002306442 3901.9825995812 4392.9764091897 6375.2433171878 2587.3702968331 0.9000000000 0.0465741698 815.8188071361 0.0000000000 1708.1696578635 0.7130696994 0.6333713866 20.3779994924 20.3779994924 20.3779994924 0.0053819537 110664.4319916359 0.0053758157 116780.9410922671 53570.0231558533 0.0000809694 0.1342408663 0.1344628149 0.0000000000 1583.2056162883 0.0000000000 0.0009172068 12.9706781314 0.0000000000 20.3252404337 6160.6550000000
 6175.7140500000 2786.6804434470 3866.4672245575 3392.3339231704 0.2316565776 5907788.2890164359 0.2284245210 5153235.3514082367 2097037.3708411627 0.0005143727 3861.8439821491 4341.5059590831 6391.9571381416 2593.6950061402 0.9000000000 0.0489642420 919.0569557286 0.0000000000 1678.7205565204 0.7029965967 0.6253275250 20.3778989246 20.3778989246 20.3778989246 0.0053820288 110664.2385503256 0.0053525493 121246.4235834366 55539.1060815095 0.0000820805 0.1356584636 0.1358780935 0.0000000000 1601.9259375539 0.0000000000 0.0009172610 12.9652413581 0.0000000000 20.3245661106 6175.7140500000
 6190.7731500000 2760.2548603005 4248.8701584204 4833.8439782598 0.2199731560 6100120.7248095125 0.2073989507 4929194.2605580809 2037802.3582115015 0.0005768101 3819.7149468796 4319.7358444461 6408.6304038013 2600.0197360058 0.9000000000 0.0529023729 1171.3522320924 0.0000000000 1618.4380311148 0.6977700103 0.6170012782 20.3781102648 20.3781102648 20.3781102648 0.0053832505 110664.6450622942 0.0051726028 106982.9059619710 50023.8419773834 0.0001125186 0.1418823550 0.1421083027 0.0000000000 1690.1303426044 0.0000000000 0.0009165173 13.0157190031 0.0000000000 20.3259831587 6190.7731500000
 6205.8322500000 2740.8664053544 3701.8814240706 3318.6949484508 0.2128903596 6171145.3037941512 0.2042799544 4871796.8636473035 2020375.2984062075 0.0002639140 3824.4363629250 4333.2329952934 6425.0795668912 2606.3444658713 0.9000000000 0.0543147129 1221.4297676149 0.0000000000 1599.4607250737 0.6982517124 0.6162648633 20.3780351224 20.3780351224 20.3780351224 0.0053823001 110664.5005259492 0.0053040725 116274.8636966380 54298.9541952518 0.0000810931 0.1343707701 0.1345924950 0.0000000000 1585.1842561743 0.0000000000 0.0009169959 13.0072736351 0.0000000000 20.3254793294 6205.8322500000
 6220.8913500000 2773.0174348060 3794.9978022593 3400.1020639283 0.2262787623 6282860.5807739338 0.2181345424 5245586.2117746538 2145747.2843462680 0.0005237915 3882.4498906822 4394.8016310749 6441.6615470500 2612.6691957368 0.9000000000 0.0503663090 1006.8446776220 0.0000000000 1653.2901253215 0.7064585095 0.6240986496 20.3779315982 20.3779315982 20.3779315982 0.0053819122 110664.3013978846 0.0053520580 116644.1309871658 53617.1738581094 0.0000809474 0.1341820081 0.1344040544 0.0000000000 1582.6415320001 0.0000000000 0.0009172501 12.9762431797 0.0000000000 20.3247851898 6220.8913500000
 6235.9504500000 2805.3784428915 3701.9621388430 4251.9045266663 0.2317654306 5817772.4982478051 0.2263738753 5074069.2078881692 2068177.4866494809 0.0005030076 3885.1613743110 4357.4730948347 6458.3662587540 2618.9939256024 0.9000000000 0.0501588182 971.2210578351 0.0000000000 1672.3304622821 0.6987664719 0.6230263382 20.3779505576 20.3779505576 20.3779505576 0.0053826433 110664.3378658579 0.0053137457 116905.7924069955 52876.2051904497 0.0000806915 0.1337077609 0.1339305727 0.0000000000 1577.3011044301 0.0000000000 0.0009167971 12.9784463933 0.0000000000 20.3249123252 6235.9504500000
 6251.0095500000 2794.4144232784 3478.5115549364 3685.5655922695 0.2268492587 5674817.5127915526 0.2225830966 4965757.5741796969 2030590.4187221075 0.0005050206 3851.3577531397 4313.9098941183 6474.9222119809 2625.3186554679 0.9000000000 0.0520484732 1040.7270579210 0.0000000000 1652.2364108224 0.6901141103 0.6161177202 20.0465111456 20.0465111456 20.0465111456 0.0052946822 108864.6659759470 0.0052349149 116276.3619118543 52886.1749386825 0.0000798206 0.1321552552 0.1323734260 0.0000000000 1559.5032177864 0.0000000000 0.0009021244 12.7772603232 0.0000000000 19.9939443405 6251.0095500000
