~Version ---------------------------------------------------
VERS.   2.0 : CWLS log ASCII Standard -VERSION 2.0
WRAP.    NO : One line per depth step
DLM . SPACE : Column Data Section Delimiter
~Well ------------------------------------------------------
STRT.ft               5337.35725 : START DEPTH
STOP.ft        7806.412649999999 : STOP DEPTH
STEP.ft       15.433500000000095 : STEP
NULL.                   -9999.25 : NULL VALUE
COMP.                            : COMPANY
WELL.                     bypass : WELL
FLD .                            : FIELD
LOC .                            : LOCATION
PROV.                            : PROVINCE
CNTY.                            : COUNTY
STAT.                            : STATE
CTRY.                            : COUNTRY
SRVC.                            : SERVICE COMPANY
DATE. 2019-07-30 20:43:33.131485 : DATE
UWI .                            : UNIQUE WELL ID
API .                            : API NUMBER
~Curve Information -----------------------------------------
Depth              .ft          : 
KICh               .psi*in^1/2  : 
KICvup             .psi*in^1/2  : 
KICvdown           .psi*in^1/2  : 
nuh                .            : 
Eh                 .psi         : 
nuv                .            : 
Ev                 .psi         : 
Gv                 .psi         : 
Cl                 .ft/min^1/2  : 
Sigma_h            .psi         : 
SigmaH             .psi         : 
SigmaV             .psi         : 
Pore Pressure      .psi         : 
Biot               .            : 
Porosity           .            : 
Permeability       .nD          : 
SoPhi              .            : 
TensileStrength    .psi         : 
Grad_SigmaH        .psi/ft      : 
Grad_Sigma_h       .psi/ft      : 
Std_KICh           .psi*in^1/2  : 
Std_KICvup         .psi*in^1/2  : 
Std_KICvdown       .psi*in^1/2  : 
Std_nuh            .            : 
Std_Eh             .psi         : 
Std_nuv            .            : 
Std_Ev             .psi         : 
Std_Gv             .psi         : 
Std_Cl             .ft/min^1/2  : 
Std_Sigma_h        .psi         : 
Std_SigmaH         .psi         : 
Std_SigmaV         .psi         : 
Std_Pore Pressure  .psi         : 
Std_Biot           .            : 
Std_Porosity       .            : 
Std_Permeability   .nD          : 
Std_SoPhi          .            : 
Std_TensileStrength.psi         : 
Std_Depth          .ft          : 
~Params ----------------------------------------------------
~Other -----------------------------------------------------
Exported from homogenization method
~ASCII -----------------------------------------------------
# ...
 7189.5004500000 2562.7104172260 4187.2215295961 4764.4197639521 0.2120772645 6553258.4319819547 0.1927054756 4659095.2175315209 1952806.0177093681 0.0002180168 5079.6722150333 5620.3356383709 7557.1057580331 3954.0877463695 0.9000000000 0.0462002728 1188.8599029985 0.0000000000 1571.9615879662 0.7817421638 0.7065403571 18.8249628801 18.8249628801 18.8249628801 0.0049826415 102375.8034106758 0.0045007241 78378.3144755013 38118.8409521460 0.0001036093 0.1321481962 0.1323916673 0.0000000000 1403.2590074269 0.0000000000 0.0008485764 12.2863231885 0.0000000000 18.5374630331 7189.5004500000
 7207.0807500000 2502.0342114470 3239.7036047628 3927.8624131577 0.1896329400 5928110.7679524850 0.1678997589 3867333.0310831331 1655618.9126502634 0.0002444236 4957.3444725674 5455.6587482298 7576.6891341331 3963.7567096409 0.9000000000 0.0530058586 1649.8990814492 0.0000000000 1462.6605415230 0.7569859333 0.6878436144 18.8292926390 18.8292926390 18.8292926390 0.0049824824 102384.1121344234 0.0045217236 76664.6431669862 37448.8355205773 0.0001028646 0.1314806640 0.1317254280 0.0000000000 1395.0426194821 0.0000000000 0.0008488369 12.3238059333 0.0000000000 18.5671252419 7207.0807500000
 7224.6610500000 2478.6074135546 4165.8704166022 3570.1692897374 0.1982385030 6376485.9472731389 0.1787695573 4145081.0632401383 1758066.7438208112 0.0004708584 5086.6222091313 5618.7771959015 7596.3445200816 3973.4256729123 0.9000000000 0.0460761984 1353.7993861631 0.0000000000 1520.7551854606 0.7777219107 0.7040637857 18.8303520939 18.8303520939 18.8303520939 0.0049826578 102386.1563149222 0.0045271600 77398.5040920524 37920.4594382830 0.0001033527 0.1320011085 0.1322449164 0.0000000000 1400.9793832227 0.0000000000 0.0008488541 12.2771102340 0.0000000000 18.5740282484 7224.6610500000
 7242.2413500000 2466.3530021510 4697.6159622930 3949.0470839176 0.1969669978 6482925.3135234574 0.1750006196 4192546.2890633689 1783510.1247903462 0.0002343431 5076.1690266919 5617.7817299108 7616.0573694188 3983.0951289227 0.9000000000 0.0461635697 1381.1325542629 0.0000000000 1512.2723759104 0.7756965639 0.7009113314 18.8247618613 18.8247618613 18.8247618613 0.0049822159 102375.4020936593 0.0046283385 78268.1495222504 38728.6001711824 0.0001043598 0.1333539165 0.1335952021 0.0000000000 1415.0669635734 0.0000000000 0.0008491624 12.2946559993 0.0000000000 18.5365960873 7242.2413500000
 7259.8216500000 2556.2522518367 3700.7793258254 4558.9903703505 0.1995240045 6373487.2187777096 0.1780056585 4346238.2925708210 1844317.7129949825 0.0002268266 5044.0942859289 5575.4289815865 7635.9714336764 3992.7648555485 0.9000000000 0.0501159097 1353.5876609129 0.0000000000 1516.4048886421 0.7679842909 0.6947958957 18.7971061474 18.7971061474 18.7971061474 0.0034209963 102322.3535407118 0.0030768070 90968.4926747689 42980.0862915931 0.0001049459 0.1291443127 0.1294391868 0.0000000000 1391.5698504842 0.0000000000 0.0008467795 12.7657387854 0.0000000000 18.3464144771 7259.8216500000
 7277.4019500000 2752.5155497935 3071.5523272916 3276.2786022399 0.1048329442 2970931.1929750387 0.1012311417 2806498.3352046721 1274021.2188426887 0.0000775161 4118.7245601757 4387.6277648175 7654.1144968159 4002.4338188199 0.9000000000 0.1044265140 3857.8155771754 0.0000000000 1364.6156959001 0.6029112855 0.5659608454 18.7679246905 18.7679246905 18.7679246905 0.0027056005 102266.4375079752 0.0024716345 91602.6267267169 43108.8190458442 0.0001034785 0.1262029344 0.1265200399 0.0000000000 1365.1444004732 0.0000000000 0.0008469264 13.0626722286 0.0000000000 18.1436514574 7277.4019500000
 7294.9822500000 2549.2580781014 3898.4165465102 3021.4000630496 0.2017839053 6368065.5144158620 0.1824472667 4404675.9629443074 1862576.0464652556 0.0002316238 5086.9735429923 5616.8579495143 7672.2272858032 4012.1027820913 0.9000000000 0.0497216281 1357.6067853968 0.0000000000 1523.1767565936 0.7699618391 0.6973250062 18.5641190316 18.5641190316 18.5641190316 0.0049127267 100948.6180110183 0.0044619545 76764.4388575346 37549.1556032613 0.0001021166 0.1303572446 0.1305972428 0.0000000000 1383.8010513925 0.0000000000 0.0008369440 12.1698958235 0.0000000000 18.2949189101 7294.9822500000
 7312.5625500000 2453.2351240232 4499.8901304428 3903.4139096550 0.1951544623 6405841.0077430364 0.1753743025 4071677.0746006523 1732161.5336285178 0.0001825963 5145.6797104875 5681.6640714843 7691.9237008084 4021.7717453627 0.9000000000 0.0458691283 1415.9091469027 0.0000000000 1507.4637988466 0.7769730560 0.7036766763 18.8180926501 18.8180926501 18.8180926501 0.0049821818 102362.5904089765 0.0046219027 76786.3641287093 37596.0299760146 0.0001031887 0.1320901136 0.1323336225 0.0000000000 1400.6862307790 0.0000000000 0.0008490577 12.2367803005 0.0000000000 18.4913585255 7312.5625500000
 7330.1428500000 2516.7600469610 3193.2169804963 3826.9711576604 0.2055491558 6346533.5584767396 0.1875179267 4165724.2351612258 1753791.4517855921 0.0004867275 5232.9272288677 5759.3705952055 7711.8483194544 4031.4407086341 0.9000000000 0.0447772618 1231.4227660833 0.0000000000 1547.4012114163 0.7857105534 0.7138915756 18.8247659303 18.8247659303 18.8247659303 0.0049822248 102375.4130042251 0.0045751658 75236.3157111387 36806.2334192697 0.0001022399 0.1310035684 0.1312491747 0.0000000000 1388.6725560530 0.0000000000 0.0008490484 12.3074743127 0.0000000000 18.5365239202 7330.1428500000
 7347.7231500000 2436.7514122385 3769.7758727541 3360.6059136652 0.1948641983 6482777.3503459236 0.1768538568 4076621.8163415375 1731945.2361925386 0.0002504315 5198.6143909594 5741.1678760892 7731.6827838342 4041.1098799509 0.9000000000 0.0442421370 1367.9096846040 0.0000000000 1514.3229507766 0.7813533198 0.7075136454 18.8368290758 18.8368290758 18.8368290758 0.0049822309 102398.5813930853 0.0045420511 73608.5190407900 36292.1188268737 0.0001015439 0.1302568685 0.1305040308 0.0000000000 1380.2188807440 0.0000000000 0.0008492923 12.4037520013 0.0000000000 18.6185164639 7347.7231500000
 7365.3034500000 2472.1249493423 3224.3507748493 3242.6858236950 0.2002701768 6484645.1222948311 0.1817225076 4109151.9746324550 1738420.8923189284 0.0002505148 5253.3532071029 5793.6186613112 7751.6001536055 4050.7798912703 0.9000000000 0.0440120243 1291.1269965689 0.0000000000 1531.7393075170 0.7866096354 0.7132568594 18.8434173039 18.8434173039 18.8434173039 0.0049826990 102411.2671551981 0.0044227156 71606.3659170423 34923.1983670206 0.0000999109 0.1282264829 0.1284776186 0.0000000000 1358.4575294202 0.0000000000 0.0008489801 12.4024575682 0.0000000000 18.6622660879 7365.3034500000
 7382.8837500000 2446.6906542561 3798.8484364228 3265.1975921873 0.1779013991 5713121.0584008498 0.1500993695 3391703.7306836830 1472961.0141327095 0.0004971478 5025.4973609304 5510.5227682352 7771.2545948280 4060.4488545417 0.9000000000 0.0554066654 1985.5013514153 0.0000000000 1389.8480937801 0.7463916479 0.6806957188 18.8575085789 18.8575085789 18.8575085789 0.0049825113 102438.3308133318 0.0043791984 71501.3854252208 35275.5961466743 0.0001001433 0.1284148875 0.1286658409 0.0000000000 1360.9649783655 0.0000000000 0.0008492506 12.6107584502 0.0000000000 18.7580342954 7382.8837500000
 7400.4640500000 2428.0821380312 2957.8556091806 3203.9762683919 0.1827549847 6101926.1856827121 0.1597637076 3746186.1087038661 1614641.1563608369 0.0002576975 5092.8281355500 5608.7360171074 7790.8501277599 4070.1178178131 0.9000000000 0.0509780926 1784.0805499000 0.0000000000 1434.5790517842 0.7578897728 0.6881768631 18.5630722109 18.5630722109 18.5630722109 0.0049128072 100946.6337776106 0.0044294012 76129.5774773307 37186.5096412434 0.0001016334 0.1297682740 0.1300093439 0.0000000000 1377.4427294923 0.0000000000 0.0008369107 12.1832877394 0.0000000000 18.2869470705 7400.4640500000
 7418.0443500000 2576.7964940602 4244.0578551651 4791.9501739322 0.2070740251 6375500.7244122475 0.1834554656 4330252.1762700398 1828511.4594504051 0.0002364036 5219.4960345057 5747.6741405557 7810.4809977070 4079.7867810845 0.9000000000 0.0495675291 1369.3450438408 0.0000000000 1528.8627504188 0.7748233725 0.7036215731 18.8218469659 18.8218469659 18.8218469659 0.0049827844 102369.8195730162 0.0044647669 78252.9043023353 37836.8776852597 0.0001032620 0.1316618791 0.1319062045 0.0000000000 1398.2595354423 0.0000000000 0.0008484371 12.2506780561 0.0000000000 18.5162707381 7418.0443500000
