~Version ---------------------------------------------------
VERS.   2.0 : CWLS log ASCII Standard -VERSION 2.0
WRAP.    NO : One line per depth step
DLM . SPACE : Column Data Section Delimiter
~Well ------------------------------------------------------
STRT.ft               5337.35725 : START DEPTH
STOP.ft        7806.412649999999 : STOP DEPTH
STEP.ft       15.433500000000095 : STEP
NULL.                   -9999.25 : NULL VALUE
COMP.                            : COMPANY
WELL.                     bypass : WELL
FLD .                            : FIELD
LOC .                            : LOCATION
PROV.                            : PROVINCE
CNTY.                            : COUNTY
STAT.                            : STATE
CTRY.                            : COUNTRY
SRVC.                            : SERVICE COMPANY
DATE. 2019-07-30 20:43:33.131485 : DATE
UWI .                            : UNIQUE WELL ID
API .                            : API NUMBER
~Curve Information -----------------------------------------
Depth              .ft          : 
KICh               .psi*in^1/2  : 
KICvup             .psi*in^1/2  : 
KICvdown           .psi*in^1/2  : 
nuh                .            : 
Eh                 .psi         : 
nuv                .            : 
Ev                 .psi         : 
Gv                 .psi         : 
Cl                 .ft/min^1/2  : 
Sigma_h            .psi         : 
SigmaH             .psi         : 
SigmaV             .psi         : 
Pore Pressure      .psi         : 
Biot               .            : 
Porosity           .            : 
Permeability       .nD          : 
SoPhi              .            : 
TensileStrength    .psi         : 
Grad_SigmaH        .psi/ft      : 
Grad_Sigma_h       .psi/ft      : 
Std_KICh           .psi*in^1/2  : 
Std_KICvup         .psi*in^1/2  : 
Std_KICvdown       .psi*in^1/2  : 
Std_nuh            .            : 
Std_Eh             .psi         : 
Std_nuv            .            : 
Std_Ev             .psi         : 
Std_Gv             .psi         : 
Std_Cl             .ft/min^1/2  : 
Std_Sigma_h        .psi         : 
Std_SigmaH         .psi         : 
Std_SigmaV         .psi         : 
Std_Pore Pressure  .psi         : 
Std_Biot           .            : 
Std_Porosity       .            : 
Std_Permeability   .nD          : 
Std_SoPhi          .            : 
Std_TensileStrength.psi         : 
Std_Depth          .ft          : 
~Params ----------------------------------------------------
~Other -----------------------------------------------------
Exported from homogenization method
~ASCII -----------------------------------------------------
# ...
 6161.2300000000 2814.5259105175 3671.5683158577 4550.8600871412 0.2626044657 6996106.0447064042 0.2516174471 6085034.7002693824 2429164.0594044514 0.0002232023 4126.9548379288 4681.0560022244 6409.3370890654 2587.6115392125 0.9000000000 0.0389636644 601.8735633140 0.0000000000 1769.3687287596 0.7597599834 0.6698264531 21.7588876320 21.7588876320 21.7588876320 0.0057814596 118621.9925337365 0.0055136649 109063.1014111121 51821.7954015192 0.0000946758 0.1442584218 0.1445455015 0.0000000000 1550.1186520967 0.0000000000 0.0009830506 13.8708421827 0.0000000000 20.9402461784 6161.2300000000
 6174.1366500000 2732.7738452979 4081.0847056612 4207.8157516809 0.2123024624 5867674.2220958499 0.1992972222 4635665.3954782570 1932170.0223050527 0.0005782685 3774.0512317666 4258.0619802541 6423.6082402902 2593.0320488583 0.9000000000 0.0552314852 1302.2041063664 0.0000000000 1576.7861271759 0.6896611173 0.6112678494 21.7968217253 21.7968217253 21.7968217253 0.0057820501 118694.7181912982 0.0054679220 99449.5144840248 47880.4987491855 0.0000916980 0.1406425666 0.1409374694 0.0000000000 1507.5711207418 0.0000000000 0.0009834042 13.9224941580 0.0000000000 21.2024676856 6174.1366500000
 6187.0433500000 2614.0386278465 3349.4287537922 3898.6777595308 0.1784459018 5140690.2227377566 0.1601324331 3587441.7928133151 1545363.5814241946 0.0003702668 3578.2387405327 4014.4649784016 6437.6973126749 2598.4526332835 0.9000000000 0.0642799947 1821.5483198040 0.0000000000 1434.8946441531 0.6488503072 0.5783438935 22.2543371626 22.2543371626 22.2543371626 0.0058970091 121094.9137804293 0.0054463723 95433.9680247392 46037.2941292315 0.0001239883 0.1580322633 0.1583170096 0.0000000000 1678.4521623014 0.0000000000 0.0010029693 14.2662751437 0.0000000000 21.8006238912 6187.0433500000
 6199.9500000000 2599.0809493213 4125.5789404933 3399.4387616450 0.1919761674 5720803.2009944124 0.1819275181 4079304.9569054013 1725662.1681860653 0.0005995307 3754.7288596459 4234.6716099834 6451.6730152143 2603.8746078750 0.9000000000 0.0545230552 1407.3268389708 0.0000000000 1531.6548057711 0.6830170582 0.6056063129 21.7714889584 21.7714889584 21.7714889584 0.0057806635 118646.1188075003 0.0057259813 101033.2986454670 49589.0080992404 0.0000929973 0.1428438004 0.1431338988 0.0000000000 1530.2429099925 0.0000000000 0.0009837364 13.9177394402 0.0000000000 21.0284744120 6199.9500000000
 6212.8566500000 2697.9089610964 4215.0376874332 4052.2448186497 0.2387803044 6695225.8462838689 0.2283623595 5347699.0179884816 2174656.7237896398 0.0002369536 4064.5020056251 4604.9711931586 6466.0914909691 2609.2951167998 0.9000000000 0.0405511083 733.3413181902 0.0000000000 1711.9420476408 0.7412002968 0.6542082386 20.9559235022 20.9559235022 20.9559235022 0.0055705015 114285.0732331350 0.0054363545 105363.7242034766 50977.6619602042 0.0000918978 0.1401612949 0.1404355473 0.0000000000 1505.5198279469 0.0000000000 0.0009475213 13.3690639977 0.0000000000 20.0978249954 6212.8566500000
 6226.9541500000 2726.3275043353 4592.2261639135 4015.6024302922 0.2352593247 6533654.2316776654 0.2211381082 5136619.1394827664 2100793.1719099502 0.0006657859 4034.8689192373 4563.7986832987 6481.9547437595 2615.2154763447 0.9000000000 0.0445561135 877.1038526129 0.0000000000 1675.0816931421 0.7329102758 0.6479683039 19.9317855612 19.9317855612 19.9317855612 0.0052942024 108644.4366059236 0.0051087371 96498.5860193698 46448.7289793540 0.0000859083 0.1313363067 0.1316008454 0.0000000000 1409.4900699829 0.0000000000 0.0009006090 12.7391548079 0.0000000000 19.2103495189 6226.9541500000
 6242.2425000000 2640.0110525833 3353.2964690862 4179.5702057134 0.2019332416 5921929.0266047735 0.1902299645 4316927.8138905978 1813272.9164025872 0.0005974383 3837.6715583603 4330.3718866075 6498.9704827054 2621.6369094215 0.9000000000 0.0534671387 1325.3908903997 0.0000000000 1552.4602536966 0.6937205478 0.6147905273 19.9473185683 19.9473185683 19.9473185683 0.0052944864 108674.1885869788 0.0050757976 94061.8523264134 45138.9620652891 0.0000850175 0.1301888411 0.1304558905 0.0000000000 1396.3256015264 0.0000000000 0.0009006640 12.7679364433 0.0000000000 19.3186418344 6242.2425000000
 6257.5308500000 2675.7883191901 4703.6633461083 4084.3754600683 0.2073099596 5746876.6339356508 0.1923919732 4292192.2377530951 1799045.6668464195 0.0006777268 3838.5235122977 4314.5302401586 6515.7863285998 2628.0581364180 0.9000000000 0.0541056468 1325.6430474278 0.0000000000 1560.0901046511 0.6894940422 0.6134246246 20.2886649798 20.2886649798 20.2886649798 0.0053820675 110492.8529501077 0.0050841649 90716.5787269585 43442.3511554315 0.0000846468 0.1300328684 0.1303092853 0.0000000000 1393.0272291261 0.0000000000 0.0009156810 13.0176380036 0.0000000000 19.7181004488 6257.5308500000
 6272.8191500000 2693.2387537618 4554.9131321787 4134.1223261137 0.2181673702 6048653.2892827289 0.2040005075 4541027.4301190795 1885244.0017942507 0.0006102083 3955.9965205654 4452.5336497984 6532.6680009874 2634.4784953200 0.9000000000 0.0501740167 1140.2923479574 0.0000000000 1601.1953888575 0.7098138083 0.6306568747 19.9441072872 19.9441072872 19.9441072872 0.0052943820 108668.0320948743 0.0050302732 92964.7652506371 44414.8857475936 0.0000844575 0.1293887944 0.1296574549 0.0000000000 1387.5197885364 0.0000000000 0.0009006761 12.7611599669 0.0000000000 19.2964465792 6272.8191500000
 6288.1075000000 2695.3005670010 3701.9579632239 3418.2627237711 0.2065914065 5636352.1916397912 0.1895764962 4144074.5131100281 1741382.5049673596 0.0006920602 3854.4853867498 4321.6155321554 6549.5457038783 2640.9007749012 0.9000000000 0.0564145123 1431.7661907404 0.0000000000 1534.5178812895 0.6872680742 0.6129801990 20.2750576017 20.2750576017 20.2750576017 0.0053820514 110466.7789220209 0.0050493746 92981.5265805642 44170.0592425712 0.0000851209 0.1304801642 0.1307554645 0.0000000000 1398.9372605495 0.0000000000 0.0009155197 12.9731592975 0.0000000000 19.6235890909 6288.1075000000
 6303.3958500000 2695.1960457066 4395.2421035831 5831.5427477832 0.2152016958 5881754.1220615767 0.1942317083 4252812.4127098145 1779870.6563902593 0.0006388212 3947.2712384708 4431.2858792122 6566.3744950761 2647.3206512824 0.9000000000 0.0526916411 1287.0481448230 0.0000000000 1568.7636897428 0.7029997774 0.6262134463 19.9710762800 19.9710762800 19.9710762800 0.0052950079 108719.7498911172 0.0049329133 89980.6460358196 43492.9751212652 0.0001138922 0.1446205717 0.1448713656 0.0000000000 1538.2021206986 0.0000000000 0.0009007373 12.8186948157 0.0000000000 19.4823628533 6303.3958500000
 6318.6841500000 2640.3292980128 3314.7512722991 2736.2364734889 0.1956436851 6057163.8664702000 0.1844755005 4660956.8183250818 1965833.5614392827 0.0006327290 3761.8109808070 4268.4137372850 6583.0919588899 2653.7428645435 0.9000000000 0.0569445749 1446.3096667224 0.0000000000 1533.0145386815 0.6755225670 0.5953472102 20.2693069273 20.2693069273 20.2693069273 0.0053820152 110455.7368621656 0.0051983969 101664.8990632623 49321.7207985231 0.0000888215 0.1353832417 0.1356485226 0.0000000000 1454.5947093117 0.0000000000 0.0009154223 12.9566698114 0.0000000000 19.5844363519 6318.6841500000
 6333.9725000000 2681.5566638499 4493.4795189167 4833.3232363022 0.2097979909 6337980.3689304860 0.1999763736 5074382.6310206009 2114880.3257512241 0.0006321704 3862.5583019069 4386.4457952421 6599.8987855918 2660.1632901415 0.9000000000 0.0534769193 1249.4657944566 0.0000000000 1584.5860947228 0.6925268140 0.6098160833 19.9492365448 19.9492365448 19.9492365448 0.0052947647 108677.8599876353 0.0050716905 99317.5318834217 48403.9832797977 0.0000871973 0.1329037891 0.1331654085 0.0000000000 1428.0023237070 0.0000000000 0.0009005287 12.7643696001 0.0000000000 19.3320925349 6333.9725000000
 6349.2608500000 2641.6784633046 3707.1728881096 3366.1452847818 0.2038110466 6409693.5878331121 0.1940144834 4934754.6965919910 2066450.2321462338 0.0005843772 3870.8739288974 4403.3240676399 6616.6749074914 2666.5844710661 0.9000000000 0.0530870966 1276.7158453129 0.0000000000 1567.7366760774 0.6935175876 0.6096574106 19.9600314620 19.9600314620 19.9600314620 0.0052946914 108698.5616496131 0.0050371279 94875.7735136554 46455.5532633911 0.0000856980 0.1310324360 0.1312979202 0.0000000000 1406.2382317706 0.0000000000 0.0009007339 12.7981532120 0.0000000000 19.4064908694 6349.2608500000
