~Version ---------------------------------------------------
VERS.   2.0 : CWLS log ASCII Standard -VERSION 2.0
WRAP.    NO : One line per depth step
DLM . SPACE : Column Data Section Delimiter
~Well ------------------------------------------------------
STRT.ft               6185.69585 : START DEPTH
STOP.ft        7989.874549999998 : STOP DEPTH
STEP.ft       13.981649999999718 : STEP
NULL.                   -9999.25 : NULL VALUE
COMP.                            : COMPANY
WELL.                     bypass : WELL
FLD .                            : FIELD
LOC .                            : LOCATION
PROV.                            : PROVINCE
CNTY.                            : COUNTY
STAT.                            : STATE
CTRY.                            : COUNTRY
SRVC.                            : SERVICE COMPANY
DATE. 2019-07-30 20:43:31.349442 : DATE
UWI .                            : UNIQUE WELL ID
API .                            : API NUMBER
~Curve Information -----------------------------------------
Depth              .ft          : 
KICh               .psi*in^1/2  : 
KICvup             .psi*in^1/2  : 
KICvdown           .psi*in^1/2  : 
nuh                .            : 
Eh                 .psi         : 
nuv                .            : 
Ev                 .psi         : 
Gv                 .psi         : 
Cl                 .ft/min^1/2  : 
Sigma_h            .psi         : 
SigmaH             .psi         : 
SigmaV             .psi         : 
Pore Pressure      .psi         : 
Biot               .            : 
Porosity           .            : 
Permeability       .nD          : 
SoPhi              .            : 
TensileStrength    .psi         : 
Grad_SigmaH        .psi/ft      : 
Grad_Sigma_h       .psi/ft      : 
Std_KICh           .psi*in^1/2  : 
Std_KICvup         .psi*in^1/2  : 
Std_KICvdown       .psi*in^1/2  : 
Std_nuh            .            : 
Std_Eh             .psi         : 
Std_nuv            .            : 
Std_Ev             .psi         : 
Std_Gv             .psi         : 
Std_Cl             .ft/min^1/2  : 
Std_Sigma_h        .psi         : 
Std_SigmaH         .psi         : 
Std_SigmaV         .psi         : 
Std_Pore Pressure  .psi         : 
Std_Biot           .            : 
Std_Porosity       .            : 
Std_Permeability   .nD          : 
Std_SoPhi          .            : 
Std_TensileStrength.psi         : 
Std_Depth          .ft          : 
~Params ----------------------------------------------------
~Other -----------------------------------------------------
Exported from homogenization method
~ASCII -----------------------------------------------------
# ...
 7896.8081500000 2386.3288984914 3023.0858944077 3668.4946582178 0.1773702430 5811980.4824527875 0.1459123622 3198684.5648782104 1394853.9841464562 0.0005461874 5428.3649282071 5922.0057788225 8293.5994784381 4343.1070580101 0.9000000000 0.0519530992 2132.7026706542 0.0000000000 1372.4451350000 0.7499239777 0.6874125375 20.0550189188 20.0550189188 20.0550189188 0.0052942374 108881.0495335776 0.0045076021 69099.0880969029 33842.7241644648 0.0000985895 0.1301064442 0.1303626555 0.0000000000 1378.3344164534 0.0000000000 0.0009027200 13.6958177172 0.0000000000 20.0504126559 7896.8081500000
 7912.3192000000 2432.1154557439 3381.1491129874 3048.1911032438 0.1863955874 6004457.6329589551 0.1586983224 3465812.5986079182 1495240.7055631597 0.0006304120 5517.4426784031 6023.5519135186 8310.9524336121 4351.6381305203 0.9000000000 0.0499906983 1854.3355800420 0.0000000000 1422.8265848315 0.7612877794 0.6973230653 20.0361316402 20.0361316402 20.0361316402 0.0052941182 108844.7239197162 0.0045939816 72476.8828386367 35427.2533317619 0.0001001179 0.1318670095 0.1321195755 0.0000000000 1397.9201763894 0.0000000000 0.0009024814 13.4576039906 0.0000000000 19.9236328250 7912.3192000000
 7927.8302500000 2452.5627018523 4944.8277142335 4255.0663502481 0.1943606662 6297287.5938188201 0.1668259312 3655745.2579379268 1566108.9760081330 0.0005349608 5622.3319137603 6149.5836704682 8328.3706758824 4360.1692043118 0.9000000000 0.0467248782 1630.0374072974 0.0000000000 1466.8310866560 0.7756956792 0.7091892405 19.9392625291 19.9392625291 19.9392625291 0.0052940818 108659.0374682095 0.0049683388 89740.6575347594 45906.3900491438 0.0000715656 0.1247964175 0.1250180426 0.0000000000 1356.1438724713 0.0000000000 0.0009012516 12.9998000347 0.0000000000 19.2528475623 7927.8302500000
 7943.3413000000 2640.3616273229 5331.8140044030 6344.5821856532 0.2544547968 7479938.8006381113 0.2072908995 5187557.5810658857 2130211.9036760502 0.0004947149 5904.9515788282 6501.2216731757 8346.1442019511 4368.7002769003 0.9000000000 0.0330593877 829.4327178048 0.0000000000 1723.2129116391 0.8184492429 0.7433838426 20.0164006835 20.0164006835 20.0164006835 0.0052939804 108806.8017037047 0.0047243710 74817.8389932956 36543.4025847521 0.0001013638 0.1334755068 0.1337247971 0.0000000000 1415.0116475942 0.0000000000 0.0009023666 13.2586277747 0.0000000000 19.7903765141 7943.3413000000
 7958.8523500000 2540.7310489499 3452.8461452607 2866.1620966260 0.1991606901 6216127.4569054954 0.1735739408 3801434.9216737570 1618190.1114706642 0.0005581106 5636.4071980282 6154.7803825702 8363.6587307532 4377.2313506134 0.9000000000 0.0498602541 1561.7782010273 0.0000000000 1483.8207863400 0.7733251117 0.7081934618 20.0176563660 20.0176563660 20.0176563660 0.0052941026 108809.2082844040 0.0046988160 74718.2240318003 36654.5140974465 0.0001013280 0.1333788993 0.1336283806 0.0000000000 1414.1951585361 0.0000000000 0.0009022019 13.2299713446 0.0000000000 19.7990731669 7958.8523500000
 7974.3634500000 2645.3652741219 5697.3160386338 5111.4185276306 0.2458029372 7374608.5526028508 0.1966767384 4818699.1165094683 1994250.4044649834 0.0005327895 5909.7744705443 6501.7307368288 8381.1030519917 4385.7624232803 0.9000000000 0.0374523714 966.0322959235 0.0000000000 1677.1188932217 0.8153291203 0.7410967042 19.9152392527 19.9152392527 19.9152392527 0.0052937887 108612.8501610378 0.0051463926 92033.7978122252 46554.5636845222 0.0000551782 0.1474712367 0.1476089053 0.0000000000 1756.8397999183 0.0000000000 0.0009010905 12.7191992829 0.0000000000 19.0911434934 7974.3634500000
 7989.8745500000 2645.3652741219 5697.3160386338 5111.4185276306 0.2458029372 7374608.5526028508 0.1966767384 4818699.1165094683 1994250.4044649834 0.0005327895 5909.7744705443 6501.7307368288 8381.1030519917 4385.7624232803 0.9000000000 0.0374523714 966.0322959235 0.0000000000 1677.1188932217 0.8137462855 0.7396579801 19.9231113239 19.9231113239 19.9231113239 0.0052940397 108628.1614873681 0.0049432957 89251.4437658508 45452.3446083346 0.0000712437 0.1242587127 0.1244811158 0.0000000000 1350.1842458280 0.0000000000 0.0009006749 12.9317197328 0.0000000000 19.1378604911 7989.8745500000
