~Version ---------------------------------------------------
VERS.   2.0 : CWLS log ASCII Standard -VERSION 2.0
WRAP.    NO : One line per depth step
DLM . SPACE : Column Data Section Delimiter
~Well ------------------------------------------------------
STRT.ft       6025.5836500000005 : START DEPTH
STOP.ft               8231.95595 : STOP DEPTH
STEP.ft       14.389099999999416 : STEP
NULL.                   -9999.25 : NULL VALUE
COMP.                            : COMPANY
WELL.                     bypass : WELL
FLD .                            : FIELD
LOC .                            : LOCATION
PROV.                            : PROVINCE
CNTY.                            : COUNTY
STAT.                            : STATE
CTRY.                            : COUNTRY
SRVC.                            : SERVICE COMPANY
DATE. 2019-07-30 20:43:31.832888 : DATE
UWI .                            : UNIQUE WELL ID
API .                            : API NUMBER
~Curve Information -----------------------------------------
Depth              .ft          : 
KICh               .psi*in^1/2  : 
KICvup             .psi*in^1/2  : 
KICvdown           .psi*in^1/2  : 
nuh                .            : 
Eh                 .psi         : 
nuv                .            : 
Ev                 .psi         : 
Gv                 .psi         : 
Cl                 .ft/min^1/2  : 
Sigma_h            .psi         : 
SigmaH             .psi         : 
SigmaV             .psi         : 
Pore Pressure      .psi         : 
Biot               .            : 
Porosity           .            : 
Permeability       .nD          : 
SoPhi              .            : 
TensileStrength    .psi         : 
Grad_SigmaH        .psi/ft      : 
Grad_Sigma_h       .psi/ft      : 
Std_KICh           .psi*in^1/2  : 
Std_KICvup         .psi*in^1/2  : 
Std_KICvdown       .psi*in^1/2  : 
Std_nuh            .            : 
Std_Eh             .psi         : 
Std_nuv            .            : 
Std_Ev             .psi         : 
Std_Gv             .psi         : 
Std_Cl             .ft/min^1/2  : 
Std_Sigma_h        .psi         : 
Std_SigmaH         .psi         : 
Std_SigmaV         .psi         : 
Std_Pore Pressure  .psi         : 
Std_Biot           .            : 
Std_Porosity       .            : 
Std_Permeability   .nD          : 
Std_SoPhi          .            : 
Std_TensileStrength.psi         : 
Std_Depth          .ft          : 
~Params ----------------------------------------------------
~Other -----------------------------------------------------
Exported from homogenization method
~ASCII -----------------------------------------------------
# ...
 6637.8194500000 2643.3459927248 3690.7608014343 3359.5731527796 0.2107889950 5636334.2353333998 0.1963943057 4205189.8526970856 1749044.4662372046 0.0007152529 4093.2379653780 4558.7471712261 6885.8232678808 2787.8579204992 0.9000000000 0.0479096634 1534.5818390746 0.0000000000 1613.8675683768 0.6867838460 0.6166540076 10.0415802209 10.0415802209 10.0415802209 0.0063900965 63900.9650422702 0.0061151392 47373.7912707491 21625.0004214961 0.0000908235 0.1122287492 0.1122487672 0.0000000000 1285.8158482266 0.0000000000 0.0009128709 9.1287092918 0.0000000000 9.1287092918 6637.8194500000
 6652.8117000000 2612.8598618464 3288.2282314822 3805.8946672506 0.2100530181 5594128.5595929213 0.1956603388 4073956.1536092088 1699972.7001650401 0.0006656973 4129.9959148290 4592.3003325582 6902.5761098735 2794.1546638252 0.9000000000 0.0473816340 1598.0541361573 0.0000000000 1593.3370448185 0.6902796201 0.6207895400 10.0415802209 10.0415802209 10.0415802209 0.0063900965 63900.9650422702 0.0061961803 47977.2492418522 21935.1456390604 0.0000913188 0.1129150446 0.1129349410 0.0000000000 1293.3411338193 0.0000000000 0.0009128709 9.1287092918 0.0000000000 9.1287092918 6652.8117000000
 6667.8039000000 2625.8840833723 3397.6435583091 3398.7339370324 0.2127652404 5704806.0715804053 0.2002910973 4220490.8616553079 1753418.7968294206 0.0007332500 4160.3360290595 4630.7325973124 6919.3244803452 2800.4513861208 0.9000000000 0.0460645718 1469.3937815201 0.0000000000 1617.9767679100 0.6944914198 0.6239439689 10.1263207969 10.1263207969 10.1263207969 0.0064440223 64440.2232528834 0.0062221541 47858.8311344886 21788.7467033806 0.0000917815 0.1135117452 0.1135318724 0.0000000000 1300.0736290976 0.0000000000 0.0009205746 9.2057461790 0.0000000000 9.2057461790 6667.8039000000
 6682.5931500000 2613.2859486188 3208.0929899609 3024.1170662883 0.1989285658 5063694.0166373439 0.1911147265 3746511.3089394555 1572348.4595472885 0.0002594741 4052.8195540004 4475.1711570153 6935.7701996652 2806.6628375085 0.9000000000 0.0527487443 1844.2859082532 0.0000000000 1559.5803371606 0.6696758364 0.6064740832 10.1695035975 10.1695035975 10.1695035975 0.0064715023 64715.0228929442 0.0061185287 46247.4515171191 20940.2980159296 0.0000910760 0.1126298991 0.1126503572 0.0000000000 1290.0419693036 0.0000000000 0.0009245003 9.2450032704 0.0000000000 9.2450032704 6682.5931500000
 6697.1794000000 2602.3220519924 2988.3828816510 2963.3238660915 0.2072753664 5268259.9426660314 0.1941010507 3822610.6397869363 1598033.0707950515 0.0002526705 4137.2948235322 4573.6708226921 6951.9493446174 2812.7891181048 0.9000000000 0.0483923416 1661.8573619767 0.0000000000 1580.9613941453 0.6829249374 0.6177667607 10.1695035975 10.1695035975 10.1695035975 0.0064715023 64715.0228929442 0.0061680874 49251.4966119549 22298.8406018136 0.0000922623 0.1138126280 0.1138328736 0.0000000000 1304.7947152220 0.0000000000 0.0009245003 9.2450032704 0.0000000000 9.2450032704 6697.1794000000
 6711.7656500000 2635.2754518047 3390.2223626836 3582.3338291546 0.2092807026 5148628.5636237953 0.1929158808 3798467.2989698485 1590274.2798972744 0.0002572288 4115.0688918844 4540.8284820623 6968.1917270316 2818.9153404393 0.9000000000 0.0505890376 1774.3388131179 0.0000000000 1566.1766347939 0.6765475314 0.6131127197 10.2132435997 10.2132435997 10.2132435997 0.0064993368 64993.3683619689 0.0061705130 49298.6390785982 22321.5873670231 0.0000925223 0.1141085096 0.1141288768 0.0000000000 1308.2997889620 0.0000000000 0.0009284767 9.2847669089 0.0000000000 9.2847669089 6711.7656500000
 6726.3519000000 2635.6740060415 3199.0263118468 3456.5523040740 0.2098536452 5318396.8940479467 0.1968539374 3961265.9603780662 1652221.7667250969 0.0002487568 4145.0330165540 4584.6231202807 6984.4230755808 2825.0415221922 0.9000000000 0.0491662665 1644.9986376395 0.0000000000 1589.1991021894 0.6815913274 0.6162379070 10.1695035975 10.1695035975 10.1695035975 0.0064715023 64715.0228929442 0.0060252808 47452.0680018807 21398.2020839421 0.0000911352 0.1123861905 0.1124066930 0.0000000000 1288.6296776463 0.0000000000 0.0009245003 9.2450032704 0.0000000000 9.2450032704 6726.3519000000
 6740.9381000000 2649.4732011324 3513.6332137154 2971.2850635753 0.2111491364 5256744.3825294841 0.1959810537 3953677.4103851421 1649653.9243118719 0.0002495785 4134.9971503535 4569.0266372612 7000.5877210803 2831.1677505108 0.9000000000 0.0499102522 1684.1168611499 0.0000000000 1585.4348437202 0.6778027879 0.6134156832 10.1695035975 10.1695035975 10.1695035975 0.0064715023 64715.0228929442 0.0063076422 51818.4017376284 23580.9428434712 0.0000936922 0.1154990529 0.1155190029 0.0000000000 1324.4312272599 0.0000000000 0.0009245003 9.2450032704 0.0000000000 9.2450032704 6740.9381000000
 6755.5243500000 2623.9360202226 3163.8735614698 3622.9685529729 0.2147095774 5587554.6207586806 0.1972839453 4083698.7531665312 1698021.7283299321 0.0002375902 4213.5447967499 4673.5357875593 7016.9350291351 2837.2903856737 0.9000000000 0.0455742248 1484.3201394544 0.0000000000 1617.8001616553 0.6918094800 0.6237183938 10.2132435997 10.2132435997 10.2132435997 0.0064993368 64993.3683619689 0.0061210665 45901.8997682093 20817.2626348344 0.0000912219 0.1128295708 0.1128501688 0.0000000000 1292.2538258674 0.0000000000 0.0009284767 9.2847669089 0.0000000000 9.2847669089 6755.5243500000
 6770.1106500000 2615.6013029999 3450.5013989936 3208.0739342839 0.2104411418 5334101.9132518582 0.1958915939 3843117.0582294371 1604632.7201541038 0.0002543832 4222.3181038941 4662.9923117687 7033.1983383720 2852.0802141447 0.9000000000 0.0475662740 1623.9466386654 0.0000000000 1586.1430411717 0.6887616101 0.6236704719 10.1695035975 10.1695035975 10.1695035975 0.0064715023 64715.0228929442 0.0061315268 48466.0339778256 21929.7973639297 0.0000918630 0.1133514794 0.1133718073 0.0000000000 1299.3816361011 0.0000000000 0.0009245003 9.2450032704 0.0000000000 9.2450032704 6770.1106500000
 6784.6969000000 2641.0928943490 3167.4579278703 3463.1458946092 0.2149513741 5567970.3771715071 0.2043589408 4199576.4750173278 1741121.0697294946 0.0002334035 4263.3301490621 4721.6176571906 7049.5162262865 2892.6432480579 0.9000000000 0.0460989259 1439.2745640436 0.0000000000 1621.8169688743 0.6959216789 0.6283744450 9.7609216036 9.7609216036 9.7609216036 0.0062114956 62114.9556591287 0.0059891468 46412.4464123928 21097.4074968973 0.0000885237 0.1094337081 0.1094531059 0.0000000000 1253.5775905515 0.0000000000 0.0008873565 8.8735650942 0.0000000000 8.8735650942 6784.6969000000
 6800.6159000000 2665.2285004225 3407.2890460937 3138.6767379401 0.2186437468 5610165.2431614278 0.2014066253 4167630.1286197221 1727054.5216654683 0.0002329138 4313.9630963177 4774.3244823092 7067.3285500684 2948.5339131818 0.9000000000 0.0461829248 1450.4353015035 0.0000000000 1627.8253243270 0.7020429550 0.6343488825 9.3638218383 9.3638218383 9.3638218383 0.0059587957 59587.9571531131 0.0057857042 46389.3821556796 21061.8936682478 0.0000856985 0.1057794327 0.1057979010 0.0000000000 1212.3999565407 0.0000000000 0.0008512565 8.5125653076 0.0000000000 8.5125653076 6800.6159000000
 6817.8676500000 2659.0605657232 4943.8021168129 3326.6162381249 0.2188796788 5822266.8479097188 0.1996100873 4213820.4175353693 1744322.4446144260 0.0003129399 4379.1463620793 4856.8199954190 7086.6541234003 2993.8892021578 0.9000000000 0.0450723704 1406.1371541143 0.0000000000 1637.5766092425 0.7123664237 0.6423043959 9.3638218383 9.3638218383 9.3638218383 0.0059587957 59587.9571531136 0.0058742011 52724.7356686767 24640.5089566438 0.0000547750 0.1091062612 0.1090817057 0.0000000000 1275.6334588653 0.0000000000 0.0008512565 8.5125653076 0.0000000000 8.5125653076 6817.8676500000
 6835.1194000000 2801.4242734244 4241.9190732168 5035.3997297044 0.2512232875 7598147.8856961541 0.2386246056 6881259.2900338424 2761854.7594432849 0.0007954545 4458.5147141041 5065.7722645123 7106.2319124469 3007.4250333878 0.9000000000 0.0358213406 675.6669584610 0.0000000000 1835.5262250890 0.7411388109 0.6522950739 9.3638218383 9.3638218383 9.3638218383 0.0059587957 59587.9571531131 0.0058919521 48393.4925356171 22444.8383978501 0.0000869892 0.1072699421 0.1072881539 0.0000000000 1229.9180908301 0.0000000000 0.0008512565 8.5125653076 0.0000000000 8.5125653076 6835.1194000000
