~Version ---------------------------------------------------
VERS.   2.0 : CWLS log ASCII Standard -VERSION 2.0
WRAP.    NO : One line per depth step
DLM . SPACE : Column Data Section Delimiter
~Well ------------------------------------------------------
STRT.ft                 5533.575 : START DEPTH
STOP.ft        7763.808250000001 : STOP DEPTH
STEP.ft       14.590000000000146 : STEP
NULL.                   -9999.25 : NULL VALUE
COMP.                            : COMPANY
WELL.                     bypass : WELL
FLD .                            : FIELD
LOC .                            : LOCATION
PROV.                            : PROVINCE
CNTY.                            : COUNTY
STAT.                            : STATE
CTRY.                            : COUNTRY
SRVC.                            : SERVICE COMPANY
DATE. 2019-07-30 20:43:20.008820 : DATE
UWI .                            : UNIQUE WELL ID
API .                            : API NUMBER
~Curve Information -----------------------------------------
Depth              .ft          : 
KICh               .psi*in^1/2  : 
KICvup             .psi*in^1/2  : 
KICvdown           .psi*in^1/2  : 
nuh                .            : 
Eh                 .psi         : 
nuv                .            : 
Ev                 .psi         : 
Gv                 .psi         : 
Cl                 .ft/min^1/2  : 
Sigma_h            .psi         : 
SigmaH             .psi         : 
SigmaV             .psi         : 
Pore Pressure      .psi         : 
Biot               .            : 
Porosity           .            : 
Permeability       .nD          : 
SoPhi              .            : 
TensileStrength    .psi         : 
Grad_SigmaH        .psi/ft      : 
Grad_Sigma_h       .psi/ft      : 
Std_KICh           .psi*in^1/2  : 
Std_KICvup         .psi*in^1/2  : 
Std_KICvdown       .psi*in^1/2  : 
Std_nuh            .            : 
Std_Eh             .psi         : 
Std_nuv            .            : 
Std_Ev             .psi         : 
Std_Gv             .psi         : 
Std_Cl             .ft/min^1/2  : 
Std_Sigma_h        .psi         : 
Std_SigmaH         .psi         : 
Std_SigmaV         .psi         : 
Std_Pore Pressure  .psi         : 
Std_Biot           .            : 
Std_Porosity       .            : 
Std_Permeability   .nD          : 
Std_SoPhi          .            : 
Std_TensileStrength.psi         : 
Std_Depth          .ft          : 
~Params ----------------------------------------------------
~Other -----------------------------------------------------
Exported from homogenization method
~ASCII -----------------------------------------------------
# ...
 7521.3416500000 2528.7056859140 3072.1381987468 3551.1801648371 0.1988726833 6046627.4268118963 0.1743963603 3809082.9665055517 1621645.7100329911 0.0005514868 5300.5780402994 5804.9374698691 7926.1158930963 4136.5998948306 0.9000000000 0.0500522246 1519.8625080071 0.0000000000 1487.2494469767 0.7717954775 0.7047383681 22.7456486808 22.7456486808 22.7456486808 0.0060170079 123654.2447244593 0.0053491922 89758.8090748922 43566.8613908748 0.0001073623 0.1451245065 0.1453957836 0.0000000000 1664.8328717569 0.0000000000 0.0010250977 14.9529887796 0.0000000000 22.4699005908 7521.3416500000
 7533.4650000000 2523.4460692104 3119.4878468541 2911.5505175121 0.2018433079 6195088.3922895342 0.1807833085 4016817.0630595596 1700663.1056631762 0.0002860226 5330.2420856447 5845.7076501968 7939.6499314249 4143.2676520201 0.9000000000 0.0477223789 1399.4273193412 0.0000000000 1514.8622560328 0.7759653294 0.7075418928 22.2462372075 22.2462372075 22.2462372075 0.0058950911 121079.4322392566 0.0054146969 92915.0648527315 44873.8533021553 0.0001071710 0.1445903325 0.1448512857 0.0000000000 1659.7911413401 0.0000000000 0.0010039750 14.4426849228 0.0000000000 21.7430323409 7533.4650000000
 7545.5883500000 2580.5798926346 4896.5834465398 3612.0705069042 0.2260928891 6734260.0543313976 0.1983985113 4494983.6285378365 1872494.6090615077 0.0002563083 5515.5936421905 6064.8391450406 7953.2905602381 4149.9369967336 0.9000000000 0.0407443877 1051.8487614220 0.0000000000 1613.6985085638 0.8037596094 0.7309693276 22.6615127244 22.6615127244 22.6615127244 0.0060165647 123492.8512984058 0.0058074223 109001.1559156455 53659.0623919812 0.0000674354 0.1501300986 0.1503178287 0.0000000000 1773.9217876925 0.0000000000 0.0010244797 14.5497671155 0.0000000000 21.8914183513 7545.5883500000
 7557.7116500000 2627.3496805938 3090.7930869814 4307.1081550720 0.2372393704 7040272.6439516451 0.2173743841 5091946.7754364684 2086296.2100132762 0.0001554291 5583.1469656388 6152.1777298218 7967.1829476543 4156.6041220212 0.9000000000 0.0380341638 798.0551227312 0.0000000000 1673.4181100777 0.8140265221 0.7387351125 22.7112197449 22.7112197449 22.7112197449 0.0060166386 123588.1524981405 0.0055257907 94344.6828424033 45806.8831785342 0.0001093407 0.1475625099 0.1478289326 0.0000000000 1693.7177681512 0.0000000000 0.0010248640 14.7600671359 0.0000000000 22.2348255334 7557.7116500000
 7569.8350000000 2687.1107269525 5658.5895205240 5259.9927390638 0.2682481048 7615423.4961938886 0.2164209038 5588170.8390702158 2280990.0702269552 0.0005129644 5673.6814325355 6274.1493904524 7980.9430509649 4163.2712741475 0.9000000000 0.0331114210 756.9515102028 0.0000000000 1757.1543044077 0.8288356867 0.7495119025 22.5507007216 22.5507007216 22.5507007216 0.0060165544 123280.8060972335 0.0059506186 121492.0435925823 63849.2568731065 0.0000689146 0.1528553509 0.1530388022 0.0000000000 1808.1301826483 0.0000000000 0.0010224463 14.3520444879 0.0000000000 21.1111685503 7569.8350000000
 7581.9583500000 2760.9467033082 5163.6470258202 6305.2571482107 0.2776535320 8074096.0584565988 0.2472425509 6601374.3211716460 2637811.0266150543 0.0001136300 5771.6855077310 6403.6327341206 7994.9645509391 4169.9388807090 0.9000000000 0.0314634505 535.1316638627 0.0000000000 1825.0624873933 0.8445882236 0.7612394109 22.1037542426 22.1037542426 22.1037542426 0.0058949286 120806.6388528380 0.0058169291 116706.6557815391 61334.8373816267 0.0000672734 0.1493244581 0.1495048105 0.0000000000 1765.9197293827 0.0000000000 0.0010019894 14.0758186122 0.0000000000 20.7449015705 7581.9583500000
 7594.0816500000 2841.8515395356 4423.3568592689 5315.6471361877 0.3053414903 8975219.8740536496 0.2970573076 8417484.0542981233 3240291.3555230252 0.0001550237 5998.9853780241 6686.5617663405 8009.0152520736 4176.6083492118 0.9000000000 0.0228472834 216.4549047686 0.0000000000 1956.9705630206 0.8804964279 0.7899553435 22.5333258339 22.5333258339 22.5333258339 0.0060164706 123247.5466913228 0.0060064932 125146.8780222666 66639.2517440095 0.0000694278 0.1538324569 0.1540146010 0.0000000000 1820.2534642936 0.0000000000 0.0010222207 14.3042944325 0.0000000000 20.9891894622 7594.0816500000
 7606.2050000000 2916.9782762462 4025.0244897739 4473.0763075257 0.3126548818 9045237.5526884608 0.3104674674 9010617.0038463529 3436634.2240116308 0.0001478474 6009.1087201554 6698.1883615628 8023.1232916272 4183.2755019219 0.9000000000 0.0233765967 167.0620502950 0.0000000000 1999.0895171647 0.8806215927 0.7900271844 22.5309577039 22.5309577039 22.5309577039 0.0060164870 123242.9692866694 0.0060164870 123242.9692866675 65962.3968874542 0.0000692304 0.1535019936 0.1536845088 0.0000000000 1815.8491728295 0.0000000000 0.0010222165 14.2944362180 0.0000000000 20.9742839299 7606.2050000000
 7618.3283500000 2857.1199528308 4651.0305465584 3768.7015387408 0.3135187442 8921666.3585840967 0.3131417375 8916655.3891091123 3395312.9663642920 0.0003670884 6028.3767122420 6707.5955203637 8037.2524038614 4189.9426542278 0.9000000000 0.0195686996 139.6960191175 0.0000000000 2001.3285374365 0.8804550306 0.7912991453 22.5936551361 22.5936551361 22.5936551361 0.0060165106 123363.1395668955 0.0058341403 110629.6045383188 57797.9311317399 0.0000678683 0.1509844932 0.1511705840 0.0000000000 1784.3892973550 0.0000000000 0.0010232000 14.5268001867 0.0000000000 21.4087021216 7618.3283500000
 7630.4516500000 2598.3149233176 3998.8281126307 4558.5537707774 0.2350796560 6944725.6843471974 0.2046126676 4658123.7892984645 1926643.0648561150 0.0002644256 5654.3752056994 6216.6649050545 8051.3085542482 4196.6100812073 0.9000000000 0.0382738889 920.1591254205 0.0000000000 1653.1103219329 0.8147178162 0.7410275912 22.2233964180 22.2233964180 22.2233964180 0.0058949338 121035.5590188902 0.0055667907 95733.2618710384 46215.8373227764 0.0000861075 0.1387235817 0.1390044704 0.0000000000 1523.5730991877 0.0000000000 0.0010038763 14.2648112902 0.0000000000 21.5880191880 7630.4516500000
 7642.5750000000 2608.9924910039 3122.0050440939 3519.9590303679 0.2220838372 6577725.0550744385 0.2044965225 4575672.8114443710 1898554.9640960984 0.0001798302 5554.7823048942 6093.0207509732 8065.0666134996 4203.2797296963 0.9000000000 0.0433624133 1028.2054306396 0.0000000000 1606.7278317045 0.7972470994 0.7268207777 22.7110179462 22.7110179462 22.7110179462 0.0060165157 123587.7521607699 0.0055910887 93572.0562749575 45595.3050449145 0.0001092215 0.1476057595 0.1478721061 0.0000000000 1693.2118431571 0.0000000000 0.0010250727 14.7385204049 0.0000000000 22.2338575351 7642.5750000000
 7654.6983500000 2526.9966359478 2953.3194218858 2962.1651087091 0.2096487385 6503485.0682654465 0.1911990677 4088100.9128025165 1715909.7400417582 0.0002950374 5582.5013058235 6120.1354851859 8078.7946177503 4209.9468814184 0.9000000000 0.0426770225 1160.3510803529 0.0000000000 1560.8278856212 0.7995266705 0.7292908291 22.7317495612 22.7317495612 22.7317495612 0.0060165013 123627.5240971309 0.0054948459 87465.2812630353 42755.5902267108 0.0001067589 0.1448335339 0.1451052105 0.0000000000 1658.9144902781 0.0000000000 0.0010254290 14.8494511556 0.0000000000 22.3762627503 7654.6983500000
 7666.8216500000 2471.4811800052 3019.4291778182 3462.0460177006 0.2028969649 6410896.3005190063 0.1850613423 3885404.7720377808 1638642.4619069572 0.0006675245 5576.9310284185 6109.8857608153 8092.5528807772 4216.6140067061 0.9000000000 0.0414655547 1209.0550017802 0.0000000000 1546.2944384080 0.7969255110 0.7274110815 22.7432123929 22.7432123929 22.7432123929 0.0060165200 123649.5486112673 0.0055042913 83060.1736975254 40516.4269014840 0.0001051195 0.1431564636 0.1434314511 0.0000000000 1637.1862918531 0.0000000000 0.0010256788 14.9531366931 0.0000000000 22.4538830757 7666.8216500000
 7678.9450000000 2534.1891507624 4337.7805203239 3611.8738666087 0.2174978830 6511147.5046014311 0.1954642089 4145381.9079515077 1732203.1745438247 0.0001877020 5638.8742785706 6173.6717181075 8106.3465846879 4223.2813103172 0.9000000000 0.0402211305 1067.5917453252 0.0000000000 1592.8207373553 0.8039739467 0.7343292964 22.1879864580 22.1879864580 22.1879864580 0.0058948801 120967.6865387881 0.0057730661 107188.0225863797 52078.2455848600 0.0000658668 0.1467233300 0.1469076029 0.0000000000 1733.0647162177 0.0000000000 0.0010035219 14.1297529708 0.0000000000 21.3427983284 7678.9450000000
