~Version ---------------------------------------------------
VERS.   2.0 : CWLS log ASCII Standard -VERSION 2.0
WRAP.    NO : One line per depth step
DLM . SPACE : Column Data Section Delimiter
~Well ------------------------------------------------------
STRT.ft               5569.94125 : START DEPTH
STOP.ft        8198.326850000001 : STOP DEPTH
STEP.ft        14.50250000000051 : STEP
NULL.                   -9999.25 : NULL VALUE
COMP.                            : COMPANY
WELL.                     bypass : WELL
FLD .                            : FIELD
LOC .                            : LOCATION
PROV.                            : PROVINCE
CNTY.                            : COUNTY
STAT.                            : STATE
CTRY.                            : COUNTRY
SRVC.                            : SERVICE COMPANY
DATE. 2019-07-30 20:43:31.496337 : DATE
UWI .                            : UNIQUE WELL ID
API .                            : API NUMBER
~Curve Information -----------------------------------------
Depth              .ft          : 
KICh               .psi*in^1/2  : 
KICvup             .psi*in^1/2  : 
KICvdown           .psi*in^1/2  : 
nuh                .            : 
Eh                 .psi         : 
nuv                .            : 
Ev                 .psi         : 
Gv                 .psi         : 
Cl                 .ft/min^1/2  : 
Sigma_h            .psi         : 
SigmaH             .psi         : 
SigmaV             .psi         : 
Pore Pressure      .psi         : 
Biot               .            : 
Porosity           .            : 
Permeability       .nD          : 
SoPhi              .            : 
TensileStrength    .psi         : 
Grad_SigmaH        .psi/ft      : 
Grad_Sigma_h       .psi/ft      : 
Std_KICh           .psi*in^1/2  : 
Std_KICvup         .psi*in^1/2  : 
Std_KICvdown       .psi*in^1/2  : 
Std_nuh            .            : 
Std_Eh             .psi         : 
Std_nuv            .            : 
Std_Ev             .psi         : 
Std_Gv             .psi         : 
Std_Cl             .ft/min^1/2  : 
Std_Sigma_h        .psi         : 
Std_SigmaH         .psi         : 
Std_SigmaV         .psi         : 
Std_Pore Pressure  .psi         : 
Std_Biot           .            : 
Std_Porosity       .            : 
Std_Permeability   .nD          : 
Std_SoPhi          .            : 
Std_TensileStrength.psi         : 
Std_Depth          .ft          : 
~Params ----------------------------------------------------
~Other -----------------------------------------------------
Exported from homogenization method
~ASCII -----------------------------------------------------
# ...
 6866.1923500000 2896.4771420585 24189.8120100833 22986.0511216768 0.2778928435 9236608.4376424421 0.2760317363 9205552.6652750485 3606962.9628205462 0.0007351877 4707.6162816935 5430.4162007109 7178.6632561427 3021.0144385830 0.9000000000 0.0359907828 386.6698689739 0.0000000000 1888.7386995702 0.7908919418 0.6856225462 17.4484178169 17.4484178169 17.4484178169 0.0046603244 95455.9805989089 0.0046603244 95455.9805989096 54348.1534120018 0.0000483865 0.1300988755 0.1302124826 0.0000000000 1534.2334611181 0.0000000000 0.0007915782 11.0757316695 0.0000000000 16.2179356126 6866.1923500000
 6886.0394000000 2906.8600940656 3909.1249046877 3885.9586191593 0.2989605698 9779400.7000856418 0.2987347459 9775518.4039477315 3763405.2438270645 0.0006376027 4955.3561757883 5708.2197289436 7201.3185513479 3029.7470329017 0.9000000000 0.0285801866 227.7289070302 0.0000000000 1954.4620616507 0.8289554267 0.7196235583 17.6640657974 17.6640657974 17.6640657974 0.0047196789 96659.3633562027 0.0047196789 96659.3633562034 55616.3384108807 0.0000490407 0.1318484944 0.1319634216 0.0000000000 1554.8875951662 0.0000000000 0.0008015973 11.2132117385 0.0000000000 16.3767947592 6886.0394000000
 6905.8864500000 2909.5592226827 3573.7715723222 4165.7175704541 0.2985412375 9876063.2360809036 0.2984294289 9874176.6390670370 3802346.2880390044 0.0005098413 4968.6968362297 5729.2474411100 7224.1521774592 3038.4805005265 0.9000000000 0.0288763588 231.2379813739 0.0000000000 1952.2380617935 0.8296179618 0.7194871900 19.2296823152 19.2296823152 19.2296823152 0.0051308387 105131.0519970797 0.0051226754 108618.9385437032 59269.8109482953 0.0000533549 0.1433508947 0.1434760101 0.0000000000 1691.0104406965 0.0000000000 0.0008719190 12.2031546057 0.0000000000 17.9949072912 6905.8864500000
 6922.4981000000 2744.3498760825 22426.2336520881 25450.0800542929 0.2597978012 7932924.7031061947 0.2421118306 6684963.1279476890 2682595.9123113141 0.0008432146 4709.6343062336 5339.3325558913 7243.2311140013 3045.7891562626 0.9000000000 0.0357276335 590.4543769362 0.0000000000 1768.1080103925 0.7713014115 0.6803373924 21.3587220497 21.3587220497 21.3587220497 0.0056731383 116417.2131139982 0.0053710443 109628.1384421013 54110.8353736279 0.0000885182 0.1410263020 0.1412805764 0.0000000000 1537.6790151535 0.0000000000 0.0009650395 13.6321976267 0.0000000000 20.5929913784 6922.4981000000
 6935.8743000000 2693.7465265832 4052.5437260819 3728.0170625169 0.2266945730 7000875.2865904253 0.2010805339 5306077.2393256733 2205033.2091915808 0.0003931866 4461.7152579331 5032.4258032413 7258.2647259809 3051.6741801109 0.9000000000 0.0485691970 1127.0904702265 0.0000000000 1609.7017542793 0.7255647357 0.6432808706 21.3612897346 21.3612897346 21.3612897346 0.0056727960 116422.1112165872 0.0054260880 108463.9296856029 53467.1492315564 0.0000882328 0.1407738785 0.1410286487 0.0000000000 1534.0624826832 0.0000000000 0.0009652160 13.6559213046 0.0000000000 20.6115857003 6935.8743000000
 6949.2505000000 2658.4202373335 3606.6876373372 4022.6379722245 0.2247329380 6957285.6548480140 0.2011833017 5121795.6595703773 2127062.3561814879 0.0008458437 4510.2608338594 5078.3263637997 7273.1962767385 3057.5602138126 0.9000000000 0.0465013741 1079.3320093007 0.0000000000 1613.0291547599 0.7307732487 0.6490283857 21.3521285016 21.3521285016 21.3521285016 0.0056726520 116404.5857073722 0.0054548367 111299.9869839369 55335.4576813629 0.0000893331 0.1422741049 0.1425260943 0.0000000000 1551.4710206542 0.0000000000 0.0009651467 13.6594580076 0.0000000000 20.5469497483 6949.2505000000
 6962.6267000000 2664.8674792010 21539.2894829447 20570.1357680828 0.2462667662 7690592.2679884816 0.2344743948 6175319.8560383851 2490970.7959461468 0.0006756954 4714.2232040004 5331.3135795550 7288.2711289509 3063.4462639614 0.9000000000 0.0356504123 605.5814293729 0.0000000000 1737.7425126862 0.7657043540 0.6770753923 21.3797854549 21.3797854549 21.3797854549 0.0056731659 116457.5578863044 0.0053851494 101527.1267051972 49940.8543686844 0.0000860556 0.1379198669 0.1381801033 0.0000000000 1500.4123172373 0.0000000000 0.0009655374 13.6645425456 0.0000000000 20.7398553735 6962.6267000000
 6976.0029000000 2649.5129431726 3819.6249709568 4669.3386556254 0.1996730894 6235278.0568919023 0.1785259420 4518474.8869133042 1916727.6192798768 0.0008654016 4289.8341502412 4809.5822476346 7303.2970898130 3069.3312878097 0.9000000000 0.0583269026 1591.9340271359 0.0000000000 1491.9910658228 0.6894467099 0.6149415664 21.7944035528 21.7944035528 21.7944035528 0.0057816675 118690.1020352696 0.0053181008 102631.8775654550 50736.3812080498 0.0000873140 0.1397476263 0.1400144064 0.0000000000 1521.1882335997 0.0000000000 0.0009834761 13.9648311158 0.0000000000 21.1850273585 6976.0029000000
 6989.3790500000 2749.6448770149 24334.9219220215 22956.7457724938 0.2521813120 7721475.2927039796 0.2206291746 6136708.9676781623 2500526.9118014323 0.0005567984 4664.9020337749 5281.5439864094 7318.0206170837 3075.2162890529 0.9000000000 0.0409991383 810.1122924205 0.0000000000 1713.6361537463 0.7556528196 0.6674272493 21.2759308308 21.2759308308 21.2759308308 0.0056723709 116258.6860474711 0.0056616432 117905.9309005204 63220.3854908203 0.0000587563 0.1579655258 0.1581044155 0.0000000000 1863.0293650583 0.0000000000 0.0009643054 13.4963370074 0.0000000000 20.0138011739 6989.3790500000
 7002.7552000000 2796.5694917563 3534.6928952050 5342.8007310040 0.2755969041 8299151.3205522224 0.2527222395 7444732.9977225503 2959230.3362554000 0.0003396175 4794.0312498852 5444.6404896587 7333.3814056706 3081.1022236510 0.9000000000 0.0330100946 490.2426198530 0.0000000000 1829.0765714037 0.7774997603 0.6845921517 21.3531153449 21.3531153449 21.3531153449 0.0056729028 116406.5195050162 0.0053643212 105946.8265043689 53443.2697648023 0.0000877832 0.1401676862 0.1404234589 0.0000000000 1527.0616616031 0.0000000000 0.0009649519 13.6787213831 0.0000000000 20.5522560218 7002.7552000000
 7016.1314000000 2703.9784013232 4453.3022559881 4025.1541495441 0.2282092644 6997861.0485614240 0.2009123537 5307499.8149893135 2199628.8234071080 0.0009129779 4515.3874484910 5085.1487466133 7348.3950703553 3086.9883511012 0.9000000000 0.0481848895 1092.5733657295 0.0000000000 1620.7331928945 0.7247795768 0.6435722467 21.3502383277 21.3502383277 21.3502383277 0.0056728296 116400.9916627921 0.0054090299 108864.1541299051 54727.0909612115 0.0000887059 0.1414253354 0.1416788072 0.0000000000 1541.6300806122 0.0000000000 0.0009649206 13.6727795503 0.0000000000 20.5328297547 7016.1314000000
 7029.5076000000 2635.6404498807 4365.3952644728 5385.8472346881 0.2137869126 6503271.2360629551 0.1768766085 4466252.9310630001 1889964.3497062328 0.0006548512 4429.4430132041 4965.2266148166 7363.3074657431 3092.8733749495 0.9000000000 0.0524528651 1443.6848668942 0.0000000000 1533.9885379580 0.7063405998 0.6301213777 21.8234867989 21.8234867989 21.8234867989 0.0057811653 118745.9038832737 0.0052760933 93542.3033386083 45581.9931701177 0.0001271176 0.1525870169 0.1528490578 0.0000000000 1693.7318802869 0.0000000000 0.0009842121 14.1350886260 0.0000000000 21.3846013959 7029.5076000000
 7042.8838000000 2635.4820577313 23488.8551701161 23534.5876440563 0.2260699167 6757522.5047945604 0.2043249890 4892039.5869928710 2026819.6839462265 0.0009350937 4625.5282160845 5176.6813283701 7378.1668586200 3102.1725034476 0.9000000000 0.0440152223 1004.3086397812 0.0000000000 1625.1632843650 0.7350229644 0.6567662264 21.3603602754 21.3603602754 21.3603602754 0.0056724861 116420.3677521933 0.0054629539 104997.6940606618 51537.7991793977 0.0000871469 0.1394526529 0.1397098323 0.0000000000 1517.9451034472 0.0000000000 0.0009654835 13.6998290845 0.0000000000 20.6038229690 7042.8838000000
 7056.2600000000 2628.4414195133 4027.2516848158 4437.2581377460 0.2289334893 6721037.5738235926 0.1971261871 4660354.6083781105 1936256.3714651200 0.0006764890 4707.0279948928 5253.9280209891 7393.2938210682 3200.0848807260 0.9000000000 0.0430259704 1041.1282338891 0.0000000000 1622.5234986512 0.7445768751 0.6670712240 21.3829117474 21.3829117474 21.3829117474 0.0056727500 116463.5992820141 0.0053268005 100411.9176483174 49025.9068427993 0.0000855705 0.1371774325 0.1374391259 0.0000000000 1492.2541403729 0.0000000000 0.0009655895 13.7726555115 0.0000000000 20.7598148405 7056.2600000000
