~Version ---------------------------------------------------
VERS.   2.0 : CWLS log ASCII Standard -VERSION 2.0
WRAP.    NO : One line per depth step
DLM . SPACE : Column Data Section Delimiter
~Well ------------------------------------------------------
STRT.ft               6011.19455 : START DEPTH
STOP.ft                8162.3221 : STOP DEPTH
STEP.ft       14.389100000000326 : STEP
NULL.                   -9999.25 : NULL VALUE
COMP.                            : COMPANY
WELL.                     bypass : WELL
FLD .                            : FIELD
LOC .                            : LOCATION
PROV.                            : PROVINCE
CNTY.                            : COUNTY
STAT.                            : STATE
CTRY.                            : COUNTRY
SRVC.                            : SERVICE COMPANY
DATE. 2019-07-30 20:43:20.875901 : DATE
UWI .                            : UNIQUE WELL ID
API .                            : API NUMBER
~Curve Information -----------------------------------------
Depth              .ft          : 
KICh               .psi*in^1/2  : 
KICvup             .psi*in^1/2  : 
KICvdown           .psi*in^1/2  : 
nuh                .            : 
Eh                 .psi         : 
nuv                .            : 
Ev                 .psi         : 
Gv                 .psi         : 
Cl                 .ft/min^1/2  : 
Sigma_h            .psi         : 
SigmaH             .psi         : 
SigmaV             .psi         : 
Pore Pressure      .psi         : 
Biot               .            : 
Porosity           .            : 
Permeability       .nD          : 
SoPhi              .            : 
TensileStrength    .psi         : 
Grad_SigmaH        .psi/ft      : 
Grad_Sigma_h       .psi/ft      : 
Std_KICh           .psi*in^1/2  : 
Std_KICvup         .psi*in^1/2  : 
Std_KICvdown       .psi*in^1/2  : 
Std_nuh            .            : 
Std_Eh             .psi         : 
Std_nuv            .            : 
Std_Ev             .psi         : 
Std_Gv             .psi         : 
Std_Cl             .ft/min^1/2  : 
Std_Sigma_h        .psi         : 
Std_SigmaH         .psi         : 
Std_SigmaV         .psi         : 
Std_Pore Pressure  .psi         : 
Std_Biot           .            : 
Std_Porosity       .            : 
Std_Permeability   .nD          : 
Std_SoPhi          .            : 
Std_TensileStrength.psi         : 
Std_Depth          .ft          : 
~Params ----------------------------------------------------
~Other -----------------------------------------------------
Exported from homogenization method
~ASCII -----------------------------------------------------
# ...
 6622.8272000000 2743.8565978510 3040.6919964739 2860.1599189279 0.2222749107 6614918.6319116792 0.2001211093 4845728.5720895128 2016252.6258383545 0.0004522643 4244.6362613997 4785.8335464061 7020.2345705307 2781.4824408693 0.9000000000 0.0530966100 1266.4681633501 0.0000000000 1572.6605410841 0.7226269691 0.6409100122 20.2433274819 20.2433274819 20.2433274819 0.0053816421 110405.9765915259 0.0051389142 105265.9703190708 51799.9596473369 0.0000861925 0.1290453144 0.1292606040 0.0000000000 1578.6256940320 0.0000000000 0.0009152338 12.9088074636 0.0000000000 19.4032621813 6622.8272000000
 6637.8194500000 2812.2638516659 4176.0058003414 4755.0512245383 0.2549446382 7588735.2078190185 0.2334103088 6239621.0453710025 2518347.9801584235 0.0006317197 4441.1531535794 5045.8599252443 7036.9188633320 2787.7791839811 0.9000000000 0.0426153981 758.3398383833 0.0000000000 1723.9448937881 0.7601682997 0.6690680858 20.2435089313 20.2435089313 20.2435089313 0.0053816635 110406.3536832406 0.0051059694 100241.1271822346 49461.5780175176 0.0000846830 0.1271968842 0.1274152985 0.0000000000 1554.0257473344 0.0000000000 0.0009152501 12.9173720595 0.0000000000 19.4034558962 6637.8194500000
 6652.8117000000 2755.0277303099 4139.5993655766 3499.2680902031 0.2267010828 6600967.4760640012 0.2069402358 4894673.7978330953 2026309.5588989826 0.0006269253 4310.5288011885 4848.6360522947 7053.6420469094 2794.0759274823 0.9000000000 0.0511767261 1166.1277416813 0.0000000000 1596.0636945761 0.7288100537 0.6479258689 20.2379681810 20.2379681810 20.2379681810 0.0053817907 110395.7612510690 0.0051284409 102311.8416238054 52030.0836882527 0.0000858830 0.1287846549 0.1290003207 0.0000000000 1574.4821711448 0.0000000000 0.0009150808 12.9121409840 0.0000000000 19.3641228315 6652.8117000000
 6667.8039000000 2859.5436410220 4643.8466941046 4864.5003956438 0.2464828078 7830213.6681052176 0.2347342336 7095407.4010976749 2868880.1806747261 0.0006118338 4289.9494205114 4918.1340708637 7070.2723499018 2800.3726497779 0.9000000000 0.0484398149 878.2605569316 0.0000000000 1710.7520772343 0.7375942881 0.6433826616 20.2410966042 20.2410966042 20.2410966042 0.0053818169 110401.7013000562 0.0051714952 111849.3296702046 55131.1597070421 0.0000883142 0.1316476889 0.1318587023 0.0000000000 1613.2571508235 0.0000000000 0.0009150821 12.8992667433 0.0000000000 19.3878051885 6667.8039000000
 6682.5931500000 2772.4546357227 5440.3657606430 4195.8475481675 0.2309783601 7101553.6919862246 0.2049922884 5330956.6918772515 2206320.9412957761 0.0002130491 4318.7149014709 4895.6181129611 7086.5853058174 2806.5838915284 0.9000000000 0.0513456038 1172.9845258627 0.0000000000 1604.1025207730 0.7325925734 0.6462633299 20.6010095836 20.6010095836 20.6010095836 0.0054737690 112315.6862922493 0.0051472300 102756.1184380358 50927.6404546957 0.0000864515 0.1297034097 0.1299251049 0.0000000000 1585.4390958095 0.0000000000 0.0009310257 13.1597152859 0.0000000000 19.8145875039 6682.5931500000
 6697.1794000000 2805.9666729678 4357.7333421427 4500.1173819344 0.2387536747 7340963.6090930710 0.2191504926 5891441.0043703215 2413132.3650456239 0.0001980468 4357.0643918916 4949.6732179103 7102.8008269027 2812.7099027163 0.9000000000 0.0494858292 1031.3233875979 0.0000000000 1646.7566036948 0.7390683334 0.6505820035 20.6054408308 20.6054408308 20.6054408308 0.0054739601 112324.1160078774 0.0051159841 103466.6262856132 50397.9244660059 0.0000863104 0.1294117119 0.1296339458 0.0000000000 1582.2695492831 0.0000000000 0.0009309495 13.1504479425 0.0000000000 19.8475110561 6697.1794000000
 6711.7656500000 2778.2456193518 3340.5863458796 3210.6664349093 0.2302238175 7101005.5384509852 0.2114053415 5500958.1144941635 2268773.8327841191 0.0002133159 4333.9366455315 4911.1491362424 7118.8877858666 2818.8367594249 0.9000000000 0.0514631352 1131.1694832923 0.0000000000 1611.5897511498 0.7317223801 0.6457222841 20.5869376295 20.5869376295 20.5869376295 0.0054738912 112288.7238046830 0.0051836705 109082.1794920724 54212.7117343185 0.0000884190 0.1321141554 0.1323316659 0.0000000000 1617.5109579051 0.0000000000 0.0009307125 13.1263781631 0.0000000000 19.7167811262 6711.7656500000
 6726.3519000000 2844.1823490777 4209.1950735706 3355.4611996110 0.2498069073 7698434.7001765296 0.2331024520 6514711.6699947165 2637005.5625553378 0.0001823808 4433.9059437850 5049.8758712295 7135.0354878590 2824.9631655949 0.9000000000 0.0465762443 859.6988308800 0.0000000000 1697.7358130165 0.7507599879 0.6591843558 20.5887058676 20.5887058676 20.5887058676 0.0054736258 112292.0927742641 0.0052124807 106475.1910738476 52902.7063422228 0.0000876543 0.1312518212 0.1314707840 0.0000000000 1605.5525749860 0.0000000000 0.0009308891 13.1317082457 0.0000000000 19.7297303742 6726.3519000000
 6740.9381000000 2800.8842988994 4399.1883211051 4173.4561354143 0.2486212111 7767180.8158769002 0.2244426074 6298167.6411568010 2562897.6975536989 0.0001812870 4449.6065382383 5071.6671557159 7151.3161279618 2831.0891556403 0.9000000000 0.0451408676 868.8438486621 0.0000000000 1695.6353058755 0.7523681542 0.6600871381 20.2260331313 20.2260331313 20.2260331313 0.0053815113 110372.9340585729 0.0051819544 104212.2566954706 53667.8343553724 0.0000867575 0.1299729768 0.1301865616 0.0000000000 1589.5768715548 0.0000000000 0.0009150707 12.9025373446 0.0000000000 19.2796832731 6740.9381000000
 6755.5243500000 2792.3273996557 4252.7037798417 4856.3457376217 0.2525801392 7870643.0246455651 0.2345449267 6497765.7053729361 2624409.0124039967 0.0001707963 4519.7197673791 5148.0742158156 7167.6953914779 2837.2131657745 0.9000000000 0.0421448258 740.1995623251 0.0000000000 1726.3851955727 0.7620539797 0.6690405560 20.5409407769 20.5409407769 20.5409407769 0.0054733120 112200.6669855787 0.0054331396 114320.6745615558 59521.0655207208 0.0000621825 0.1536413693 0.1537799084 0.0000000000 1972.4921033014 0.0000000000 0.0009303736 13.0469661261 0.0000000000 19.3943974338 6755.5243500000
 6770.1106500000 2890.0263049408 4370.6345316074 5469.2513867356 0.2595377247 8125110.2301373249 0.2515795834 7703099.4721953636 3075284.0032638861 0.0001555546 4447.2042685762 5092.2909595861 7184.0843739815 2851.1650969894 0.9000000000 0.0445916099 698.2638561396 0.0000000000 1767.2562608828 0.7521724862 0.6568879740 20.5444334173 20.5444334173 20.5444334173 0.0054735909 112207.3465846392 0.0053963319 118730.2348831361 60850.6686463372 0.0000624643 0.1541411691 0.1542792769 0.0000000000 1979.8828799175 0.0000000000 0.0009301696 13.0607614765 0.0000000000 19.4191151216 6770.1106500000
 6784.6969000000 2887.9836949456 4360.0734436967 4204.8874731749 0.2618691872 8106488.9489129484 0.2454167301 7231150.7869643252 2895565.2375343619 0.0001619849 4543.9820548432 5186.4011764970 7200.2855272078 2891.5250955789 0.9000000000 0.0440119907 710.6279865507 0.0000000000 1762.3821759391 0.7644263632 0.6697398752 19.5552287184 19.5552287184 19.5552287184 0.0052106162 106813.4773300706 0.0050990358 107008.4143587997 56112.4764437377 0.0000590862 0.1460031659 0.1461352867 0.0000000000 1874.5052799989 0.0000000000 0.0008855570 12.4351902556 0.0000000000 18.4678788304 6784.6969000000
 6800.6159000000 2912.5530056577 4000.6482037380 4374.2495688464 0.2719152963 8420634.2659074869 0.2675138867 8210607.7396383937 3236878.2490634206 0.0001365992 4620.8420652727 5282.8857006027 7218.1626954043 2948.3422912652 0.9000000000 0.0402262513 525.6411814696 0.0000000000 1821.7167937834 0.7768245962 0.6794740555 19.0189332189 19.0189332189 19.0189332189 0.0050555137 103715.4659166750 0.0047618700 95035.2017697662 48584.1380848317 0.0000804225 0.1206076646 0.1208109419 0.0000000000 1474.5302451840 0.0000000000 0.0008595856 12.1688040888 0.0000000000 18.2466445347 6800.6159000000
 6817.8676500000 2795.5346175768 4481.3229030228 4260.4266516659 0.2374483855 7141734.1143432846 0.1965092604 5294443.8144076336 2199332.4948526435 0.0002707511 4453.3981944893 5030.5320934070 7237.3123508853 2994.0243504584 0.9000000000 0.0515861788 1178.7176294931 0.0000000000 1630.4688380858 0.7378453721 0.6531951665 18.7091185048 18.7091185048 18.7091185048 0.0049823735 102153.8187026222 0.0048650143 98137.2223431374 51067.0937038942 0.0000810663 0.1213727634 0.1215686435 0.0000000000 1484.7002222337 0.0000000000 0.0008468680 11.9209644070 0.0000000000 17.7328143648 6817.8676500000
