~Version ---------------------------------------------------
VERS.   2.0 : CWLS log ASCII Standard -VERSION 2.0
WRAP.    NO : One line per depth step
DLM . SPACE : Column Data Section Delimiter
~Well ------------------------------------------------------
STRT.ft               5683.82875 : START DEPTH
STOP.ft        7698.577649999999 : STOP DEPTH
STEP.ft       15.128450000000157 : STEP
NULL.                   -9999.25 : NULL VALUE
COMP.                            : COMPANY
WELL.                     bypass : WELL
FLD .                            : FIELD
LOC .                            : LOCATION
PROV.                            : PROVINCE
CNTY.                            : COUNTY
STAT.                            : STATE
CTRY.                            : COUNTRY
SRVC.                            : SERVICE COMPANY
DATE. 2019-07-30 20:43:20.519169 : DATE
UWI .                            : UNIQUE WELL ID
API .                            : API NUMBER
~Curve Information -----------------------------------------
Depth              .ft          : 
KICh               .psi*in^1/2  : 
KICvup             .psi*in^1/2  : 
KICvdown           .psi*in^1/2  : 
nuh                .            : 
Eh                 .psi         : 
nuv                .            : 
Ev                 .psi         : 
Gv                 .psi         : 
Cl                 .ft/min^1/2  : 
Sigma_h            .psi         : 
SigmaH             .psi         : 
SigmaV             .psi         : 
Pore Pressure      .psi         : 
Biot               .            : 
Porosity           .            : 
Permeability       .nD          : 
SoPhi              .            : 
TensileStrength    .psi         : 
Grad_SigmaH        .psi/ft      : 
Grad_Sigma_h       .psi/ft      : 
Std_KICh           .psi*in^1/2  : 
Std_KICvup         .psi*in^1/2  : 
Std_KICvdown       .psi*in^1/2  : 
Std_nuh            .            : 
Std_Eh             .psi         : 
Std_nuv            .            : 
Std_Ev             .psi         : 
Std_Gv             .psi         : 
Std_Cl             .ft/min^1/2  : 
Std_Sigma_h        .psi         : 
Std_SigmaH         .psi         : 
Std_SigmaV         .psi         : 
Std_Pore Pressure  .psi         : 
Std_Biot           .            : 
Std_Porosity       .            : 
Std_Permeability   .nD          : 
Std_SoPhi          .            : 
Std_TensileStrength.psi         : 
Std_Depth          .ft          : 
~Params ----------------------------------------------------
~Other -----------------------------------------------------
Exported from homogenization method
~ASCII -----------------------------------------------------
# ...
 6311.2608500000 2730.1113728933 3559.1676602491 3440.2655641359 0.2253864762 6335110.1654889602 0.2228706473 5518854.8544860147 2256287.8900606027 0.0003075618 3907.7741777340 4424.7629227851 6539.0355905745 2650.6245209294 0.9000000000 0.0484623343 938.9523800434 0.0000000000 1663.4651932546 0.7010901669 0.6191748797 20.9456787171 20.9456787171 20.9456787171 0.0167115222 114265.3972691397 0.0166215608 116902.9793234179 56193.0298208525 0.0001325869 0.2513939530 0.2511274223 0.0000000000 2661.4684555179 0.0000000000 0.0018944159 13.3411211376 0.0000000000 20.0282710769 6311.2608500000
 6325.3725000000 2807.0044110456 3496.1587939877 3336.9854030676 0.2373208434 6330920.8125307029 0.2347428424 5956978.5436128071 2410961.8454005392 0.0004792668 3912.1381548650 4423.8017905404 6554.6812548595 2656.5510431135 0.9000000000 0.0484512060 862.3541491484 0.0000000000 1701.7783592622 0.6993741144 0.6184834419 20.9272664659 20.9272664659 20.9272664659 0.0167113350 114230.1530614524 0.0166192139 119612.4764810750 57525.1341870777 0.0001329518 0.2518388368 0.2515726767 0.0000000000 2667.1279092382 0.0000000000 0.0018939178 13.3101901997 0.0000000000 19.8990950660 6325.3725000000
 6339.4841500000 2781.5641318888 3243.3741416776 3328.3547925171 0.2331800770 6312485.9909091098 0.2299558255 5679049.1897316361 2308243.3285344080 0.0002396484 3943.2492402560 4455.1360367102 6570.3388423084 2662.4781598248 0.9000000000 0.0487068397 904.6641647854 0.0000000000 1680.7525776215 0.7027600245 0.6220142123 20.2374587439 20.2374587439 20.2374587439 0.0161448112 110394.7085410279 0.0159033693 109883.9354726632 52440.4852243386 0.0001272042 0.2412386099 0.2409793890 0.0000000000 2553.7757683989 0.0000000000 0.0018302798 12.8901345817 0.0000000000 19.3633087051 6339.4841500000
 6354.1205500000 2748.3949283795 3309.7978609255 3268.7753100091 0.2283606582 6384853.5147388475 0.2207543023 5314130.5795227708 2176484.3173277508 0.0006566535 3994.0200641736 4513.8066164614 6586.5872929706 2668.6262087184 0.9000000000 0.0490542856 980.7424622192 0.0000000000 1648.4664326186 0.7103747216 0.6285716541 20.2493201892 20.2493201892 20.2493201892 0.0161449698 110417.4258814768 0.0157002918 105218.7116951471 50360.8240324174 0.0001261148 0.2392318357 0.2389705020 0.0000000000 2532.3506647801 0.0000000000 0.0018305782 12.9147735819 0.0000000000 19.4460782308 6354.1205500000
 6369.2816500000 2730.0201576458 3344.9523463800 3177.7953641793 0.2278502351 6480049.2513798736 0.2231223812 5522407.1962962253 2256610.7912530592 0.0006160294 3985.9464084670 4513.7020797929 6603.4078409775 2674.9931517502 0.9000000000 0.0477344194 922.3162032210 0.0000000000 1663.1540869001 0.7086673706 0.6258078426 20.2390581769 20.2390581769 20.2390581769 0.0161443961 110397.7717489483 0.0159831138 108634.9492348562 52268.7826887355 0.0001272867 0.2416129352 0.2413541483 0.0000000000 2556.8859419312 0.0000000000 0.0018305795 12.8884047849 0.0000000000 19.3744720177 6369.2816500000
 6384.4427500000 2716.8671005370 3330.7426334467 3526.4836214277 0.2297451828 6674595.9476265004 0.2237852122 5496410.0142684476 2244647.6562501029 0.0005924634 4059.4109863002 4602.1735066059 6620.3362335238 2681.3604175159 0.9000000000 0.0459112853 880.1284731491 0.0000000000 1667.1256722047 0.7208418474 0.6358285516 19.9144938473 19.9144938473 19.9144938473 0.0158821182 108611.2788342022 0.0156732774 107363.0332772899 51916.9829704829 0.0001252387 0.2375708146 0.2373161287 0.0000000000 2514.7336431766 0.0000000000 0.0018008060 12.6922524015 0.0000000000 19.0910838100 6384.4427500000
 6399.6038500000 2752.2865285943 3374.8318220139 3076.8596505002 0.2322911785 6791577.9848683188 0.2283201243 5954807.3026404353 2422737.9618688673 0.0006169112 4016.5474504345 4567.6816388018 6637.2276510146 2687.7292692483 0.9000000000 0.0472060211 875.1148826931 0.0000000000 1679.8679794191 0.7137444357 0.6276243881 20.2421724538 20.2421724538 20.2421724538 0.0161445122 110403.7419529310 0.0158609484 108819.3812869007 53077.7031281836 0.0001271773 0.2411247894 0.2408654907 0.0000000000 2552.8571147363 0.0000000000 0.0018306097 12.8986902536 0.0000000000 19.3960038441 6399.6038500000
 6414.7650000000 2737.3386602869 4176.0279755042 3375.0348906623 0.2347912253 6873001.8892391017 0.2278984637 5739927.7723119771 2335718.5479181851 0.0005753936 4103.7904245193 4660.4028905292 6654.1515000696 2694.0962330159 0.9000000000 0.0452407557 838.3846239818 0.0000000000 1681.7498215066 0.7265118661 0.6397413505 20.2387895171 20.2387895171 20.2387895171 0.0161456147 110397.2633824311 0.0156915239 109348.9274348272 52418.8280800754 0.0001266784 0.2399162855 0.2396555991 0.0000000000 2541.0851534976 0.0000000000 0.0018301588 12.8800213141 0.0000000000 19.3723788444 6414.7650000000
 6429.9261500000 2852.6197405853 4370.2781233099 5367.7119456203 0.2119739272 5692697.4990144484 0.1950931406 4910315.8434723420 2053745.4933661681 0.0006509614 3773.7559759752 4243.4605934871 6670.8462174747 2700.4632896690 0.9000000000 0.0640691243 1599.6944715685 0.0000000000 1547.4203415306 0.6599547949 0.5869050263 19.9366318495 19.9366318495 19.9366318495 0.0158904743 108653.6938496251 0.0147952927 106259.3300762421 50455.0579995133 0.0001423368 0.2450880327 0.2448547125 0.0000000000 2381.1263716214 0.0000000000 0.0017994450 12.6407035403 0.0000000000 19.2450140893 6429.9261500000
 6445.0872500000 2769.6521225883 4585.4852111390 3549.1346834013 0.2107819342 6059201.8725726102 0.1963207298 5067219.6196486847 2116541.0450329743 0.0005542252 3834.2820891412 4334.7191787040 6687.0255411132 2706.8323713319 0.9000000000 0.0590565648 1410.5300221581 0.0000000000 1564.6469962668 0.6725617529 0.5949154667 20.2527323535 20.2527323535 20.2527323535 0.0161452706 110423.9625475041 0.0157325962 108114.1896613169 52436.0303753171 0.0001267518 0.2401775343 0.2399172353 0.0000000000 2543.4012307110 0.0000000000 0.0018305448 12.9232526609 0.0000000000 19.4698322650 6445.0872500000
 6460.2483500000 2735.1377509370 4148.6673778496 3385.1910802809 0.2310617349 7031259.4461276103 0.2238228283 6085851.3650220735 2484062.9606572441 0.0006159972 4046.7811411793 4617.9352309277 6703.7055847230 2713.1993143637 0.9000000000 0.0469344235 892.8534373841 0.0000000000 1674.6077192498 0.7148231741 0.6264126272 20.2234316480 20.2234316480 20.2234316480 0.0161442161 110367.8565855847 0.0160795104 117862.8889825623 58109.0566011309 0.0000975355 0.2362458990 0.2359613090 0.0000000000 2590.2138122703 0.0000000000 0.0018302040 12.8593005046 0.0000000000 19.2649609273 6460.2483500000
 6475.4094500000 2767.7642841582 3928.3434685355 4123.1773889649 0.2360041554 6979351.5953907073 0.2278538115 6053060.4297079304 2462156.5373082445 0.0005464923 4091.4321020005 4656.1026627566 6720.6580474968 2719.5662573956 0.9000000000 0.0468336016 875.2971609776 0.0000000000 1683.1220172199 0.7190437452 0.6318414509 19.9066941929 19.9066941929 19.9066941929 0.0158840744 108596.3536157390 0.0154056137 111198.6993648763 54025.0556718590 0.0001252250 0.2367234083 0.2364676567 0.0000000000 2509.0077006215 0.0000000000 0.0018000204 12.6602634136 0.0000000000 19.0361971065 6475.4094500000
 6490.5705500000 2845.2824309757 4124.1032968627 5042.9519287945 0.2281124716 6464031.2661433071 0.2174652278 5977056.4640690461 2451821.2473137123 0.0005869109 3914.1286382235 4440.4673421609 6737.3827395409 2725.9352933494 0.9000000000 0.0552415638 1170.7612591369 0.0000000000 1645.8357793512 0.6841412951 0.6030484698 20.2197071264 20.2197071264 20.2197071264 0.0161472132 110360.7257399970 0.0160471185 119128.0624892271 58599.5591625250 0.0001506898 0.2598125710 0.2595851391 0.0000000000 2523.3299524754 0.0000000000 0.0018290848 12.8468571600 0.0000000000 19.2388845374 6490.5705500000
 6505.7316500000 2910.0235849632 4646.7446648035 4687.7230445048 0.2216029903 6225797.2903198572 0.2130302089 6020132.1828838252 2480418.8876553439 0.0006613110 3819.6782865333 4329.3199082355 6753.7928010645 2732.3023748936 0.9000000000 0.0616353255 1411.9225992564 0.0000000000 1633.8070034587 0.6654624170 0.5871250909 20.2154994854 20.2154994854 20.2154994854 0.0161502568 110352.6970310905 0.0159310814 113181.5427111618 56482.8151898810 0.0001492209 0.2576951806 0.2574656874 0.0000000000 2501.4652439656 0.0000000000 0.0018282992 12.8216081353 0.0000000000 19.2084334160 6505.7316500000
