~Version ---------------------------------------------------
VERS.   2.0 : CWLS log ASCII Standard -VERSION 2.0
WRAP.    NO : One line per depth step
DLM . SPACE : Column Data Section Delimiter
~Well ------------------------------------------------------
STRT.ft               5337.35725 : START DEPTH
STOP.ft        7806.412649999999 : STOP DEPTH
STEP.ft       15.433500000000095 : STEP
NULL.                   -9999.25 : NULL VALUE
COMP.                            : COMPANY
WELL.                     bypass : WELL
FLD .                            : FIELD
LOC .                            : LOCATION
PROV.                            : PROVINCE
CNTY.                            : COUNTY
STAT.                            : STATE
CTRY.                            : COUNTRY
SRVC.                            : SERVICE COMPANY
DATE. 2019-07-30 20:43:33.131485 : DATE
UWI .                            : UNIQUE WELL ID
API .                            : API NUMBER
~Curve Information -----------------------------------------
Depth              .ft          : 
KICh               .psi*in^1/2  : 
KICvup             .psi*in^1/2  : 
KICvdown           .psi*in^1/2  : 
nuh                .            : 
Eh                 .psi         : 
nuv                .            : 
Ev                 .psi         : 
Gv                 .psi         : 
Cl                 .ft/min^1/2  : 
Sigma_h            .psi         : 
SigmaH             .psi         : 
SigmaV             .psi         : 
Pore Pressure      .psi         : 
Biot               .            : 
Porosity           .            : 
Permeability       .nD          : 
SoPhi              .            : 
TensileStrength    .psi         : 
Grad_SigmaH        .psi/ft      : 
Grad_Sigma_h       .psi/ft      : 
Std_KICh           .psi*in^1/2  : 
Std_KICvup         .psi*in^1/2  : 
Std_KICvdown       .psi*in^1/2  : 
Std_nuh            .            : 
Std_Eh             .psi         : 
Std_nuv            .            : 
Std_Ev             .psi         : 
Std_Gv             .psi         : 
Std_Cl             .ft/min^1/2  : 
Std_Sigma_h        .psi         : 
Std_SigmaH         .psi         : 
Std_SigmaV         .psi         : 
Std_Pore Pressure  .psi         : 
Std_Biot           .            : 
Std_Porosity       .            : 
Std_Permeability   .nD          : 
Std_SoPhi          .            : 
Std_TensileStrength.psi         : 
Std_Depth          .ft          : 
~Params ----------------------------------------------------
~Other -----------------------------------------------------
Exported from homogenization method
~ASCII -----------------------------------------------------
# ...
 6978.8026000000 2545.6884488469 3280.9466982962 4411.4598047953 0.1800764673 5679911.0060561225 0.1559087093 3760438.8851995608 1626684.5599006349 0.0007091391 4177.9260168389 4659.2432164724 7320.1719155241 3070.5635423363 0.9000000000 0.0619984746 1938.8912893695 0.0000000000 1400.0154744082 0.6676278845 0.5986594343 20.3399441981 20.3399441981 20.3399441981 0.0053831589 110591.2953220094 0.0047526609 85930.9390769552 41814.9043672746 0.0001123256 0.1428494401 0.1431122491 0.0000000000 1518.5824538246 0.0000000000 0.0009159616 13.1375652351 0.0000000000 20.0681144268 6978.8026000000
 6993.5488000000 2542.4410921994 3744.8204234818 3660.4072354009 0.1872237061 5870549.2219459275 0.1669740525 3932686.6518836929 1684731.5552650804 0.0008854659 4283.7980671672 4778.2751561947 7336.2161354512 3077.0511135072 0.9000000000 0.0565926011 1705.4317418525 0.0000000000 1454.8531250908 0.6832404110 0.6125356653 20.6863158494 20.6863158494 20.6863158494 0.0054738358 112479.2804090431 0.0049464922 81880.1485215548 39923.2875957509 0.0001116093 0.1429604295 0.1432321116 0.0000000000 1515.6270539309 0.0000000000 0.0009322983 13.5298921459 0.0000000000 20.4026262872 6993.5488000000
 7008.2950000000 2519.7888053069 3299.3825539980 3729.2561200467 0.1917285179 6107184.1675139684 0.1729985406 4047200.0989926276 1724405.6536840592 0.0006193073 4375.1153907005 4887.5797712875 7352.5319645267 3083.5401407820 0.9000000000 0.0520175378 1531.2329165357 0.0000000000 1488.4569596511 0.6973992635 0.6242767165 20.3116362714 20.3116362714 20.3116362714 0.0053817037 110536.9291030851 0.0050047347 90484.5049660483 44259.9630686978 0.0001156358 0.1469260967 0.1471813360 0.0000000000 1562.4050749660 0.0000000000 0.0009163338 13.1342069174 0.0000000000 19.8756340011 7008.2950000000
 7023.0412000000 2571.7955573472 3584.0974192422 3917.6697463124 0.2133155267 6816352.4579030117 0.2010411095 4996574.6519462448 2079333.5813054834 0.0008546369 4532.8837562876 5094.6792915717 7368.9898626557 3090.0278253381 0.9000000000 0.0446643400 1050.3262012423 0.0000000000 1599.0752522929 0.7254235233 0.6454303239 20.6519740941 20.6519740941 20.6519740941 0.0054737049 112413.3540908917 0.0051511584 94993.0406795119 46551.7739760278 0.0000875452 0.1340953843 0.1343728959 0.0000000000 1438.1954974011 0.0000000000 0.0009319667 13.3112758080 0.0000000000 20.1682189275 7023.0412000000
 7037.7874000000 2580.8762098367 22658.0552767338 22988.4201615939 0.2036794809 6198613.9384346297 0.1846849663 4418463.7539935596 1864439.5900952846 0.0006185251 4414.8814405034 4929.8535769300 7385.4793678656 3096.5849802056 0.9000000000 0.0512464961 1374.1006149810 0.0000000000 1533.7848589036 0.7004834470 0.6273109984 20.2381145784 20.2381145784 20.2381145784 0.0053815140 110396.0845670785 0.0052046989 105251.0026866241 50967.3456635405 0.0000617271 0.1334572506 0.1336444672 0.0000000000 1591.1549721303 0.0000000000 0.0009153017 12.9407372356 0.0000000000 19.3636688793 7037.7874000000
 7052.5336000000 2870.3121303283 4166.7493024986 4517.5985814633 0.2756420550 7175265.2143326439 0.2743926712 6723995.5668428028 2637633.5435800054 0.0005944839 4899.3581634144 5461.8408117630 7402.0455993589 3158.5510572487 0.9000000000 0.0357212092 438.4794190467 0.0000000000 1829.0582439283 0.7744508742 0.6946947638 20.5324756804 20.5324756804 20.5324756804 0.0054732689 112184.4524922276 0.0054741139 120504.5757534106 58417.2495692857 0.0000642464 0.1383115446 0.1384979726 0.0000000000 1651.3026728304 0.0000000000 0.0009303686 13.0260737979 0.0000000000 19.3354245557 7052.5336000000
 7067.2798000000 2865.5061589002 23277.6726077748 23925.7922996238 0.2731968182 7389120.5779130310 0.2722422379 7176690.1359586902 2818937.7517621000 0.0005188699 4949.1196112033 5529.4792596123 7418.8473941270 3379.9257753371 0.9000000000 0.0361963980 433.3215916953 0.0000000000 1836.5783420374 0.7824055954 0.7002863550 20.1825062969 20.1825062969 20.1825062969 0.0053813216 110289.5740417181 0.0053831754 114918.3113037125 57364.5381531271 0.0000629690 0.1357322982 0.1359158916 0.0000000000 1619.7121753260 0.0000000000 0.0009145295 12.8101066092 0.0000000000 18.9758191554 7067.2798000000
 7082.0259500000 2879.4785044074 22370.7227587002 21570.7000240992 0.2669760558 7046927.7155422214 0.2663167282 6792172.3009460336 2679733.8506429731 0.0008330889 5057.8351062404 5614.0356502857 7435.5009863997 3660.4844375528 0.9000000000 0.0395964039 514.8418260648 0.0000000000 1806.9296296169 0.7927160519 0.7141791264 20.5217247453 20.5217247453 20.5217247453 0.0054732762 112163.9047415450 0.0054732762 118000.7939826053 59266.0151222681 0.0000642277 0.1383709848 0.1385572375 0.0000000000 1651.5262583418 0.0000000000 0.0009301260 13.0225586461 0.0000000000 19.2588454601 7082.0259500000
 7096.7721000000 2884.6372296270 21047.5156263836 19768.4151407325 0.2829707917 7728395.6655381378 0.2817366995 7681778.3740608366 2995114.2372681336 0.0005199393 5286.6003655718 5888.9831879593 7452.2284208342 3864.5334586954 0.9000000000 0.0332575043 345.1046239834 0.0000000000 1879.6420078100 0.8298115122 0.7449302713 20.1634958521 20.1634958521 20.1634958521 0.0053812827 110253.2438793926 0.0053812827 110253.2438793948 57475.4732009532 0.0000626986 0.1353620390 0.1355459659 0.0000000000 1614.2879863401 0.0000000000 0.0009142831 12.7955209206 0.0000000000 18.8402716840 7096.7721000000
 7111.5183000000 2894.8793023078 20877.1528103597 20105.7432724834 0.2753068907 7646583.9167550728 0.2747084462 7637324.1221205499 2995340.7060492774 0.0007610183 5246.5920892564 5846.1798412415 7468.9975401165 3911.1981522192 0.9000000000 0.0367484636 409.0539762958 0.0000000000 1860.5111819690 0.8220719676 0.7377597677 20.5184219480 20.5184219480 20.5184219480 0.0054732764 112157.5904870411 0.0054732764 113949.5602880538 59186.5635785133 0.0000640057 0.1380812536 0.1382678672 0.0000000000 1647.1852128958 0.0000000000 0.0009300779 13.0198991346 0.0000000000 19.2353871785 7111.5183000000
 7126.2645000000 2854.5235668866 20496.6420380914 20076.5196180081 0.2719079639 7541697.0203539254 0.2715760009 7514318.2501473501 2954529.0759840123 0.0005496308 5230.6507686151 5823.5943804542 7485.7427156160 3919.3081122594 0.9000000000 0.0359611569 418.3650784665 0.0000000000 1840.4649093010 0.8172015479 0.7339961587 20.1806559466 20.1806559466 20.1806559466 0.0053812787 110286.0360799449 0.0053823878 118192.6459520375 59115.3631227613 0.0000634054 0.1364772550 0.1366598324 0.0000000000 1629.4757880214 0.0000000000 0.0009146046 12.8036642430 0.0000000000 18.9626946965 7126.2645000000
 7141.0107000000 2838.1678480164 19877.0411544484 20184.2503617346 0.2715578514 7559146.0675387783 0.2688229855 7257980.5482091121 2857281.2844991717 0.0007622434 5281.3109783948 5875.7901095583 7502.5155038900 3927.4182867451 0.9000000000 0.0353194710 433.4401969850 0.0000000000 1832.2545383111 0.8228233168 0.7395747185 20.5477280243 20.5477280243 20.5477280243 0.0054732949 112213.6391106245 0.0054626389 116941.8176829928 58906.7933737298 0.0000642029 0.1383589938 0.1385454926 0.0000000000 1651.2311194557 0.0000000000 0.0009305908 13.0473286404 0.0000000000 19.4427522352 7141.0107000000
 7155.7569000000 2650.6761237731 3589.3320788193 4636.9882052417 0.2281052506 6737212.3505069073 0.2002542919 5155083.2087650085 2143165.6977709439 0.0002221756 5052.5164053111 5601.1023141554 7519.2510058460 3935.5288603166 0.9000000000 0.0458118886 1070.9327273313 0.0000000000 1628.5026737003 0.7827407209 0.7060771454 19.6771016233 19.6771016233 19.6771016233 0.0052115557 107046.9967495627 0.0047157862 86734.9555048759 42103.2559727300 0.0001109272 0.1408088804 0.1410586596 0.0000000000 1497.9164287968 0.0000000000 0.0008869852 12.7152178985 0.0000000000 19.3149436681 7155.7569000000
 7171.9201500000 2641.3675809897 6224.6309884294 4951.4241837574 0.2315798594 6841149.9837027723 0.2023517894 5131672.7252825852 2130803.3210769487 0.0004168691 5117.2791523678 5672.7567311478 7537.1662507962 3944.4187830981 0.9000000000 0.0434581727 1021.3921301447 0.0000000000 1636.8723614389 0.7909676366 0.7135159128 18.4955786235 18.4955786235 18.4955786235 0.0049125446 100817.1498934990 0.0047822661 93880.4677034912 46158.9364036546 0.0000562697 0.1217842373 0.1219553953 0.0000000000 1451.3672812061 0.0000000000 0.0008361997 11.8151985965 0.0000000000 17.8233231444 7171.9201500000
