~Version ---------------------------------------------------
VERS.   2.0 : CWLS log ASCII Standard -VERSION 2.0
WRAP.    NO : One line per depth step
DLM . SPACE : Column Data Section Delimiter
~Well ------------------------------------------------------
STRT.ft               5857.54595 : START DEPTH
STOP.ft       7958.7521000000015 : STOP DEPTH
STEP.ft       14.211900000000242 : STEP
NULL.                   -9999.25 : NULL VALUE
COMP.                            : COMPANY
WELL.                     bypass : WELL
FLD .                            : FIELD
LOC .                            : LOCATION
PROV.                            : PROVINCE
CNTY.                            : COUNTY
STAT.                            : STATE
CTRY.                            : COUNTRY
SRVC.                            : SERVICE COMPANY
DATE. 2019-07-30 20:43:36.147719 : DATE
UWI .                            : UNIQUE WELL ID
API .                            : API NUMBER
~Curve Information -----------------------------------------
Depth              .ft          : 
KICh               .psi*in^1/2  : 
KICvup             .psi*in^1/2  : 
KICvdown           .psi*in^1/2  : 
nuh                .            : 
Eh                 .psi         : 
nuv                .            : 
Ev                 .psi         : 
Gv                 .psi         : 
Cl                 .ft/min^1/2  : 
Sigma_h            .psi         : 
SigmaH             .psi         : 
SigmaV             .psi         : 
Pore Pressure      .psi         : 
Biot               .            : 
Porosity           .            : 
Permeability       .nD          : 
SoPhi              .            : 
TensileStrength    .psi         : 
Grad_SigmaH        .psi/ft      : 
Grad_Sigma_h       .psi/ft      : 
Std_KICh           .psi*in^1/2  : 
Std_KICvup         .psi*in^1/2  : 
Std_KICvdown       .psi*in^1/2  : 
Std_nuh            .            : 
Std_Eh             .psi         : 
Std_nuv            .            : 
Std_Ev             .psi         : 
Std_Gv             .psi         : 
Std_Cl             .ft/min^1/2  : 
Std_Sigma_h        .psi         : 
Std_SigmaH         .psi         : 
Std_SigmaV         .psi         : 
Std_Pore Pressure  .psi         : 
Std_Biot           .            : 
Std_Porosity       .            : 
Std_Permeability   .nD          : 
Std_SoPhi          .            : 
Std_TensileStrength.psi         : 
Std_Depth          .ft          : 
~Params ----------------------------------------------------
~Other -----------------------------------------------------
Exported from homogenization method
~ASCII -----------------------------------------------------
# ...
 7064.0094000000 2853.7776447335 4515.1040167474 3924.8127492108 0.2635052677 8114267.0645099152 0.2558651045 7436173.2683108449 2954995.9308495112 0.0007021351 4884.3372635742 5526.5401314071 7384.4225353382 3319.8863907607 0.9000000000 0.0402916419 586.2514743889 0.0000000000 1785.3119164701 0.7823517522 0.6914398024 22.3228688850 22.3228688850 22.3228688850 0.0058951450 121226.5977075636 0.0058905192 145424.5250931431 71307.9504211435 0.0000705790 0.1625725752 0.1627357564 0.0000000000 2024.4178050222 0.0000000000 0.0010054954 14.1042976351 0.0000000000 22.2644402850 7064.0094000000
 7076.1976500000 2762.7657441809 4130.2667494914 4490.5646728536 0.2435824353 7295101.8882580735 0.2174265620 5731174.6427488588 2342410.4919287395 0.0007081974 4923.7890250051 5510.4089129178 7398.1697543264 3551.4860183116 0.9000000000 0.0444933132 884.4970073590 0.0000000000 1688.9018838419 0.7787245616 0.6958241231 22.7833687697 22.7833687697 22.7833687697 0.0060171214 123726.7361811383 0.0058025096 117400.2945091164 58285.6754481435 0.0000884151 0.1473178183 0.1475706224 0.0000000000 1734.2855571899 0.0000000000 0.0010257918 14.5569676199 0.0000000000 22.7247971049 7076.1976500000
 7088.3859000000 2778.9048221876 4316.4352713090 4027.1834791058 0.2542040594 7462930.5049286773 0.2365459414 6277895.5693831565 2529146.1815080945 0.0007357387 5108.9778375790 5704.0110340609 7411.7965929809 3767.4009430547 0.9000000000 0.0408863755 712.4438107539 0.0000000000 1740.6154518377 0.8046981520 0.7207533435 21.0935276273 21.0935276273 21.0935276273 0.0055708041 114549.1356468193 0.0052938094 98484.9019772813 46508.5428588471 0.0001106785 0.1409481784 0.1411918980 0.0000000000 1672.1232966028 0.0000000000 0.0009496258 13.5902331942 0.0000000000 21.0405948888 7088.3859000000
 7102.2002500000 2704.8870478371 21233.5671102025 17114.8726830822 0.2401432109 6736803.8305870565 0.1999633344 4745500.6141035082 1958044.2298319356 0.0006410795 5142.5446946561 5685.7725873418 7427.3411872476 3895.4448094042 0.9000000000 0.0424529159 938.0112453360 0.0000000000 1670.3278937292 0.8005649499 0.7240776821 20.0465491206 20.0465491206 20.0465491206 0.0052938333 108864.7390210986 0.0052905213 130684.9085342272 62694.0167957728 0.0000631918 0.1455765985 0.1457235640 0.0000000000 1812.7071360424 0.0000000000 0.0009034438 12.6532436967 0.0000000000 19.9941989523 7102.2002500000
 7117.6407500000 2772.7856862551 4732.8318551358 5106.3548334957 0.2539507912 7241119.8496275712 0.2307468852 5778349.1538842339 2335175.6939488836 0.0008058528 5239.6509676581 5817.1154025041 7444.8939050133 3914.5649020878 0.9000000000 0.0400763523 708.3943281368 0.0000000000 1738.7750501647 0.8172814008 0.7361499620 20.3780839207 20.3780839207 20.3780839207 0.0053816270 110664.5943903097 0.0052967538 117271.2212406455 55516.0821374390 0.0000815763 0.1350525070 0.1352731341 0.0000000000 1593.7844308673 0.0000000000 0.0009175990 12.9766157498 0.0000000000 20.3258064951 7117.6407500000
 7133.0812000000 2814.6732156277 4450.3313212664 4279.7378767523 0.2563985860 7483057.6322212797 0.2447596632 6476708.4930627365 2593737.3108923635 0.0008132831 5231.2625557183 5826.8583893649 7462.2733360254 3923.0570159473 0.9000000000 0.0406543335 646.5554262525 0.0000000000 1758.7801381141 0.8168781801 0.7333804858 20.0465591127 20.0465591127 20.0465591127 0.0052941018 108864.7582407753 0.0052569154 125947.8227528698 59118.4116724433 0.0000625810 0.1444089572 0.1445571031 0.0000000000 1797.2136104642 0.0000000000 0.0009030142 12.7022015420 0.0000000000 19.9942659518 7133.0812000000
 7148.5216500000 2804.9260274391 19809.7059824081 19792.8009608373 0.2677992918 7673094.9128583362 0.2565599442 6899916.0226011137 2740136.8935378748 0.0005690690 5295.5349252302 5900.7643935148 7479.7689570636 3931.5491302301 0.9000000000 0.0358986366 528.0950301044 0.0000000000 1804.0828743575 0.8254524057 0.7407874221 20.0468559577 20.0468559577 20.0468559577 0.0052939452 108865.3292298632 0.0052488901 113831.9304221752 56662.2689822133 0.0000617607 0.1430388087 0.1431883785 0.0000000000 1777.6904542246 0.0000000000 0.0009032858 12.6853913801 0.0000000000 19.9962560339 7148.5216500000
 7163.9621500000 2750.3393814258 4702.1923649978 5334.3920862486 0.2486770839 7157590.9377934840 0.2240812469 5697322.6631355947 2319789.2240284998 0.0007638534 5216.1852819701 5789.3992081255 7497.3148711713 3940.0412719102 0.9000000000 0.0421033948 816.8951565860 0.0000000000 1708.3561513344 0.8081281122 0.7281145786 20.0465542218 20.0465542218 20.0465542218 0.0052942214 108864.7488340931 0.0051463444 109131.1950626261 52600.5579363797 0.0000788462 0.1309621893 0.1311823580 0.0000000000 1543.5725682153 0.0000000000 0.0009029606 12.7665300207 0.0000000000 19.9942331276 7163.9621500000
 7179.4026500000 2804.4000262950 3981.1543180652 5023.1397513248 0.2655979260 7490435.4535101941 0.2466552365 6601014.6835311539 2641297.7134597860 0.0005529139 5277.2587327679 5869.1082688261 7514.7735688156 3948.5338289949 0.9000000000 0.0377284380 635.3724453620 0.0000000000 1781.6820044316 0.8174925624 0.7350554064 20.0465582026 20.0465582026 20.0465582026 0.0052945369 108864.7564913734 0.0051466887 115358.6777921713 55493.7465077430 0.0000804507 0.1330824365 0.1332990943 0.0000000000 1571.0883616067 0.0000000000 0.0009025323 12.7489965917 0.0000000000 19.9942598118 7179.4026500000
 7194.8431000000 2777.7985639890 4357.8560304736 3533.5147387642 0.2451368552 7088727.9889941104 0.2276223870 5949237.7400441421 2417985.2149708197 0.0004830887 5172.8901012506 5742.2032622507 7532.0727821617 3957.0266180833 0.9000000000 0.0448406983 846.6934121702 0.0000000000 1697.9771979050 0.7980998588 0.7189719122 20.0464892466 20.0464892466 20.0464892466 0.0052941752 108864.6238539170 0.0051880981 117839.0137881912 55911.5353389557 0.0000809181 0.1337125565 0.1339282045 0.0000000000 1579.1555761167 0.0000000000 0.0009026569 12.7510440040 0.0000000000 19.9937974869 7194.8431000000
 7210.2835500000 2841.2355933908 5344.3295765289 4431.3168678317 0.2775898749 7959751.3416459290 0.2583383648 7131377.0245437203 2824188.7224132600 0.0005659502 5397.2408986048 6020.2695792272 7549.4426425165 3965.5187314532 0.9000000000 0.0352997422 508.2049374409 0.0000000000 1824.7804586195 0.8349560094 0.7485476627 20.0466635786 20.0466635786 20.0466635786 0.0052939190 108864.9591832849 0.0052761391 109823.8077826573 57464.2839404303 0.0000616225 0.1428754239 0.1430251636 0.0000000000 1774.7643275197 0.0000000000 0.0009037244 12.6214649045 0.0000000000 19.9949663179 7210.2835500000
 7225.7240500000 2848.3617937526 18538.6685577632 21055.9320678544 0.2866422231 7865335.2267867588 0.2658710182 7091667.7368691824 2793407.0855649323 0.0007686290 5471.7578861242 6083.0649834281 7567.1880580290 3974.0108731333 0.9000000000 0.0321714241 454.0439560536 0.0000000000 1857.7184298128 0.8418623437 0.7572608431 20.0465016584 20.0465016584 20.0465016584 0.0052944637 108864.6477273599 0.0051031646 107640.2414070425 51412.9040689575 0.0000782687 0.1300912400 0.1303128727 0.0000000000 1532.9363323639 0.0000000000 0.0009026455 12.7845364115 0.0000000000 19.9938807271 7225.7240500000
 7241.1645500000 2737.8372858983 4486.9181840173 4071.2643029878 0.2394054350 6779042.8806110499 0.2190255565 5325984.8510434339 2177717.0613570488 0.0006237608 5222.7222262507 5769.6814930836 7584.5738115379 3982.5030148135 0.9000000000 0.0444117338 890.3126390167 0.0000000000 1676.9912847148 0.7967891702 0.7212544599 20.3778218575 20.3778218575 20.3778218575 0.0053815124 110664.0903135342 0.0053081986 116073.0150903676 54751.0785513888 0.0000811883 0.1345340665 0.1347555429 0.0000000000 1587.0602700652 0.0000000000 0.0009177869 12.9531660337 0.0000000000 20.3240493270 7241.1645500000
 7256.6050000000 2829.3122352489 6246.1110944101 5277.6531587288 0.2711227853 7501340.2695921874 0.2476961388 6392459.0414597336 2550300.2363762558 0.0007690588 5410.6578043110 6000.7927901997 7601.9817279961 3990.9951287103 0.9000000000 0.0375985431 598.8174713186 0.0000000000 1791.6993430608 0.8269421844 0.7456183442 20.0469839063 20.0469839063 20.0469839063 0.0052939264 108865.5753488754 0.0052437850 111484.8262494630 55537.2921631635 0.0000615572 0.1426754405 0.1428253923 0.0000000000 1772.7096072988 0.0000000000 0.0009034971 12.6979492015 0.0000000000 19.9971136133 7256.6050000000
