~Version ---------------------------------------------------
VERS.   2.0 : CWLS log ASCII Standard -VERSION 2.0
WRAP.    NO : One line per depth step
DLM . SPACE : Column Data Section Delimiter
~Well ------------------------------------------------------
STRT.ft                 5553.236 : START DEPTH
STOP.ft        7956.265999999999 : STOP DEPTH
STEP.ft        14.83744999999999 : STEP
NULL.                   -9999.25 : NULL VALUE
COMP.                            : COMPANY
WELL.                     bypass : WELL
FLD .                            : FIELD
LOC .                            : LOCATION
PROV.                            : PROVINCE
CNTY.                            : COUNTY
STAT.                            : STATE
CTRY.                            : COUNTRY
SRVC.                            : SERVICE COMPANY
DATE. 2019-07-30 20:43:21.016623 : DATE
UWI .                            : UNIQUE WELL ID
API .                            : API NUMBER
~Curve Information -----------------------------------------
Depth              .ft          : 
KICh               .psi*in^1/2  : 
KICvup             .psi*in^1/2  : 
KICvdown           .psi*in^1/2  : 
nuh                .            : 
Eh                 .psi         : 
nuv                .            : 
Ev                 .psi         : 
Gv                 .psi         : 
Cl                 .ft/min^1/2  : 
Sigma_h            .psi         : 
SigmaH             .psi         : 
SigmaV             .psi         : 
Pore Pressure      .psi         : 
Biot               .            : 
Porosity           .            : 
Permeability       .nD          : 
SoPhi              .            : 
TensileStrength    .psi         : 
Grad_SigmaH        .psi/ft      : 
Grad_Sigma_h       .psi/ft      : 
Std_KICh           .psi*in^1/2  : 
Std_KICvup         .psi*in^1/2  : 
Std_KICvdown       .psi*in^1/2  : 
Std_nuh            .            : 
Std_Eh             .psi         : 
Std_nuv            .            : 
Std_Ev             .psi         : 
Std_Gv             .psi         : 
Std_Cl             .ft/min^1/2  : 
Std_Sigma_h        .psi         : 
Std_SigmaH         .psi         : 
Std_SigmaV         .psi         : 
Std_Pore Pressure  .psi         : 
Std_Biot           .            : 
Std_Porosity       .            : 
Std_Permeability   .nD          : 
Std_SoPhi          .            : 
Std_TensileStrength.psi         : 
Std_Depth          .ft          : 
~Params ----------------------------------------------------
~Other -----------------------------------------------------
Exported from homogenization method
~ASCII -----------------------------------------------------
# ...
 6595.2518500000 2844.6847776480 3853.7088508809 3628.7701723623 0.2348087177 6002138.4629199887 0.2176154801 5065143.5479043322 2075892.7791740145 0.0002654299 4108.1101964662 4594.1885968559 6843.1455053107 2769.9007619490 0.9000000000 0.0533406542 1128.7291723095 0.0000000000 1635.4312714500 0.6965903200 0.6228890556 20.9565058568 20.9565058568 20.9565058568 0.0055710069 114286.1493878083 0.0052580593 109196.1282188803 51506.5563868209 0.0000957665 0.1393311882 0.1396504721 0.0000000000 1452.0798890108 0.0000000000 0.0009471123 13.3557827973 0.0000000000 20.1032687667 6595.2518500000
 6609.1291000000 2792.2932848361 3906.9630062546 3508.4377396261 0.2238263771 5875747.1507305671 0.1987631710 4464056.9608517643 1857419.4179373840 0.0008051280 4106.2801820719 4586.3929873556 6858.3454603789 2775.7294039267 0.9000000000 0.0560710153 1342.8605680304 0.0000000000 1567.7864485841 0.6939481614 0.6213042778 22.2184099371 22.2184099371 22.2184099371 0.0058962086 121026.0218574566 0.0053385534 103296.6761294604 49226.4846587027 0.0000966524 0.1415754844 0.1419279267 0.0000000000 1471.8774224802 0.0000000000 0.0010027509 14.2149160557 0.0000000000 21.5527716287 6609.1291000000
 6621.5873500000 2766.8497187169 3299.4034703471 3531.1670080553 0.2184553528 5923801.5177251538 0.1939802841 4366232.4289533757 1826125.8419262888 0.0007885957 4110.0243842747 4596.1974314806 6871.9686603380 2780.9618097975 0.9000000000 0.0572000650 1437.1467456225 0.0000000000 1539.7429347182 0.6941232047 0.6207007726 22.2026435900 22.2026435900 22.2026435900 0.0058958595 120995.7703749218 0.0054320327 106350.0778033074 50330.0455287356 0.0000977372 0.1429886378 0.1433373980 0.0000000000 1487.2002032725 0.0000000000 0.0010026624 14.1904908716 0.0000000000 21.4446517150 6621.5873500000
 6634.0456000000 2807.7742825266 3517.7206400734 3980.6133169085 0.2297154244 6589517.3480905639 0.2126964137 5300545.3772611534 2178215.0272721550 0.0006300899 4170.2315610062 4706.0886558489 6885.6126031260 2786.1942162592 0.9000000000 0.0528155209 1145.1068454109 0.0000000000 1617.4734688837 0.7093844299 0.6286106265 22.1497997423 22.1497997423 22.1497997423 0.0058952787 120894.5843027899 0.0057536436 123518.5369098370 63132.0601203806 0.0000697997 0.1389886405 0.1392170492 0.0000000000 1536.3224992138 0.0000000000 0.0010021712 14.1018933744 0.0000000000 21.0750718035 6634.0456000000
 6646.5038000000 2887.0866119313 4684.1216820049 3880.5800715294 0.2572552633 8176815.5111112902 0.2516471715 7824179.4535434525 3122962.5829951023 0.0005138553 4290.9404687173 4941.3108230622 6899.4003356871 2791.4266013549 0.9000000000 0.0451318332 702.5752458919 0.0000000000 1762.2680181099 0.7434451212 0.6455936230 22.5754937669 22.5754937669 22.5754937669 0.0060167560 123328.1211971121 0.0058971639 122980.6606501254 65188.1783699374 0.0000710983 0.1417495539 0.1419825292 0.0000000000 1566.0827370355 0.0000000000 0.0010223949 14.3518250071 0.0000000000 21.2903418737 6646.5038000000
 6658.9620500000 2952.7331072637 4426.6665029039 4001.6607584867 0.2742999485 8502583.0258705709 0.2650702627 8103455.8326910352 3197077.7576677264 0.0007034898 4454.1007644047 5121.3363737111 6913.3136231618 2796.6590076495 0.9000000000 0.0418040991 550.5462231408 0.0000000000 1835.7094411637 0.7690892868 0.6688881437 22.0691999620 22.0691999620 22.0691999620 0.0058949643 120740.4675182659 0.0058949643 120740.4675182658 66782.4471787274 0.0000702240 0.1400562576 0.1402821180 0.0000000000 1547.0382770593 0.0000000000 0.0010010897 14.0145813562 0.0000000000 20.5034981616 6658.9620500000
 6671.4203000000 2966.0205942111 3833.3971530615 4392.1476569474 0.2690292243 8524578.8165017795 0.2682865299 8513283.7838890720 3356396.6714336844 0.0007161591 4388.0076310969 5059.7477812311 6927.2396364264 2801.8914136874 0.9000000000 0.0435406626 542.8525427693 0.0000000000 1848.8189131903 0.7584213786 0.6577321520 22.0783087209 22.0783087209 22.0783087209 0.0058950264 120757.8605292803 0.0058950264 120757.8605292803 66836.3550451256 0.0000702674 0.1401367242 0.1403625456 0.0000000000 1547.9560695545 0.0000000000 0.0010011912 14.0200553218 0.0000000000 20.5689974688 6671.4203000000
 6683.8785000000 2959.2598639013 4264.2943869049 3454.6606011068 0.2732041670 8655986.9664652906 0.2726163033 8646915.5347443763 3397413.7151410012 0.0006130031 4439.6504728568 5119.5089897502 6941.1280721418 2807.1237987831 0.9000000000 0.0414773271 484.5728720789 0.0000000000 1863.7133299433 0.7659488409 0.6642326716 22.0705184943 22.0705184943 22.0705184943 0.0058949618 120742.9843947774 0.0058949618 120742.9843947773 66847.0177465949 0.0000702426 0.1400904916 0.1403163103 0.0000000000 1547.4284804584 0.0000000000 0.0010010989 14.0154097489 0.0000000000 20.5130120518 6683.8785000000
 6696.3367500000 2945.9934965079 4360.4904672776 5062.4002315212 0.2598428713 8147137.2749449313 0.2508951102 7817490.0814783555 3122035.6622037799 0.0007109552 4320.9075381716 4967.5863788701 6955.0431132138 2812.3562055016 0.9000000000 0.0472970057 728.2699408879 0.0000000000 1793.4642867349 0.7418364046 0.6452643736 22.1729308080 22.1729308080 22.1729308080 0.0058961323 120938.9143284370 0.0055410217 114493.9270323933 57698.5519471027 0.0001026756 0.1493157879 0.1496494035 0.0000000000 1556.5463217856 0.0000000000 0.0010020792 14.1321400489 0.0000000000 21.2354582659 6696.3367500000
 6708.7950000000 2802.6001710087 3748.8316907695 3527.2143207709 0.2224329560 6711235.4531029323 0.2020934340 5294340.4140785523 2201379.7070319406 0.0008596036 4153.3530120605 4702.3594356944 6968.6451249701 2817.5886111156 0.9000000000 0.0574762240 1370.0317077119 0.0000000000 1566.6683913512 0.7009245976 0.6190907625 22.1354075781 22.1354075781 22.1354075781 0.0058953503 120867.0636464709 0.0057238281 119222.4503236362 61639.5832482074 0.0000691381 0.1379069679 0.1381370141 0.0000000000 1523.4273293394 0.0000000000 0.0010018929 14.0860761856 0.0000000000 20.9730446859 6708.7950000000
 6721.2532500000 2923.5250808868 4540.9289492054 4239.7820148896 0.2647407389 8270370.8108812263 0.2607321227 8108055.5173887359 3214242.1899950076 0.0003221765 4382.6498562594 5036.5681303095 6982.3994157698 2822.8213147861 0.9000000000 0.0437937608 622.1712992999 0.0000000000 1801.1305568508 0.7493495548 0.6520584321 22.1294057795 22.1294057795 22.1294057795 0.0058952374 120855.5376743404 0.0058211112 127505.2771928430 65648.8251702530 0.0000705550 0.1402938307 0.1405199117 0.0000000000 1551.4695548513 0.0000000000 0.0010018707 14.0657471565 0.0000000000 20.9323128466 6721.2532500000
 6733.7115000000 2880.0633376477 4519.0147557247 4169.0433331210 0.2400715634 7612766.0649217991 0.2309381386 7000820.3925788859 2841825.2980970689 0.0007758306 4210.0146190711 4823.9119367373 6996.2125376505 2828.0541280442 0.9000000000 0.0525712441 1021.5448595759 0.0000000000 1677.9452393181 0.7163823304 0.6252145817 22.1261348162 22.1261348162 22.1261348162 0.0058954427 120849.2957669902 0.0058025094 127847.3121173360 66315.1125243662 0.0000706857 0.1404950508 0.1407207688 0.0000000000 1553.9460832970 0.0000000000 0.0010017360 14.0598169739 0.0000000000 20.9086582129 6733.7115000000
 6746.1697000000 2955.8164832670 21970.6819916870 24355.0703232733 0.2512692533 7828956.4053139649 0.2410537803 7429187.3622405063 2990807.4633533414 0.0009237698 4273.0021354361 4898.6833295319 7009.9616161864 2833.2865131399 0.9000000000 0.0510561426 967.6196511728 0.0000000000 1739.5957952914 0.7261429148 0.6333967756 22.1543805799 22.1543805799 22.1543805799 0.0058964976 120903.3662798339 0.0056387705 121131.4345819061 61375.9940300967 0.0001057545 0.1531964585 0.1535213924 0.0000000000 1599.3025313308 0.0000000000 0.0010017819 14.0850418022 0.0000000000 21.1067356031 6746.1697000000
 6758.6279500000 2845.0517632428 4024.4857823809 3444.8538869240 0.2255266138 7176887.6228485126 0.2057362405 5999277.4317874033 2482227.9849137771 0.0007893864 4145.4052494758 4731.0218768171 7023.4392355164 2838.5847067981 0.9000000000 0.0574441478 1321.7143641845 0.0000000000 1597.5091545220 0.6999973829 0.6133501178 22.1652777684 22.1652777684 22.1652777684 0.0058957346 120924.2468728033 0.0056026459 116719.2270113452 59736.5976082965 0.0000686032 0.1368730654 0.1371051452 0.0000000000 1512.0043469427 0.0000000000 0.0010022048 14.1185100054 0.0000000000 21.1824343450 6758.6279500000
