~Version ---------------------------------------------------
VERS.   2.0 : CWLS log ASCII Standard -VERSION 2.0
WRAP.    NO : One line per depth step
DLM . SPACE : Column Data Section Delimiter
~Well ------------------------------------------------------
STRT.ft               5337.35725 : START DEPTH
STOP.ft        7806.412649999999 : STOP DEPTH
STEP.ft       15.433500000000095 : STEP
NULL.                   -9999.25 : NULL VALUE
COMP.                            : COMPANY
WELL.                     bypass : WELL
FLD .                            : FIELD
LOC .                            : LOCATION
PROV.                            : PROVINCE
CNTY.                            : COUNTY
STAT.                            : STATE
CTRY.                            : COUNTRY
SRVC.                            : SERVICE COMPANY
DATE. 2019-07-30 20:43:33.131485 : DATE
UWI .                            : UNIQUE WELL ID
API .                            : API NUMBER
~Curve Information -----------------------------------------
Depth              .ft          : 
KICh               .psi*in^1/2  : 
KICvup             .psi*in^1/2  : 
KICvdown           .psi*in^1/2  : 
nuh                .            : 
Eh                 .psi         : 
nuv                .            : 
Ev                 .psi         : 
Gv                 .psi         : 
Cl                 .ft/min^1/2  : 
Sigma_h            .psi         : 
SigmaH             .psi         : 
SigmaV             .psi         : 
Pore Pressure      .psi         : 
Biot               .            : 
Porosity           .            : 
Permeability       .nD          : 
SoPhi              .            : 
TensileStrength    .psi         : 
Grad_SigmaH        .psi/ft      : 
Grad_Sigma_h       .psi/ft      : 
Std_KICh           .psi*in^1/2  : 
Std_KICvup         .psi*in^1/2  : 
Std_KICvdown       .psi*in^1/2  : 
Std_nuh            .            : 
Std_Eh             .psi         : 
Std_nuv            .            : 
Std_Ev             .psi         : 
Std_Gv             .psi         : 
Std_Cl             .ft/min^1/2  : 
Std_Sigma_h        .psi         : 
Std_SigmaH         .psi         : 
Std_SigmaV         .psi         : 
Std_Pore Pressure  .psi         : 
Std_Biot           .            : 
Std_Porosity       .            : 
Std_Permeability   .nD          : 
Std_SoPhi          .            : 
Std_TensileStrength.psi         : 
Std_Depth          .ft          : 
~Params ----------------------------------------------------
~Other -----------------------------------------------------
Exported from homogenization method
~ASCII -----------------------------------------------------
 5337.3572500000 2761.2692173512 3675.2102000574 4705.9977581957 0.2399932510 6501646.4915360063 0.2354659175 5578165.0942685129 2256912.3165545268 0.0004252438 3482.0853553183 4006.4145390752 5498.6779674162 2314.7031475637 0.9000000000 0.0412914139 644.9175475457 0.0000000000 1756.8604754641 0.7506363827 0.6523987794 19.9088089673 19.9088089673 19.9088089673 0.0052942570 108600.3986933499 0.0052839458 100297.4229264255 49010.1686132386 0.0000877688 0.1340197742 0.1342787472 0.0000000000 1438.8741497261 0.0000000000 0.0009001760 12.6791542030 0.0000000000 19.0511401072 5337.3572500000
 5352.7907500000 2762.7216993170 3631.4061041134 3295.1393662883 0.2227492352 6143273.8926054249 0.2177111170 5095549.8243466634 2090123.4380779171 0.0004523128 3390.4239787926 3892.8388416134 5515.8034099203 2321.3965322432 0.9000000000 0.0498252039 965.4182354957 0.0000000000 1668.4232328747 0.7272540668 0.6333937075 19.8906549935 19.8906549935 19.8906549935 0.0052939812 108565.6371806185 0.0052895529 108361.2506165508 53210.1288164000 0.0000908351 0.1377973541 0.1380490361 0.0000000000 1483.1293729877 0.0000000000 0.0009000660 12.6466764531 0.0000000000 18.9241955435 5352.7907500000
 5368.2242500000 2791.4969015535 4384.0768426219 4040.7355636412 0.2489928187 6953355.7598170470 0.2416614442 6274212.8186983047 2524999.5405771141 0.0004190213 3505.8760673676 4062.5931001570 5533.0309431169 2328.0907459083 0.9000000000 0.0408785983 610.3214216392 0.0000000000 1773.3611332188 0.7567852815 0.6530792873 19.8647121916 19.8647121916 19.8647121916 0.0052938078 108516.0131541684 0.0052944537 114712.1671540844 56894.5839707045 0.0000621349 0.1338423268 0.1340225995 0.0000000000 1597.5879401563 0.0000000000 0.0008998492 12.6092024330 0.0000000000 18.7409184673 5368.2242500000
 5383.6577500000 2822.8874053098 3691.4050198437 3430.0460076213 0.2576609094 7240030.7217828762 0.2561946782 6624497.3645991674 2636086.3155737361 0.0004186648 3602.1180079090 4177.7923146949 5550.4556971207 2334.7842359672 0.9000000000 0.0389573517 530.3923076519 0.0000000000 1793.4164553529 0.7760137269 0.6690837671 19.8656286350 19.8656286350 19.8656286350 0.0052937786 108517.7608703150 0.0052963692 114649.3174829694 56275.0952470925 0.0000620308 0.1336368199 0.1338173784 0.0000000000 1595.0532410658 0.0000000000 0.0008999261 12.6051586830 0.0000000000 18.7475887827 5383.6577500000
 5399.0912500000 2869.5577243347 3684.7153846070 4123.4304828903 0.2749332432 7549124.7264739210 0.2724399405 6919207.9170632605 2717795.0084657981 0.0004138115 3748.9502947238 4341.0695108877 5567.9784092744 2338.5410386320 0.9000000000 0.0356686171 443.8930738967 0.0000000000 1828.4976246575 0.8040370703 0.6943669075 19.8609322214 19.8609322214 19.8609322214 0.0052938074 108508.7923789432 0.0052943907 113262.6220869446 56094.0290392095 0.0000619208 0.1334680370 0.1336487811 0.0000000000 1592.7258377856 0.0000000000 0.0008998662 12.6045166795 0.0000000000 18.7138546964 5399.0912500000
 5414.5247500000 2884.0711376063 4775.3598082830 4326.3231221040 0.2940418161 7868059.2424289789 0.2874659474 7468426.7980559971 2898544.9437333988 0.0003949928 3845.5756600791 4453.5976841451 5585.5723726181 2327.0640313530 0.9000000000 0.0295749229 322.9169310892 0.0000000000 1895.4374275286 0.8225279022 0.7102332776 20.1655917652 20.1655917652 20.1655917652 0.0053812906 110257.2534637029 0.0053812906 112154.7749121574 56720.4840960545 0.0000626690 0.1352297837 0.1354139086 0.0000000000 1613.0399750991 0.0000000000 0.0009145125 12.7900328104 0.0000000000 18.8550565381 5414.5247500000
 5429.9582500000 2861.2846488585 3897.1915129972 4525.9839881037 0.2832493656 7450040.2299796361 0.2801859246 6990514.3692169460 2727891.4288284960 0.0004017637 3775.0894721149 4355.6500731704 5603.4195434316 2307.1504849406 0.9000000000 0.0313978856 339.1350642151 0.0000000000 1872.5343475857 0.8021516691 0.6952336092 19.8581039747 19.8581039747 19.8581039747 0.0052938207 108503.3859296567 0.0052806306 112016.0647704450 55244.0990851235 0.0000617084 0.1330755408 0.1332567917 0.0000000000 1587.7695715811 0.0000000000 0.0008997837 12.6040639193 0.0000000000 18.6937464389 5429.9582500000
 5445.3917500000 2914.8668323007 4499.0220272367 4088.3856599476 0.2965591471 7926240.9845488658 0.2874934866 7542333.4047907721 2925260.7554366393 0.0004006840 3849.2445339194 4460.5734503138 5621.0190472657 2292.4952640981 0.9000000000 0.0309134138 354.2138390682 0.0000000000 1887.2673052312 0.8191464738 0.7068811044 19.8337799950 19.8337799950 19.8337799950 0.0052937774 108456.8901198343 0.0052937774 111665.2303119163 57171.2763389459 0.0000619250 0.1335305576 0.1337109771 0.0000000000 1593.1793794756 0.0000000000 0.0008995602 12.5803482055 0.0000000000 18.5207257621 5445.3917500000
 5460.8252500000 2921.3530044185 3796.2154569322 3725.4579526924 0.3082798959 7995310.9094286216 0.3082260972 7989171.3819264639 3050824.2740729642 0.0003842924 3930.6109806783 4541.7425079839 5638.8661592094 2293.4437584617 0.9000000000 0.0258494031 215.9402681773 0.0000000000 1944.1974638139 0.8316952658 0.7197833296 19.8283120801 19.8283120801 19.8283120801 0.0052937997 108446.4456465346 0.0052941659 109901.6015296789 54755.4624833974 0.0000614385 0.1326222365 0.1328038406 0.0000000000 1581.7322508980 0.0000000000 0.0008994946 12.5782353623 0.0000000000 18.4815459655 5460.8252500000
 5476.2587500000 2929.9169648099 3598.9156146263 4781.4109489129 0.3036061267 7440677.5134758847 0.3011942880 7383254.6851757998 2836345.8521776046 0.0003927655 3882.0796911757 4452.8561980368 5656.7810796568 2299.9235717757 0.9000000000 0.0287918823 304.5697159408 0.0000000000 1923.2173264362 0.8131201248 0.7088926708 19.8525007337 19.8525007337 19.8525007337 0.0052940833 108492.6751177163 0.0052909711 110685.5739662590 55123.8624261738 0.0000616190 0.1329588355 0.1331401883 0.0000000000 1586.0161898862 0.0000000000 0.0008994647 12.6074494122 0.0000000000 18.6538871140 5476.2587500000
 5491.6922500000 2944.1410599675 6537.1097074190 5439.5673279950 0.2792018091 7103406.3424164951 0.2723561004 6923982.1462678974 2722197.7556549776 0.0004218863 3685.9759487593 4241.2758468370 5674.1598331094 2306.4060929148 0.9000000000 0.0400665991 590.0164585684 0.0000000000 1817.1418135351 0.7723076337 0.6711912797 19.8625180608 19.8625180608 19.8625180608 0.0052938241 108511.8294244379 0.0052738946 109142.6960574231 53482.2899894280 0.0000613048 0.1323707936 0.1325530476 0.0000000000 1578.6346351237 0.0000000000 0.0008998853 12.6074080912 0.0000000000 18.7249250999 5491.6922500000
 5507.1257500000 2861.0726276238 4681.7595634565 5246.0613134248 0.2699841010 7327229.0009329952 0.2642016139 6544695.6062543103 2585116.0840209974 0.0004267351 3757.7612089781 4334.7155972269 5691.6815578829 2312.8880425697 0.9000000000 0.0373969942 507.0973830843 0.0000000000 1804.7200241823 0.7871103356 0.6823452704 19.8456313673 19.8456313673 19.8456313673 0.0052937881 108479.5404368947 0.0052934845 113716.0849877637 57319.5188868002 0.0000620890 0.1337828950 0.1339630793 0.0000000000 1596.6700356752 0.0000000000 0.0008996642 12.5910883328 0.0000000000 18.6051683668 5507.1257500000
 5522.5592500000 2829.5541007868 4696.0280439545 5507.1403396890 0.2689366885 7511820.8299956536 0.2537683269 6696114.3051289646 2664733.9242139556 0.0004188885 3715.4596992275 4307.4372894630 5709.3323542298 2319.3699922247 0.9000000000 0.0367266005 535.5289857231 0.0000000000 1813.5660231868 0.7799712225 0.6727786034 20.2265681276 20.2265681276 20.2265681276 0.0053815925 110373.8694628652 0.0053653753 108598.0598748176 53051.0252164187 0.0000916291 0.1391617793 0.1394193787 0.0000000000 1497.1540139745 0.0000000000 0.0009150033 12.8687648770 0.0000000000 19.2866410245 5522.5592500000
 5537.9927500000 2844.6856791347 4550.4780108906 4378.8942936012 0.2507693455 6752924.9695490114 0.2424621879 5960814.6013628598 2397675.9632687061 0.0004482294 3606.0722789983 4145.9739797893 5726.5843712578 2325.8519418797 0.9000000000 0.0453175292 763.6263201072 0.0000000000 1727.8021739620 0.7486420021 0.6511514987 19.8686027497 19.8686027497 19.8686027497 0.0052938560 108523.4546684016 0.0052630478 117727.4850645622 56865.8370229934 0.0000622809 0.1339841046 0.1341642200 0.0000000000 1600.1317589898 0.0000000000 0.0008998427 12.6163626472 0.0000000000 18.7684233626 5537.9927500000
