~Version ---------------------------------------------------
VERS.   2.0 : CWLS log ASCII Standard -VERSION 2.0
WRAP.    NO : One line per depth step
DLM . SPACE : Column Data Section Delimiter
~Well ------------------------------------------------------
STRT.ft               6011.19455 : START DEPTH
STOP.ft                8162.3221 : STOP DEPTH
STEP.ft       14.389100000000326 : STEP
NULL.                   -9999.25 : NULL VALUE
COMP.                            : COMPANY
WELL.                     bypass : WELL
FLD .                            : FIELD
LOC .                            : LOCATION
PROV.                            : PROVINCE
CNTY.                            : COUNTY
STAT.                            : STATE
CTRY.                            : COUNTRY
SRVC.                            : SERVICE COMPANY
DATE. 2019-07-30 20:43:20.875901 : DATE
UWI .                            : UNIQUE WELL ID
API .                            : API NUMBER
~Curve Information -----------------------------------------
Depth              .ft          : 
KICh               .psi*in^1/2  : 
KICvup             .psi*in^1/2  : 
KICvdown           .psi*in^1/2  : 
nuh                .            : 
Eh                 .psi         : 
nuv                .            : 
Ev                 .psi         : 
Gv                 .psi         : 
Cl                 .ft/min^1/2  : 
Sigma_h            .psi         : 
SigmaH             .psi         : 
SigmaV             .psi         : 
Pore Pressure      .psi         : 
Biot               .            : 
Porosity           .            : 
Permeability       .nD          : 
SoPhi              .            : 
TensileStrength    .psi         : 
Grad_SigmaH        .psi/ft      : 
Grad_Sigma_h       .psi/ft      : 
Std_KICh           .psi*in^1/2  : 
Std_KICvup         .psi*in^1/2  : 
Std_KICvdown       .psi*in^1/2  : 
Std_nuh            .            : 
Std_Eh             .psi         : 
Std_nuv            .            : 
Std_Ev             .psi         : 
Std_Gv             .psi         : 
Std_Cl             .ft/min^1/2  : 
Std_Sigma_h        .psi         : 
Std_SigmaH         .psi         : 
Std_SigmaV         .psi         : 
Std_Pore Pressure  .psi         : 
Std_Biot           .            : 
Std_Porosity       .            : 
Std_Permeability   .nD          : 
Std_SoPhi          .            : 
Std_TensileStrength.psi         : 
Std_Depth          .ft          : 
~Params ----------------------------------------------------
~Other -----------------------------------------------------
Exported from homogenization method
~ASCII -----------------------------------------------------
# ...
 7290.6178500000 2864.0405560050 3418.2966704208 3512.8224763728 0.2796570535 7967665.8113721088 0.2793756126 7963494.3947139308 3112181.5253668027 0.0002345506 5465.5188956508 6088.1596093990 7770.8859675073 4009.7033252470 0.9000000000 0.0331147460 333.8406048012 0.0000000000 1883.7058059625 0.8350677178 0.7496647072 20.1717879921 20.1717879921 20.1717879921 0.0053812620 110269.0894421682 0.0053812620 112145.7409791064 58539.7629673908 0.0000610507 0.1508884913 0.1510246924 0.0000000000 1936.8548018718 0.0000000000 0.0009144465 12.7988571793 0.0000000000 18.8994429549 7290.6178500000
 7305.8288000000 2845.4764636199 3450.8569762447 3506.6823971003 0.2699270124 7596899.1078811549 0.2691401314 7490134.3312544664 2950215.5118354587 0.0002277869 5397.3209481569 5995.5363600516 7788.2063923491 4018.0677388074 0.9000000000 0.0360524973 420.9353734156 0.0000000000 1840.0547847614 0.8206510889 0.7387691521 19.8439100330 19.8439100330 19.8439100330 0.0052937654 108476.2509810527 0.0052937654 114202.0239759250 58722.9145109933 0.0000602925 0.1488672283 0.1490008266 0.0000000000 1911.5881601051 0.0000000000 0.0008995834 12.5920626279 0.0000000000 18.5928885109 7305.8288000000
 7321.0397500000 2879.1438800419 4091.2492896147 3952.3349220034 0.2829992792 8023866.1381747229 0.2821525924 8011479.7494401317 3123993.6482564802 0.0002152929 5518.7560872360 6144.1552023048 7805.5440409371 4026.4347780210 0.9000000000 0.0326655307 322.9316646643 0.0000000000 1894.0608791715 0.8392462563 0.7538213527 20.1664474127 20.1664474127 20.1664474127 0.0053812630 110258.8839565525 0.0053812630 111453.3187220265 58407.9663476022 0.0000610028 0.1507959183 0.1509321662 0.0000000000 1935.5437737922 0.0000000000 0.0009143472 12.7963079138 0.0000000000 18.8613372697 7321.0397500000
 7336.2507000000 2839.9466930052 3264.4153729823 3342.1847076335 0.2738926982 7790022.6468232926 0.2735682713 7756752.8597994503 3045188.3767903801 0.0002189908 5447.9683866166 6059.4816371529 7822.8839279786 4034.8003796595 0.9000000000 0.0340291616 369.6643529288 0.0000000000 1860.5397081397 0.8259643631 0.7426093531 20.1727132056 20.1727132056 20.1727132056 0.0053812604 110270.8574401599 0.0053812604 114795.9526047359 59500.9506990056 0.0000612282 0.1512231475 0.1513590539 0.0000000000 1941.6218003802 0.0000000000 0.0009144814 12.7984280680 0.0000000000 18.9060448953 7336.2507000000
 7351.4616500000 2878.0474684177 4471.4856237674 3737.9852623488 0.2837001492 8126800.7024037829 0.2830553499 8117473.2371779736 3163303.3675429504 0.0003950349 5551.7726701249 6184.8489151870 7840.2357712393 4043.1660066137 0.9000000000 0.0322645645 309.1154175664 0.0000000000 1902.2015903591 0.8413087369 0.7551930398 19.8212520789 19.8212520789 19.8212520789 0.0052937531 108432.9623307016 0.0052937531 108432.9623307077 57930.0282905398 0.0000599776 0.1482951371 0.1484290948 0.0000000000 1903.2605472990 0.0000000000 0.0008992472 12.5793788014 0.0000000000 18.4308705698 7351.4616500000
 7366.6726000000 2891.4391438146 3891.6858658437 4106.2490547736 0.2889628220 8320459.0033866996 0.2885293505 8313996.0523912199 3226091.9681021529 0.0003943134 5618.8998290880 6264.4156547710 7857.6880980448 4051.5330205115 0.9000000000 0.0308816400 274.5149883966 0.0000000000 1923.5992340866 0.8503724809 0.7627459688 20.1571274225 20.1571274225 20.1571274225 0.0053812609 110241.0797813902 0.0053812609 110241.0797813965 58752.4608862854 0.0000609758 0.1507633055 0.1508995189 0.0000000000 1934.9432031161 0.0000000000 0.0009142370 12.7905380439 0.0000000000 18.7946207124 7366.6726000000
 7381.8835500000 2872.8940595514 3756.0391322831 3264.0654196012 0.2822109735 8145447.0256982408 0.2818801385 8140468.3880571388 3175123.0967464694 0.0003941166 5562.3568861559 6197.6226258753 7875.0801808965 4059.8974340769 0.9000000000 0.0323944993 313.3205841437 0.0000000000 1898.1144972749 0.8395719851 0.7535145805 19.8327124938 19.8327124938 19.8327124938 0.0052937694 108454.8496007708 0.0052937694 108454.8496007770 57656.0767186554 0.0000599822 0.1483084315 0.1484424556 0.0000000000 1903.4364415994 0.0000000000 0.0008993704 12.5861029278 0.0000000000 18.5131322821 7381.8835500000
 7397.0945000000 2881.1778939129 3799.5898798237 4289.4806064000 0.2749784993 7933906.7051484352 0.2742883633 7923850.8877773061 3109002.4257392795 0.0002207498 5500.1204782417 6122.3981644456 7892.4141712750 4068.2654624942 0.9000000000 0.0356427301 377.8965310461 0.0000000000 1875.4095865161 0.8276760780 0.7435514685 20.1616525193 20.1616525193 20.1616525193 0.0053812721 110249.7229778946 0.0053812721 110249.7229779008 58530.3348792058 0.0000609696 0.1507509207 0.1508871761 0.0000000000 1934.7821345592 0.0000000000 0.0009142336 12.7952632424 0.0000000000 18.8270588839 7397.0945000000
 7412.3545500000 2856.9826104780 3127.8736126683 3219.5844061994 0.2755915082 7948850.9416962033 0.2744865167 7842854.9901494924 3075543.9364170558 0.0001638154 5534.6560376824 6157.8062304035 7909.7325542898 4076.6565049546 0.9000000000 0.0341683967 359.2793615786 0.0000000000 1873.7235276030 0.8307490135 0.7466798843 19.8983391250 19.8983391250 19.8983391250 0.0052938627 108580.4477547401 0.0051246819 99075.8039363460 49801.7123230616 0.0000838525 0.1260215812 0.1262347685 0.0000000000 1539.2383503965 0.0000000000 0.0009003787 12.6954599583 0.0000000000 18.9744545626 7412.3545500000
 7427.6636500000 2724.9214210074 4567.0788113696 3904.5349243551 0.2442571843 6836256.0860753963 0.2281097280 5215454.0031279707 2120225.9781526183 0.0004352366 5535.8603595855 6085.2850422351 7927.1001156468 4085.0784664023 0.9000000000 0.0407857540 770.3474713935 0.0000000000 1694.7991753932 0.8192731024 0.7453030482 20.1897841125 20.1897841125 20.1897841125 0.0053812627 110303.5079500467 0.0053684060 110641.2551231687 55333.8555997237 0.0000607428 0.1502202006 0.1503571314 0.0000000000 1927.9644329429 0.0000000000 0.0009148138 12.8118713608 0.0000000000 19.0267590726 7427.6636500000
 7442.9727500000 2867.7927811257 3780.8619889388 4311.4266151760 0.2848763636 7900802.2550732410 0.2840979921 7707780.1332758162 3000290.6901025712 0.0003343002 5664.0150065662 6278.9225944719 7944.5624407031 4093.4973256103 0.9000000000 0.0310896127 309.8969649620 0.0000000000 1887.5049625314 0.8436041358 0.7609882767 19.8535804511 19.8535804511 19.8535804511 0.0052938659 108494.7653180288 0.0052528808 108824.7008627954 55523.1031052949 0.0000598370 0.1479407822 0.1480752808 0.0000000000 1898.9050435764 0.0000000000 0.0008998134 12.6044687549 0.0000000000 18.6605948868 7442.9727500000
 7458.2818500000 2797.0441456055 5425.6501613642 6402.4701521264 0.2779553637 7576604.3445426114 0.2294267321 5733456.8420867687 2305726.2022788795 0.0002085911 5713.0316964500 6305.9009436730 7962.1606788380 4101.9171638111 0.9000000000 0.0335064429 672.8643129302 0.0000000000 1782.9821301577 0.8454897616 0.7659983641 19.9617264827 19.9617264827 19.9617264827 0.0052942352 108701.9003446622 0.0048498727 85139.2253545772 41552.0420359465 0.0000794175 0.1202539722 0.1204780364 0.0000000000 1464.7373518443 0.0000000000 0.0009011841 12.8771662431 0.0000000000 19.4151032582 7458.2818500000
 7473.5909500000 2627.1729165300 4699.3865383043 3490.9994752437 0.2136782580 5985075.9238926088 0.1910072134 3910046.9648037930 1640989.3498805438 0.0004805652 5424.8138606612 5917.9491610933 7979.4101901874 4110.3381462659 0.9000000000 0.0486190846 1285.4753544206 0.0000000000 1547.4943573296 0.7918481491 0.7258644334 20.2731704330 20.2731704330 20.2731704330 0.0053813582 110463.1829199006 0.0051172631 90091.7828528919 43423.7136762743 0.0000816260 0.1235681363 0.1237932781 0.0000000000 1505.0228675120 0.0000000000 0.0009160897 12.9995633844 0.0000000000 19.6098023342 7473.5909500000
 7488.9000000000 2694.8281933928 3495.5715038585 3983.5964169209 0.2403335081 6742691.8954815771 0.2268623199 4939750.9408776285 2010289.2062526296 0.0004465010 5627.5212605956 6171.1405252068 7996.7050195415 4118.7568138023 0.9000000000 0.0397046206 750.2628559894 0.0000000000 1685.9981505276 0.8240383134 0.7514483116 19.9483993222 19.9483993222 19.9483993222 0.0052937986 108676.2580259791 0.0050247385 85989.6786159616 41273.2429422269 0.0000795263 0.1206202115 0.1208434663 0.0000000000 1468.0003477156 0.0000000000 0.0009013361 12.7660709150 0.0000000000 19.3261998272 7488.9000000000
