~Version ---------------------------------------------------
VERS.   2.0 : CWLS log ASCII Standard -VERSION 2.0
WRAP.    NO : One line per depth step
DLM . SPACE : Column Data Section Delimiter
~Well ------------------------------------------------------
STRT.ft                 5553.236 : START DEPTH
STOP.ft        7956.265999999999 : STOP DEPTH
STEP.ft        14.83744999999999 : STEP
NULL.                   -9999.25 : NULL VALUE
COMP.                            : COMPANY
WELL.                     bypass : WELL
FLD .                            : FIELD
LOC .                            : LOCATION
PROV.                            : PROVINCE
CNTY.                            : COUNTY
STAT.                            : STATE
CTRY.                            : COUNTRY
SRVC.                            : SERVICE COMPANY
DATE. 2019-07-30 20:43:21.016623 : DATE
UWI .                            : UNIQUE WELL ID
API .                            : API NUMBER
~Curve Information -----------------------------------------
Depth              .ft          : 
KICh               .psi*in^1/2  : 
KICvup             .psi*in^1/2  : 
KICvdown           .psi*in^1/2  : 
nuh                .            : 
Eh                 .psi         : 
nuv                .            : 
Ev                 .psi         : 
Gv                 .psi         : 
Cl                 .ft/min^1/2  : 
Sigma_h            .psi         : 
SigmaH             .psi         : 
SigmaV             .psi         : 
Pore Pressure      .psi         : 
Biot               .            : 
Porosity           .            : 
Permeability       .nD          : 
SoPhi              .            : 
TensileStrength    .psi         : 
Grad_SigmaH        .psi/ft      : 
Grad_Sigma_h       .psi/ft      : 
Std_KICh           .psi*in^1/2  : 
Std_KICvup         .psi*in^1/2  : 
Std_KICvdown       .psi*in^1/2  : 
Std_nuh            .            : 
Std_Eh             .psi         : 
Std_nuv            .            : 
Std_Ev             .psi         : 
Std_Gv             .psi         : 
Std_Cl             .ft/min^1/2  : 
Std_Sigma_h        .psi         : 
Std_SigmaH         .psi         : 
Std_SigmaV         .psi         : 
Std_Pore Pressure  .psi         : 
Std_Biot           .            : 
Std_Porosity       .            : 
Std_Permeability   .nD          : 
Std_SoPhi          .            : 
Std_TensileStrength.psi         : 
Std_Depth          .ft          : 
~Params ----------------------------------------------------
~Other -----------------------------------------------------
Exported from homogenization method
~ASCII -----------------------------------------------------
# ...
 6184.8941500000 2912.9044892409 3720.2067836275 3320.8544936444 0.2176858867 4794300.1026908858 0.2054029047 4531062.9967839001 1878227.0348157391 0.0002633426 3574.8151437634 3968.5373799319 6396.1066406296 2597.5502919272 0.9000000000 0.0656554380 1605.4855463606 0.0000000000 1576.2515589377 0.6416500079 0.5779913216 20.9463054135 20.9463054135 20.9463054135 0.0055718035 114266.6020647627 0.0052826304 115620.8033403176 53119.1738408759 0.0000976395 0.1414345140 0.1417489034 0.0000000000 1476.3304474803 0.0000000000 0.0009466300 13.3138030274 0.0000000000 20.0324838234 6184.8941500000
 6198.9525000000 2890.2948543447 3442.8222825919 3733.0388671870 0.2223830500 5005283.4428874394 0.2062302588 4417495.2870748667 1830332.7541142399 0.0006459720 3682.6295369446 4092.0988471392 6411.1579733820 2603.4546966938 0.9000000000 0.0629732399 1516.1120368425 0.0000000000 1572.3288851556 0.6601274727 0.5940728755 20.5797947692 20.5797947692 20.5797947692 0.0054750280 112274.9872253530 0.0051679139 114184.3691231205 52379.4819166119 0.0000960777 0.1390769089 0.1393855708 0.0000000000 1452.0891902654 0.0000000000 0.0009300959 13.0732976004 0.0000000000 19.6689264152 6198.9525000000
 6213.0108500000 2932.8434593725 4249.9170192863 3919.6918131923 0.2356590326 5431363.5133632896 0.2220222109 5087086.7896349328 2078601.1039795522 0.0002570961 3748.6616997997 4188.2136611573 6426.2305549348 2609.3597001771 0.9000000000 0.0582503687 1254.0118656395 0.0000000000 1642.2456859638 0.6741037095 0.6033566962 20.9352442313 20.9352442313 20.9352442313 0.0055710397 114245.4300624922 0.0053569334 114041.7641021180 53485.6506481753 0.0000976315 0.1416763391 0.1419900694 0.0000000000 1477.8994964447 0.0000000000 0.0009467594 13.3194455601 0.0000000000 19.9548415415 6213.0108500000
 6227.2758500000 2897.0848986647 4455.0565301307 3749.7306325797 0.2288316668 5503735.7660198901 0.2126682935 4838548.7088142997 1993402.5702476955 0.0006026103 3769.0492024090 4216.9328234530 6441.7042567973 2615.3506728995 0.9000000000 0.0596913912 1370.3872368800 0.0000000000 1600.9075363410 0.6771713547 0.6052484735 20.5700615985 20.5700615985 20.5700615985 0.0054744752 112256.3663296082 0.0052245093 114178.4321859757 54438.6373980237 0.0000971595 0.1406632571 0.1409683346 0.0000000000 1468.6456686373 0.0000000000 0.0009301809 13.0729555768 0.0000000000 19.6002790718 6227.2758500000
 6241.7475000000 2905.3975422824 3626.1920570679 4113.5549963103 0.2386253584 6255628.4986542184 0.2201101543 5542750.5996234091 2265903.2421172964 0.0006742096 3854.7015393093 4359.7475934943 6457.4332115177 2621.4289842174 0.9000000000 0.0556150907 1172.6149456840 0.0000000000 1643.9903625926 0.6984818904 0.6175676827 20.5891107326 20.5891107326 20.5891107326 0.0054746319 112292.8348172970 0.0051266279 110457.5450212521 51815.6949395431 0.0000951299 0.1380040245 0.1383152155 0.0000000000 1439.7871709260 0.0000000000 0.0009303867 13.0968199204 0.0000000000 19.7337409081 6241.7475000000
 6256.2191500000 2889.7334185321 4191.1538443816 3453.7393098079 0.2225032634 5334952.4504589885 0.2003528987 4446945.5420896960 1850734.9844067250 0.0006444809 3759.7276999898 4196.1234635074 6473.0714041921 2627.5072229938 0.9000000000 0.0632572854 1559.3104030671 0.0000000000 1550.0421426982 0.6707123524 0.6009584399 20.6053225251 20.6053225251 20.6053225251 0.0054753876 112323.8912364079 0.0049897957 104988.4385391708 48892.3498638637 0.0000926122 0.1347461960 0.1350650915 0.0000000000 1404.2822008154 0.0000000000 0.0009304037 13.0953155115 0.0000000000 19.8466209260 6256.2191500000
 6270.6908500000 2852.7021419246 3654.6943984084 4064.7459845122 0.2216832851 5738212.3147545997 0.2025070749 4752431.3118751999 1974988.5260792959 0.0007009396 3797.8192934833 4267.5165042824 6488.6358123142 2633.5853137503 0.9000000000 0.0607355233 1465.4288254962 0.0000000000 1563.7841511922 0.6805496565 0.6056460738 20.5973684346 20.5973684346 20.5973684346 0.0054746773 112308.6501729777 0.0051177589 108676.7101803492 51272.8135493628 0.0000945895 0.1373882533 0.1377009446 0.0000000000 1432.7310420981 0.0000000000 0.0009304805 13.1171759750 0.0000000000 19.7913665274 6270.6908500000
 6285.1625000000 2862.6423846033 3230.4329511026 3485.0939002310 0.2243005203 5807400.5943138301 0.2046671989 4858325.9265841516 2014326.4841710499 0.0006163979 3814.9854185465 4289.3297889038 6504.2633492075 2639.6633839382 0.9000000000 0.0605299219 1443.8887503659 0.0000000000 1571.4407494320 0.6824532840 0.6069827818 20.6158127436 20.6158127436 20.6158127436 0.0054745644 112344.0033181456 0.0050448918 100643.3938572161 47824.6149419753 0.0000915651 0.1337394769 0.1340609351 0.0000000000 1391.8444176135 0.0000000000 0.0009308197 13.1553308984 0.0000000000 19.9190998025 6285.1625000000
 6299.6341500000 2784.0483369988 4152.3789237666 3861.2219211312 0.2172185645 6506516.4224339649 0.1987686943 5120170.6311013736 2130256.4176499583 0.0007042709 3864.9890960240 4399.5287926736 6519.9637779572 2645.7414531810 0.9000000000 0.0573409131 1381.9828243143 0.0000000000 1567.5075521025 0.6983784594 0.6135259610 20.6025659136 20.6025659136 20.6025659136 0.0054745122 112318.6194810544 0.0051154003 110076.3232074589 53635.9753197559 0.0000960273 0.1392529799 0.1395615664 0.0000000000 1453.1202275257 0.0000000000 0.0009306207 13.1340084791 0.0000000000 19.8271195276 6299.6341500000
 6314.1058500000 2884.7422424014 5659.6583392738 4826.0414126817 0.2539743595 7808750.7795070047 0.2306297676 6854488.3685500659 2773734.6309532872 0.0006226939 4059.9908641976 4682.7109956014 6535.7418314009 2651.8195439375 0.9000000000 0.0481011407 911.9603387850 0.0000000000 1714.5246064829 0.7416269392 0.6430032946 20.5567800978 20.5567800978 20.5567800978 0.0054738885 112231.0090398629 0.0052830544 111086.5857154771 57385.9021282240 0.0000642274 0.1280488696 0.1282624940 0.0000000000 1414.8061830317 0.0000000000 0.0009302689 13.0737019257 0.0000000000 19.5047129321 6314.1058500000
 6328.5775000000 2833.5933571640 3817.3385218400 4048.9832184061 0.2324160489 6686403.9678704292 0.2165490526 5671473.1031618062 2325731.4645820158 0.0006308039 3939.9165663358 4482.4609428128 6551.7697065094 2657.8976138782 0.9000000000 0.0537585304 1139.2160494911 0.0000000000 1631.6133603762 0.7082888600 0.6225595825 20.5852640721 20.5852640721 20.5852640721 0.0054739766 112285.4674562517 0.0052747320 113760.2660015024 54827.0676893308 0.0000639954 0.1275057906 0.1277206162 0.0000000000 1409.1622997518 0.0000000000 0.0009305913 13.1132348178 0.0000000000 19.7069050183 6328.5775000000
 6343.0491500000 2828.9717071464 3785.7774379307 3675.1148707417 0.2318030403 6627909.8133133510 0.2210131012 5793831.1770610772 2372026.6744406233 0.0006534727 3932.4163693395 4470.4820824989 6567.6530205964 2663.9756833682 0.9000000000 0.0535217731 1108.0291251656 0.0000000000 1639.7301349565 0.7047843989 0.6199567868 20.5798240915 20.5798240915 20.5798240915 0.0054738964 112275.0441984167 0.0052621524 112612.1819650630 53607.3635724596 0.0000636475 0.1268951189 0.1271109224 0.0000000000 1402.0825304474 0.0000000000 0.0009305633 13.1015934587 0.0000000000 19.6691023547 6343.0491500000
 6357.5208500000 2936.7297413145 3792.2660273004 5682.0501454714 0.2250955738 5768576.2841210775 0.1882597120 4498047.3904279303 1880602.1080724732 0.0006192819 3842.2374169108 4313.1048665678 6583.5011202448 2670.0537741247 0.9000000000 0.0615502316 1330.0460706341 0.0000000000 1559.0905961578 0.6784255952 0.6043609620 20.9940197201 20.9940197201 20.9940197201 0.0055763006 114358.0750217166 0.0049260267 103385.7243742614 48640.6232847391 0.0000930272 0.1354725675 0.1358012840 0.0000000000 1411.4529374388 0.0000000000 0.0009465918 13.4267311359 0.0000000000 20.3623855571 6357.5208500000
 6371.9925000000 2960.4745459275 6765.9290000192 4684.0359247085 0.2329417706 5931638.4151768042 0.1836725132 4469099.3319968246 1873126.1069559257 0.0006685861 3886.4918625333 4367.5882579069 6598.7888305805 2676.1318438182 0.9000000000 0.0621664166 1458.6327000410 0.0000000000 1547.1055169086 0.6854352478 0.6099335275 20.5745394130 20.5745394130 20.5745394130 0.0054738459 112264.9704546460 0.0052173950 113871.8793596849 54743.6490735559 0.0000638835 0.1272166895 0.1274318952 0.0000000000 1406.2722907772 0.0000000000 0.0009305363 13.0933937923 0.0000000000 19.6305472253 6371.9925000000
