~Version ---------------------------------------------------
VERS.   2.0 : CWLS log ASCII Standard -VERSION 2.0
WRAP.    NO : One line per depth step
DLM . SPACE : Column Data Section Delimiter
~Well ------------------------------------------------------
STRT.ft                 5533.575 : START DEPTH
STOP.ft        7763.808250000001 : STOP DEPTH
STEP.ft       14.590000000000146 : STEP
NULL.                   -9999.25 : NULL VALUE
COMP.                            : COMPANY
WELL.                     bypass : WELL
FLD .                            : FIELD
LOC .                            : LOCATION
PROV.                            : PROVINCE
CNTY.                            : COUNTY
STAT.                            : STATE
CTRY.                            : COUNTRY
SRVC.                            : SERVICE COMPANY
DATE. 2019-07-30 20:43:20.008820 : DATE
UWI .                            : UNIQUE WELL ID
API .                            : API NUMBER
~Curve Information -----------------------------------------
Depth              .ft          : 
KICh               .psi*in^1/2  : 
KICvup             .psi*in^1/2  : 
KICvdown           .psi*in^1/2  : 
nuh                .            : 
Eh                 .psi         : 
nuv                .            : 
Ev                 .psi         : 
Gv                 .psi         : 
Cl                 .ft/min^1/2  : 
Sigma_h            .psi         : 
SigmaH             .psi         : 
SigmaV             .psi         : 
Pore Pressure      .psi         : 
Biot               .            : 
Porosity           .            : 
Permeability       .nD          : 
SoPhi              .            : 
TensileStrength    .psi         : 
Grad_SigmaH        .psi/ft      : 
Grad_Sigma_h       .psi/ft      : 
Std_KICh           .psi*in^1/2  : 
Std_KICvup         .psi*in^1/2  : 
Std_KICvdown       .psi*in^1/2  : 
Std_nuh            .            : 
Std_Eh             .psi         : 
Std_nuv            .            : 
Std_Ev             .psi         : 
Std_Gv             .psi         : 
Std_Cl             .ft/min^1/2  : 
Std_Sigma_h        .psi         : 
Std_SigmaH         .psi         : 
Std_SigmaV         .psi         : 
Std_Pore Pressure  .psi         : 
Std_Biot           .            : 
Std_Porosity       .            : 
Std_Permeability   .nD          : 
Std_SoPhi          .            : 
Std_TensileStrength.psi         : 
Std_Depth          .ft          : 
~Params ----------------------------------------------------
~Other -----------------------------------------------------
Exported from homogenization method
~ASCII -----------------------------------------------------
 5533.5750000000 2736.0941922625 3688.3222304895 3819.5543944575 0.2180933398 5860362.2811817098 0.2115669573 5017179.1231994247 2066703.3382749725 0.0004770295 3369.0271048514 3850.1365641606 5708.8294981236 2323.9963056888 0.9000000000 0.0505506517 1010.5097631519 0.0000000000 1662.4044635022 0.6957774249 0.6088337295 20.5858283948 20.5858283948 20.5858283948 0.0054738160 112286.5416728554 0.0054738123 107506.2200796033 52219.3911992909 0.0000857950 0.1367792291 0.1370242841 0.0000000000 1507.9989819492 0.0000000000 0.0009306839 13.1151476769 0.0000000000 19.7110756424 5533.5750000000
 5548.1650000000 2749.1013634733 3277.1187346551 3648.9225055837 0.2111710297 5549822.4425034802 0.2096409461 4877408.8625588175 2015241.7736723840 0.0004844611 3316.7768891305 3774.9964391785 5724.9202193619 2330.1238725154 0.9000000000 0.0543047358 1144.4558869912 0.0000000000 1633.9611191000 0.6804045012 0.5978151135 20.5870735007 20.5870735007 20.5870735007 0.0054743600 112288.9255389850 0.0054649113 111808.3105501929 53302.1994547532 0.0000867634 0.1379077393 0.1381507894 0.0000000000 1522.1798866609 0.0000000000 0.0009304331 13.1081979057 0.0000000000 19.7197920526 5548.1650000000
 5562.7550000000 2742.3569818950 3475.7598798706 3247.0023113075 0.2126880679 5631902.2169396440 0.2111730346 4801688.4341496034 1981945.7898289454 0.0004872659 3372.7068854184 3837.1216319827 5740.8239855797 2336.2521590130 0.9000000000 0.0529734605 1103.3887785738 0.0000000000 1637.4952824811 0.6897879975 0.6063015332 20.5908814361 20.5908814361 20.5908814361 0.0054739195 112296.2181773771 0.0054607665 105204.9089553242 50808.9449377779 0.0000849644 0.1356775884 0.1359246838 0.0000000000 1494.9121936656 0.0000000000 0.0009307130 13.1223632363 0.0000000000 19.7463792429 5562.7550000000
 5577.3450000000 2727.1988210663 3881.8146952382 3872.9035665490 0.2128011589 5742024.2870223299 0.2087962088 4786572.2479820298 1978227.5006190287 0.0004859096 3397.1590360492 3870.6104542744 5756.8684745169 2342.3803015764 0.9000000000 0.0517363078 1073.0603078193 0.0000000000 1641.2929062319 0.6939879915 0.6090996766 20.5815126674 20.5815126674 20.5815126674 0.0054736900 112278.2814436375 0.0054687585 107988.0109814921 52342.4555587523 0.0000858768 0.1368583801 0.1371032488 0.0000000000 1509.0851359340 0.0000000000 0.0009307066 13.1069899920 0.0000000000 19.6807687192 5577.3450000000
 5591.9350000000 2759.0720073474 3368.6320920186 3727.9856827358 0.2253476234 5978887.4406119538 0.2227893898 5267959.4726345204 2152924.9842882087 0.0004763807 3450.0661255332 3938.0001065692 5773.0195393582 2348.5078684030 0.9000000000 0.0490782962 923.6429019261 0.0000000000 1680.6908499866 0.7042285196 0.6169717862 20.2348467997 20.2348467997 20.2348467997 0.0053817892 110389.7127448741 0.0053783404 108361.7292945472 52280.9659627468 0.0000850349 0.1353055335 0.1355449475 0.0000000000 1492.8513045890 0.0000000000 0.0009149891 12.8856567433 0.0000000000 19.3448447996 5591.9350000000
 5606.5250000000 2716.1011471262 3524.0350579348 3335.0834767574 0.2112128618 5713012.6096765110 0.2103761257 4794955.8747008229 1980323.4818493796 0.0004881293 3411.7262793951 3883.4032892776 5789.1231419918 2354.6354352296 0.9000000000 0.0518404098 1069.8090278184 0.0000000000 1637.9215050567 0.6926578031 0.6085277921 20.5889313669 20.5889313669 20.5889313669 0.0054736477 112292.4843957056 0.0054736477 104018.8020318529 50973.9955900271 0.0000848881 0.1356666976 0.1359137993 0.0000000000 1494.3340707108 0.0000000000 0.0009308486 13.1197531122 0.0000000000 19.7327343430 5606.5250000000
 5621.1150000000 2683.8259232113 3145.4014456108 3483.1753239380 0.2103991423 5970214.5291632563 0.2087770930 4790025.6792453025 1980738.1360255503 0.0004864357 3469.0722702756 3962.3157236494 5805.2792932215 2360.7630020562 0.9000000000 0.0492956964 992.2356517339 0.0000000000 1647.6030931786 0.7048985341 0.6171502042 20.5999709642 20.5999709642 20.5999709642 0.0054736995 112313.6299378682 0.0054736995 99000.1365518736 48997.8275084241 0.0000835798 0.1340583482 0.1343085348 0.0000000000 1474.6038654196 0.0000000000 0.0009309761 13.1447144464 0.0000000000 19.8096912655 5621.1150000000
 5635.7050000000 2711.3849837443 3259.3019662242 3542.4320639894 0.2146263113 5973989.0769743649 0.2102923335 4898714.4862621473 2022361.1517848645 0.0004860104 3469.9121727102 3961.7497874112 5821.4549242398 2366.8905688828 0.9000000000 0.0500431612 1012.7169886955 0.0000000000 1649.7536258038 0.7029732371 0.6157015267 20.5814800703 20.5814800703 20.5814800703 0.0054738327 112278.2308081135 0.0054622344 111079.9787140100 53562.9707513470 0.0000867469 0.1379302873 0.1381732516 0.0000000000 1522.2394924865 0.0000000000 0.0009306150 13.1107693911 0.0000000000 19.6801215068 5635.7050000000
 5650.2950000000 2737.5225586818 3048.4434805423 2933.2699722025 0.2124883941 5687406.1963932011 0.2091585277 4898482.5325782998 2023637.9323557585 0.0004884551 3403.8106261452 3872.8795446006 5837.5242613035 2373.0194311172 0.9000000000 0.0532820551 1112.7223099309 0.0000000000 1635.4918244966 0.6854296182 0.6024129052 20.5896807555 20.5896807555 20.5896807555 0.0054738862 112293.9228676456 0.0054643349 107105.5333700646 51742.8108619951 0.0000855664 0.1364505102 0.1366961960 0.0000000000 1504.2255472829 0.0000000000 0.0009307038 13.1246347918 0.0000000000 19.7378498601 5650.2950000000
 5664.8850000000 2697.9383734412 3778.6453074816 3593.2646680230 0.2154469842 6140970.8189400015 0.2103119597 4980021.3877858166 2054186.8766085284 0.0004811735 3507.1771780995 4012.4210018614 5853.5865393721 2379.1469979438 0.9000000000 0.0480165071 943.5147633903 0.0000000000 1664.7860362536 0.7082969914 0.6191082746 20.5850453542 20.5850453542 20.5850453542 0.0054734994 112285.0516186587 0.0054734994 103931.9471072348 51429.4957351090 0.0000850308 0.1358838312 0.1361304993 0.0000000000 1496.7806276208 0.0000000000 0.0009309262 13.1108074950 0.0000000000 19.7052664717 5664.8850000000
 5679.4750000000 2737.8166912548 3286.1350849492 3611.4377793135 0.2238250389 6051443.8961391309 0.2219120683 5177221.3434396470 2117854.3983952319 0.0004791548 3533.5348713787 4028.0045630354 5869.8647553034 2385.2745647704 0.9000000000 0.0477178428 884.4324357283 0.0000000000 1682.5143992497 0.7092212860 0.6221587156 20.2323649083 20.2323649083 20.2323649083 0.0053816978 110384.9596514413 0.0053772206 109233.8650990032 52487.3761498597 0.0000852185 0.1355161551 0.1357551727 0.0000000000 1495.5160233459 0.0000000000 0.0009149883 12.8830283463 0.0000000000 19.3275159756 5679.4750000000
 5694.0650000000 2718.7828825506 3328.1512877339 3070.1706760967 0.2149470288 5776775.0933306366 0.2136464647 4840014.5024984526 1993560.3007719119 0.0004914532 3495.2277614300 3970.7032312625 5886.0168464293 2391.4021315970 0.9000000000 0.0510176391 1039.3869432529 0.0000000000 1642.1908089682 0.6973406927 0.6138369972 20.5843088621 20.5843088621 20.5843088621 0.0054736382 112283.6408976664 0.0054701057 106508.7603967327 51418.0139047190 0.0000853491 0.1361764850 0.1364226112 0.0000000000 1500.8874398071 0.0000000000 0.0009307977 13.1130776572 0.0000000000 19.7001338096 5694.0650000000
 5708.6550000000 2731.5253221920 3247.5205106336 3867.8908972548 0.2283883225 6234292.9974667961 0.2226608171 5213986.3239348065 2129381.6626761155 0.0004788613 3599.9446205373 4107.4627142304 5902.2158632115 2397.5296984236 0.9000000000 0.0460837668 852.9510987705 0.0000000000 1689.4851016741 0.7195149671 0.6306116976 20.5932335689 20.5932335689 20.5932335689 0.0054736122 112300.7311335528 0.0054673016 102187.2152683969 50072.8808786334 0.0000843315 0.1349517885 0.1352002474 0.0000000000 1485.7298726045 0.0000000000 0.0009309480 13.1304531499 0.0000000000 19.7625057074 5708.6550000000
 5723.2450000000 2644.3330215267 3103.1488145710 3349.2789301390 0.2061201580 6161338.4676310634 0.2050959148 4799848.4777598400 1990749.2766519659 0.0004860228 3541.2054835250 4052.0450069822 5918.4614462646 2403.6578409870 0.9000000000 0.0477175894 957.8139359605 0.0000000000 1647.9053713463 0.7079978241 0.6187408513 20.5955688493 20.5955688493 20.5955688493 0.0054734906 112305.1979135565 0.0054734906 100568.1265354784 50475.0594985158 0.0000842996 0.1350224029 0.1352707627 0.0000000000 1486.0213143406 0.0000000000 0.0009310934 13.1286185295 0.0000000000 19.7790081541 5723.2450000000
