~Version ---------------------------------------------------
VERS.   2.0 : CWLS log ASCII Standard -VERSION 2.0
WRAP.    NO : One line per depth step
DLM . SPACE : Column Data Section Delimiter
~Well ------------------------------------------------------
STRT.ft               6185.69585 : START DEPTH
STOP.ft        7989.874549999998 : STOP DEPTH
STEP.ft       13.981649999999718 : STEP
NULL.                   -9999.25 : NULL VALUE
COMP.                            : COMPANY
WELL.                     bypass : WELL
FLD .                            : FIELD
LOC .                            : LOCATION
PROV.                            : PROVINCE
CNTY.                            : COUNTY
STAT.                            : STATE
CTRY.                            : COUNTRY
SRVC.                            : SERVICE COMPANY
DATE. 2019-07-30 20:43:31.349442 : DATE
UWI .                            : UNIQUE WELL ID
API .                            : API NUMBER
~Curve Information -----------------------------------------
Depth              .ft          : 
KICh               .psi*in^1/2  : 
KICvup             .psi*in^1/2  : 
KICvdown           .psi*in^1/2  : 
nuh                .            : 
Eh                 .psi         : 
nuv                .            : 
Ev                 .psi         : 
Gv                 .psi         : 
Cl                 .ft/min^1/2  : 
Sigma_h            .psi         : 
SigmaH             .psi         : 
SigmaV             .psi         : 
Pore Pressure      .psi         : 
Biot               .            : 
Porosity           .            : 
Permeability       .nD          : 
SoPhi              .            : 
TensileStrength    .psi         : 
Grad_SigmaH        .psi/ft      : 
Grad_Sigma_h       .psi/ft      : 
Std_KICh           .psi*in^1/2  : 
Std_KICvup         .psi*in^1/2  : 
Std_KICvdown       .psi*in^1/2  : 
Std_nuh            .            : 
Std_Eh             .psi         : 
Std_nuv            .            : 
Std_Ev             .psi         : 
Std_Gv             .psi         : 
Std_Cl             .ft/min^1/2  : 
Std_Sigma_h        .psi         : 
Std_SigmaH         .psi         : 
Std_SigmaV         .psi         : 
Std_Pore Pressure  .psi         : 
Std_Biot           .            : 
Std_Porosity       .            : 
Std_Permeability   .nD          : 
Std_SoPhi          .            : 
Std_TensileStrength.psi         : 
Std_Depth          .ft          : 
~Params ----------------------------------------------------
~Other -----------------------------------------------------
Exported from homogenization method
~ASCII -----------------------------------------------------
# ...
 6584.2944000000 2661.2579897469 4092.1080949203 3504.7592065520 0.2123120148 6316203.0319621889 0.1998302479 4901904.5616633035 2041076.8056364318 0.0002651957 4042.6744211872 4563.6791588066 6812.7722762007 2765.2984748641 0.9000000000 0.0505964618 1171.9993780262 0.0000000000 1593.0898096452 0.6931159030 0.6139874944 21.3805868728 21.3805868728 21.3805868728 0.0056729838 116459.0866604988 0.0054051218 102722.0162077282 50100.0398651963 0.0000775599 0.1348980079 0.1351335733 0.0000000000 1467.1605283222 0.0000000000 0.0009652861 13.7242969788 0.0000000000 20.7456574146 6584.2944000000
 6597.7512000000 2567.3449117965 3110.5491440492 3125.8826098270 0.1904855125 6029605.1337703178 0.1753734909 4168084.4516275246 1772838.5824501275 0.0007880779 3971.2203319125 4477.7031971513 6827.6611700902 2770.9505125798 0.9000000000 0.0547509586 1519.0919729657 0.0000000000 1499.6772582555 0.6786711201 0.6019051358 21.8213469009 21.8213469009 21.8213469009 0.0057811788 118741.7556314464 0.0054198554 94390.7442967740 46518.1311885849 0.0001175400 0.1535362055 0.1537941952 0.0000000000 1632.5022726851 0.0000000000 0.0009841052 14.1117273600 0.0000000000 21.3713326926 6597.7512000000
 6610.5335500000 2608.7144102667 4183.2490276443 3542.7241978583 0.2034250145 6426861.2532095024 0.1901912440 4659453.1873670621 1956690.8709234663 0.0007251964 4065.3995396984 4599.4470437484 6841.7617452312 2776.3187797971 0.9000000000 0.0510908969 1278.6657070999 0.0000000000 1557.6339365943 0.6957754634 0.6149881109 22.2050378403 22.2050378403 22.2050378403 0.0058953265 121000.3568058892 0.0056636707 110658.3169014762 54306.2113055615 0.0000815924 0.1416374720 0.1418796317 0.0000000000 1541.5241646851 0.0000000000 0.0010030590 14.2138404112 0.0000000000 21.4613330596 6610.5335500000
 6623.3159000000 2632.9066264678 3595.2160191500 4451.0865344339 0.2072797144 6883546.6952270996 0.1901061919 5054194.5146031454 2121732.8278037552 0.0007780561 4074.1452200325 4644.3152156823 6855.9723896323 2781.6881491739 0.9000000000 0.0518863572 1300.0976093231 0.0000000000 1558.2672126082 0.7012069613 0.6151216825 21.8193120010 21.8193120010 21.8193120010 0.0057815642 118737.8539315363 0.0053366434 98699.4130318542 49101.7201710308 0.0001198226 0.1557172376 0.1559715828 0.0000000000 1658.9850781898 0.0000000000 0.0009838522 14.0713532459 0.0000000000 21.3572843010 6623.3159000000
 6636.0982500000 2572.3508970834 3402.7084769612 4087.4880963017 0.1843769087 6535947.0383963287 0.1650344337 4580450.2100973763 1965553.9744466310 0.0007420574 3892.3783261135 4444.2252078491 6869.9938641008 2787.0553536531 0.9000000000 0.0597049019 1725.2545337491 0.0000000000 1455.5753817235 0.6697045523 0.5865462173 22.2617257580 22.2617257580 22.2617257580 0.0058965885 121109.1157888394 0.0053811279 100759.3314868772 50380.5716333948 0.0001222978 0.1587751519 0.1590346765 0.0000000000 1692.2446828638 0.0000000000 0.0010032432 14.3349302154 0.0000000000 21.8504645963 6636.0982500000
 6648.8806000000 2627.7253950297 3407.7944919602 3217.8828778024 0.1974140151 6900723.8481984874 0.1835110466 5241568.0193469608 2214179.9601575090 0.0006644476 3970.6436032361 4546.9458479856 6883.9187009281 2792.4257857679 0.9000000000 0.0564578192 1469.9249231607 0.0000000000 1522.3208139416 0.6838663711 0.5971897891 21.7905952984 21.7905952984 21.7905952984 0.0057813881 118682.7489329198 0.0054471113 108525.3894471741 53818.4750185349 0.0000801002 0.1388641449 0.1391018057 0.0000000000 1512.1823430926 0.0000000000 0.0009834969 13.9605469082 0.0000000000 21.1605186908 6648.8806000000
 6661.6629500000 2631.3634985116 3422.6372998170 4323.6549566440 0.1989984208 6655554.9389399635 0.1787362805 4825188.5975149600 2045979.7077776594 0.0007395951 4003.9508519762 4559.0437381503 6897.9346024298 2797.7928163163 0.9000000000 0.0569120488 1527.2219627266 0.0000000000 1505.9113951099 0.6843702199 0.6010437457 22.2409460817 22.2409460817 22.2409460817 0.0058960779 121069.2362167520 0.0054781794 105091.5477630523 52281.7047570157 0.0001246132 0.1614117572 0.1616668318 0.0000000000 1721.8055804288 0.0000000000 0.0010031948 14.2921418482 0.0000000000 21.7082411284 6661.6629500000
 6674.4453000000 2670.3728371758 3205.5156696787 2770.0436814900 0.2162179063 7595462.2759874379 0.2078088416 6215994.3849960165 2571286.9320410569 0.0006152884 4117.1024114018 4741.6173307197 6911.9792035739 2803.1625335618 0.9000000000 0.0494387901 1070.4319297080 0.0000000000 1618.9550752641 0.7104136925 0.6168456293 21.7523601527 21.7523601527 21.7523601527 0.0057807798 118609.4712216961 0.0056796071 122993.3731904504 61608.0021467068 0.0000840570 0.1447825335 0.1450101132 0.0000000000 1580.3045779582 0.0000000000 0.0009832463 13.8848113054 0.0000000000 20.8953910136 6674.4453000000
 6687.2276500000 2718.3177746184 5315.5613359593 4715.6176215517 0.2391163258 7811374.7089105463 0.2238738230 6557242.2910588440 2672599.3058005520 0.0004503326 4267.5555457480 4897.9543667507 6926.1965030597 2808.5304531266 0.9000000000 0.0430410420 816.9621738854 0.0000000000 1700.6816217213 0.7324342198 0.6381651365 21.7093644614 21.7093644614 21.7093644614 0.0057805154 118527.1964278088 0.0057403101 118463.4495768299 62252.5376615119 0.0000614684 0.1636594068 0.1638070502 0.0000000000 1951.8981966997 0.0000000000 0.0009830567 13.7967835129 0.0000000000 20.5927538065 6687.2276500000
 6700.0100000000 2774.3655377377 4407.5216612018 5247.6446488321 0.2616419121 8505408.2794612348 0.2603905551 7825115.7554629575 3101979.4786776863 0.0006779957 4461.1330450902 5135.2869549942 6940.7499325919 2813.8991072099 0.9000000000 0.0349915238 479.5446754083 0.0000000000 1807.0141799627 0.7664595956 0.6658397592 22.1546207105 22.1546207105 22.1546207105 0.0058949544 120903.7895350199 0.0058680315 125162.3312833118 64618.0389385536 0.0000629562 0.1674706078 0.1676207737 0.0000000000 1997.9866578533 0.0000000000 0.0010026903 14.0812053158 0.0000000000 21.1097276532 6700.0100000000
 6712.7923500000 2736.4662899263 3502.8320249637 4302.4847605159 0.2464466331 8084078.7511160709 0.2393786645 6910435.7931635566 2784064.7557056784 0.0006942230 4391.2055418667 5039.7755276578 6955.2795521580 2819.2680899369 0.9000000000 0.0396954202 656.0816759967 0.0000000000 1736.0393986712 0.7507718495 0.6541548305 21.7072069583 21.7072069583 21.7072069583 0.0057805157 118523.0486751479 0.0057450323 124010.6646065812 64740.4923594810 0.0000618495 0.1644579391 0.1646048508 0.0000000000 1962.3193949811 0.0000000000 0.0009827803 13.7999819202 0.0000000000 20.5782690917 6712.7923500000
 6725.5747000000 2788.3726039834 3576.4026990229 4067.4034043550 0.2442735395 8275872.3915198259 0.2391587182 7619932.4965896448 3072983.1867428361 0.0006573168 4278.8640622704 4943.9808656804 6969.6753658207 2824.6356808581 0.9000000000 0.0444213400 743.5992326521 0.0000000000 1729.4796608022 0.7351016212 0.6362079455 22.1597179600 22.1597179600 22.1597179600 0.0058951817 120913.5317547375 0.0058463880 132070.2226165392 67395.6180784450 0.0000878647 0.1508026138 0.1510296171 0.0000000000 1648.2080711106 0.0000000000 0.0010024051 14.1036886776 0.0000000000 21.1460227943 6725.5747000000
 6738.3570500000 2717.0041342419 4435.5460896007 3800.9333461946 0.2262488398 7800006.6830028389 0.2158319850 6561187.2113955766 2695709.6272333995 0.0010106035 4204.3009356638 4840.3877093881 6983.9112219443 2830.0057267471 0.9000000000 0.0484122346 989.1819739336 0.0000000000 1647.2612341942 0.7183335156 0.6239356129 21.7962437854 21.7962437854 21.7962437854 0.0057811625 118693.6079126215 0.0054323840 106867.7557274727 53338.6457300054 0.0000798450 0.1385261684 0.1387644784 0.0000000000 1508.1176018279 0.0000000000 0.0009836874 14.0200620836 0.0000000000 21.1985426707 6738.3570500000
 6751.1394000000 2618.1004170853 4044.5535799899 2947.5097686343 0.2050003399 7249377.3664939879 0.1882217238 5326383.1602343004 2238363.1475588395 0.0006968565 4139.7065809182 4741.3144914319 6998.0460178126 2835.3727572287 0.9000000000 0.0517982973 1308.8940722640 0.0000000000 1552.9594126837 0.7022984137 0.6131863580 22.1737933232 22.1737933232 22.1737933232 0.0058952660 120940.5420200756 0.0057556223 123026.7914443823 63347.3398006826 0.0000855572 0.1474670378 0.1476993133 0.0000000000 1609.2390113429 0.0000000000 0.0010026116 14.1581047530 0.0000000000 21.2423718304 6751.1394000000
