~Version ---------------------------------------------------
VERS.   2.0 : CWLS log ASCII Standard -VERSION 2.0
WRAP.    NO : One line per depth step
DLM . SPACE : Column Data Section Delimiter
~Well ------------------------------------------------------
STRT.ft               5337.35725 : START DEPTH
STOP.ft        7806.412649999999 : STOP DEPTH
STEP.ft       15.433500000000095 : STEP
NULL.                   -9999.25 : NULL VALUE
COMP.                            : COMPANY
WELL.                     bypass : WELL
FLD .                            : FIELD
LOC .                            : LOCATION
PROV.                            : PROVINCE
CNTY.                            : COUNTY
STAT.                            : STATE
CTRY.                            : COUNTRY
SRVC.                            : SERVICE COMPANY
DATE. 2019-07-30 20:43:33.131485 : DATE
UWI .                            : UNIQUE WELL ID
API .                            : API NUMBER
~Curve Information -----------------------------------------
Depth              .ft          : 
KICh               .psi*in^1/2  : 
KICvup             .psi*in^1/2  : 
KICvdown           .psi*in^1/2  : 
nuh                .            : 
Eh                 .psi         : 
nuv                .            : 
Ev                 .psi         : 
Gv                 .psi         : 
Cl                 .ft/min^1/2  : 
Sigma_h            .psi         : 
SigmaH             .psi         : 
SigmaV             .psi         : 
Pore Pressure      .psi         : 
Biot               .            : 
Porosity           .            : 
Permeability       .nD          : 
SoPhi              .            : 
TensileStrength    .psi         : 
Grad_SigmaH        .psi/ft      : 
Grad_Sigma_h       .psi/ft      : 
Std_KICh           .psi*in^1/2  : 
Std_KICvup         .psi*in^1/2  : 
Std_KICvdown       .psi*in^1/2  : 
Std_nuh            .            : 
Std_Eh             .psi         : 
Std_nuv            .            : 
Std_Ev             .psi         : 
Std_Gv             .psi         : 
Std_Cl             .ft/min^1/2  : 
Std_Sigma_h        .psi         : 
Std_SigmaH         .psi         : 
Std_SigmaV         .psi         : 
Std_Pore Pressure  .psi         : 
Std_Biot           .            : 
Std_Porosity       .            : 
Std_Permeability   .nD          : 
Std_SoPhi          .            : 
Std_TensileStrength.psi         : 
Std_Depth          .ft          : 
~Params ----------------------------------------------------
~Other -----------------------------------------------------
Exported from homogenization method
~ASCII -----------------------------------------------------
# ...
 5757.6747000000 2705.5732962841 2983.5044801722 3107.6325032978 0.2056152933 5909397.0906209080 0.1999026344 4653241.1873135827 1937458.9256873438 0.0004828337 3514.5576455401 4004.7137611214 5966.9254363295 2418.1188548203 0.9000000000 0.0540703585 1224.6697622877 0.0000000000 1594.9107212415 0.6955435953 0.6104126802 20.5911204968 20.5911204968 20.5911204968 0.0054741074 112296.6842309396 0.0053796080 108683.0279649691 52296.3647550763 0.0000921195 0.1400003144 0.1402654031 0.0000000000 1505.8025876413 0.0000000000 0.0009306513 13.1155249638 0.0000000000 19.7477564453 5757.6747000000
 5772.0803000000 2785.8496215251 4497.3254036203 4137.0450391390 0.2258985140 6037008.7425287049 0.2164365005 5059696.9355315156 2079355.8871607275 0.0004762291 3593.5175273458 4085.9733606381 5982.7264796915 2424.1689470067 0.9000000000 0.0526071601 1110.1049257682 0.0000000000 1635.1214968705 0.7078857445 0.6225688730 20.9770314256 20.9770314256 20.9770314256 0.0055714759 114325.4655902482 0.0053296482 102245.4896103355 48512.9867974045 0.0000902624 0.1378702985 0.1381493280 0.0000000000 1480.0957874714 0.0000000000 0.0009472302 13.3735720939 0.0000000000 20.2463272298 5772.0803000000
 5786.4859500000 2703.1058759463 3922.8837020671 3678.6370192783 0.1977212892 5455441.0493822535 0.1889583747 4259154.0995552978 1791146.4562762203 0.0004949284 3449.2815738908 3904.7665935516 5998.4354674056 2430.2190603719 0.9000000000 0.0591729471 1470.0297876580 0.0000000000 1542.2988393774 0.6748079279 0.5960926206 20.6074876690 20.6074876690 20.6074876690 0.0054741488 112328.0352728128 0.0053257336 101876.5913207292 48690.5263758240 0.0000894867 0.1366602116 0.1369319657 0.0000000000 1467.1887742334 0.0000000000 0.0009308348 13.1564447742 0.0000000000 19.8618235974 5786.4859500000
 5800.8916000000 2717.6894964459 3986.3805217079 3663.1143154219 0.2080783919 5830264.5618576491 0.1992549808 4612960.7589403400 1922553.5275898159 0.0004882503 3534.7311329164 4017.3376095412 6014.1635123011 2436.2691736547 0.9000000000 0.0553581008 1278.6878136353 0.0000000000 1584.2709323532 0.6925379556 0.6093427315 20.6063727845 20.6063727845 20.6063727845 0.0054740468 112325.9045477786 0.0053968844 104273.2292619674 51370.6529127954 0.0000911422 0.1389726115 0.1392398423 0.0000000000 1492.9203527820 0.0000000000 0.0009308863 13.1541641584 0.0000000000 19.8538890493 5800.8916000000
 5815.2972000000 2707.5165633395 4619.8862901746 3855.7529959281 0.2114951042 6382336.5856589414 0.2106382772 5518429.3275292479 2278577.7727749888 0.0004632892 3523.2988637198 4050.1137524774 6029.9775770589 2442.3192658411 0.9000000000 0.0518908737 1076.8519094613 0.0000000000 1636.6997786165 0.6964586010 0.6058673775 20.5825654924 20.5825654924 20.5825654924 0.0054738084 112280.2988352459 0.0054319936 111084.5338203197 53843.1500499504 0.0000932483 0.1415240322 0.1417861803 0.0000000000 1522.9701154315 0.0000000000 0.0009306866 13.1055097745 0.0000000000 19.6880798669 5815.2972000000
 5829.7584000000 2775.0769754848 4226.6847425833 5057.3442995576 0.2209730980 5737680.4330727113 0.2083752438 4807447.3274085484 1986680.6389524608 0.0004769787 3563.4125958263 4033.3394469938 6045.9654990072 2448.3936454315 0.9000000000 0.0537339545 1176.8577902817 0.0000000000 1622.8637222807 0.6918536190 0.6112453298 20.6093058490 20.6093058490 20.6093058490 0.0054745924 112331.5181828592 0.0052512593 102676.6983332736 48215.5000928475 0.0000892709 0.1361578784 0.1364306411 0.0000000000 1462.4957863823 0.0000000000 0.0009306765 13.1410630031 0.0000000000 19.8744867249 5829.7584000000
 5844.2752000000 2749.3234377821 3562.3305534632 2987.1612785781 0.2109749832 5403615.6105722943 0.2016683477 4398970.5879192315 1829903.8041490566 0.0002809451 3537.9879862626 3984.2082373344 6061.7454711708 2454.4906932657 0.9000000000 0.0565201455 1307.5858166312 0.0000000000 1583.4039108000 0.6817283754 0.6053766918 20.6042448376 20.6042448376 20.6042448376 0.0054741432 112321.8189222028 0.0052811943 102023.5856548374 48001.1437997022 0.0000891169 0.1360406320 0.1363135815 0.0000000000 1460.7485043137 0.0000000000 0.0009307908 13.1475865078 0.0000000000 19.8393901955 5844.2752000000
 5858.7920500000 2738.9395844704 3885.5372844846 3965.1077509726 0.2153946800 5619669.0117881335 0.2057558768 4462776.3836951395 1850422.5629979211 0.0005409301 3617.1786872667 4079.5526884329 6077.6279877248 2460.5877626766 0.9000000000 0.0537299765 1205.2475151801 0.0000000000 1600.1250778580 0.6963129351 0.6173932538 20.6061936342 20.6061936342 20.6061936342 0.0054739707 112325.5577099849 0.0053459540 100403.0612210530 47740.6260237904 0.0000888913 0.1359572638 0.1362304099 0.0000000000 1458.7847195157 0.0000000000 0.0009309242 13.1561525135 0.0000000000 19.8527656824 5858.7920500000
 5873.3089000000 2726.6145757442 3842.4669016268 4092.9907301901 0.2063561205 5467635.5234779874 0.1981405705 4447154.6662761979 1855832.3224564225 0.0002575036 3526.8114975562 3980.0471077066 6093.5644856933 2466.6848308856 0.9000000000 0.0570051621 1340.9852550494 0.0000000000 1575.4533089714 0.6776498862 0.6004811866 20.6009421917 20.6009421917 20.6009421917 0.0054743879 112315.4933402410 0.0053063110 105897.4260689334 50116.5076423469 0.0000906399 0.1379668799 0.1382359783 0.0000000000 1483.0514343809 0.0000000000 0.0009306585 13.1267566548 0.0000000000 19.8163539207 5873.3089000000
 5887.8257000000 2717.2699298336 3827.5093988862 4426.9484937248 0.2081325772 5868834.4611732792 0.2039979105 4939539.1762040956 2050806.9897215439 0.0005245040 3541.9318640685 4027.7092176388 6109.4139741788 2472.7818787198 0.9000000000 0.0548558256 1226.7638510100 0.0000000000 1602.2244678334 0.6840741256 0.6015687360 20.6040589556 20.6040589556 20.6040589556 0.0054741782 112321.4639143333 0.0053910031 106615.1554547077 51549.0021149588 0.0000915533 0.1393715283 0.1396379638 0.0000000000 1498.1044536363 0.0000000000 0.0009307795 13.1444802322 0.0000000000 19.8380583959 5887.8257000000
 5902.3425000000 2742.5469238886 3586.0508960962 3474.1719548887 0.2163677871 5837495.1835752809 0.2079872921 4801588.4640977066 1986922.9274281624 0.0002501639 3620.1258115867 4100.0378287826 6125.2925977512 2478.8789265541 0.9000000000 0.0536772120 1178.4354488986 0.0000000000 1610.5598763132 0.6946458679 0.6133371304 20.6097521637 20.6097521637 20.6097521637 0.0054741673 112332.3806950952 0.0052500004 100170.7382885924 47327.0221429587 0.0000885275 0.1352831894 0.1355577315 0.0000000000 1452.0598609134 0.0000000000 0.0009308722 13.1595911333 0.0000000000 19.8773339459 5902.3425000000
 5916.8593000000 2739.7663774197 3150.6936570877 3198.1900261885 0.2112642069 5438839.8401410729 0.2008154565 4387294.9360551219 1826155.3320900670 0.0005527191 3589.1880213988 4038.2097797630 6141.1891304691 2484.9759743883 0.9000000000 0.0561872958 1305.7344396059 0.0000000000 1580.9529541711 0.6824921086 0.6066035779 20.6028511835 20.6028511835 20.6028511835 0.0054742901 112319.1487818331 0.0053148321 105322.3498436046 49658.0949919596 0.0000903815 0.1376571603 0.1379268892 0.0000000000 1479.3746155124 0.0000000000 0.0009307015 13.1399707865 0.0000000000 19.8296993393 5916.8593000000
 5931.3761000000 2760.7576502152 4553.1271439822 4037.3680186665 0.2212815414 5843040.5949334800 0.2107019293 4862679.0016488647 2006850.2178096997 0.0002476909 3650.8963164985 4129.3315009366 6157.0471043252 2491.0730222225 0.9000000000 0.0527580001 1136.4156772156 0.0000000000 1624.9110138756 0.6961843982 0.6155226468 20.5829062024 20.5829062024 20.5829062024 0.0054736360 112280.9479030242 0.0053707747 107897.3963087338 51548.7630732818 0.0000916122 0.1393174478 0.1395837495 0.0000000000 1498.0812574316 0.0000000000 0.0009307820 13.1066063004 0.0000000000 19.6905822858 5931.3761000000
 5945.8929500000 2751.4785588989 3831.0220513459 4148.2737311745 0.2234484570 6077222.4291180959 0.2133954792 4883845.7525962014 2012043.2239928509 0.0006227157 3732.7436992609 4229.4726292181 6173.1280898001 2497.1700913418 0.9000000000 0.0511456032 1084.7234549110 0.0000000000 1627.1401502141 0.7113267368 0.6277852176 20.6141809385 20.6141809385 20.6141809385 0.0054741929 112340.8673782062 0.0052103708 97960.2639409290 46748.1265259275 0.0000879057 0.1344891817 0.1347653956 0.0000000000 1442.9348938810 0.0000000000 0.0009309677 13.1599581194 0.0000000000 19.9080804154 5945.8929500000
