~Version ---------------------------------------------------
VERS.   2.0 : CWLS log ASCII Standard -VERSION 2.0
WRAP.    NO : One line per depth step
DLM . SPACE : Column Data Section Delimiter
~Well ------------------------------------------------------
STRT.ft               6185.69585 : START DEPTH
STOP.ft        7989.874549999998 : STOP DEPTH
STEP.ft       13.981649999999718 : STEP
NULL.                   -9999.25 : NULL VALUE
COMP.                            : COMPANY
WELL.                     bypass : WELL
FLD .                            : FIELD
LOC .                            : LOCATION
PROV.                            : PROVINCE
CNTY.                            : COUNTY
STAT.                            : STATE
CTRY.                            : COUNTRY
SRVC.                            : SERVICE COMPANY
DATE. 2019-07-30 20:43:31.349442 : DATE
UWI .                            : UNIQUE WELL ID
API .                            : API NUMBER
~Curve Information -----------------------------------------
Depth              .ft          : 
KICh               .psi*in^1/2  : 
KICvup             .psi*in^1/2  : 
KICvdown           .psi*in^1/2  : 
nuh                .            : 
Eh                 .psi         : 
nuv                .            : 
Ev                 .psi         : 
Gv                 .psi         : 
Cl                 .ft/min^1/2  : 
Sigma_h            .psi         : 
SigmaH             .psi         : 
SigmaV             .psi         : 
Pore Pressure      .psi         : 
Biot               .            : 
Porosity           .            : 
Permeability       .nD          : 
SoPhi              .            : 
TensileStrength    .psi         : 
Grad_SigmaH        .psi/ft      : 
Grad_Sigma_h       .psi/ft      : 
Std_KICh           .psi*in^1/2  : 
Std_KICvup         .psi*in^1/2  : 
Std_KICvdown       .psi*in^1/2  : 
Std_nuh            .            : 
Std_Eh             .psi         : 
Std_nuv            .            : 
Std_Ev             .psi         : 
Std_Gv             .psi         : 
Std_Cl             .ft/min^1/2  : 
Std_Sigma_h        .psi         : 
Std_SigmaH         .psi         : 
Std_SigmaV         .psi         : 
Std_Pore Pressure  .psi         : 
Std_Biot           .            : 
Std_Porosity       .            : 
Std_Permeability   .nD          : 
Std_SoPhi          .            : 
Std_TensileStrength.psi         : 
Std_Depth          .ft          : 
~Params ----------------------------------------------------
~Other -----------------------------------------------------
Exported from homogenization method
~ASCII -----------------------------------------------------
 6185.6958500000 2719.7323381002 3325.7854697199 3379.5946515180 0.2192038887 6120328.2070228672 0.2136468398 5220235.4534126129 2149333.4468762768 0.0003911405 3773.1874991787 4275.1813218500 6372.1944093490 2597.8872272327 0.9000000000 0.0504528650 1039.9284976874 0.0000000000 1640.7544388273 0.6911399179 0.6099859403 20.9505064414 20.9505064414 20.9505064414 0.0055707757 114274.6435753391 0.0055077076 115598.8546981458 54822.5318738014 0.0000792788 0.1369627103 0.1371859700 0.0000000000 1493.1605647610 0.0000000000 0.0009471073 13.3522376890 0.0000000000 20.0619547225 6185.6958500000
 6199.6775000000 2773.8749662858 4291.4131463897 3789.6877887036 0.2298799775 6415081.4623603486 0.2173175752 5611690.5961447433 2296987.4902785970 0.0003888335 3803.7359845684 4325.3382205386 6387.6006865373 2603.7595099273 0.9000000000 0.0498228960 988.9293795164 0.0000000000 1665.7461828851 0.6976714870 0.6135377178 20.9267574314 20.9267574314 20.9267574314 0.0055703965 114229.1985425196 0.0055351823 119248.2814817262 59660.2325271563 0.0000810888 0.1397102479 0.1399288877 0.0000000000 1524.6944043212 0.0000000000 0.0009470238 13.3116244917 0.0000000000 19.8948134798 6199.6775000000
 6213.6591500000 2749.8082143459 3402.5837652177 4044.3708808302 0.2304691462 6861779.6076990552 0.2218523136 5851460.7329407027 2390930.5680547841 0.0004149682 3886.3748907139 4444.0304506991 6403.1640332682 2609.6317930581 0.9000000000 0.0479313551 921.1473979468 0.0000000000 1672.0286922709 0.7152034483 0.6254567231 20.9815920283 20.9815920283 20.9815920283 0.0055706557 114334.1983056307 0.0054211554 102631.5989714220 49784.1288601435 0.0000765643 0.1331990034 0.1334289076 0.0000000000 1448.4386260076 0.0000000000 0.0009476828 13.4230238958 0.0000000000 20.2782147944 6213.6591500000
 6227.8072000000 2650.8042236998 2906.0375473326 2948.0212352536 0.2086990643 6302310.5869539473 0.2027620056 4974256.6024125032 2066963.3215803185 0.0005951487 3811.1732313948 4332.5859447153 6418.8482639860 2615.5734963394 0.9000000000 0.0504313103 1122.9593705750 0.0000000000 1604.4056242649 0.6956840194 0.6119606964 20.5990313730 20.5990313730 20.5990313730 0.0054735879 112311.8388993946 0.0054273638 107076.3162780267 52568.9887050562 0.0000769397 0.1334395744 0.1336609736 0.0000000000 1452.6511664849 0.0000000000 0.0009311198 13.1394299428 0.0000000000 19.8028375967 6227.8072000000
 6242.1216500000 2725.1023070895 3843.4766823741 3833.4866600816 0.2324411887 6699090.9286087109 0.2268541658 5712716.1395927910 2326598.9090827643 0.0006517400 3936.5031551264 4480.0658816914 6434.8120199831 2621.5867551085 0.9000000000 0.0444126376 817.4773657819 0.0000000000 1694.0684938502 0.7177152470 0.6306354435 20.9713608725 20.9713608725 20.9713608725 0.0055709226 114314.6256027523 0.0053798788 107304.5604883600 51990.8718060441 0.0000775281 0.1344162644 0.1346439692 0.0000000000 1463.5575890254 0.0000000000 0.0009474520 13.3880169915 0.0000000000 20.2060518808 6242.1216500000
 6256.4361000000 2670.2511210436 3361.7487063318 3591.9777056480 0.1954079436 5796246.7950381264 0.1811748902 4426036.8929606192 1872778.9860916934 0.0005760784 3687.4257880464 4172.3018361010 6450.6002690878 2627.5978140194 0.9000000000 0.0596236222 1544.1912454312 0.0000000000 1513.5008034804 0.6668815552 0.5893811955 20.6183604538 20.6183604538 20.6183604538 0.0054746072 112348.8903945733 0.0052389797 104552.1888334586 51117.9573939404 0.0000760719 0.1318774752 0.1321016679 0.0000000000 1436.0106636469 0.0000000000 0.0009308979 13.1484511403 0.0000000000 19.9366112642 6256.4361000000
 6270.7505500000 2715.7281932672 3702.8553559419 3541.8184554777 0.2174267311 6657886.5292802686 0.2081070433 5562471.4604513189 2299576.1597318477 0.0005650478 3825.9533681379 4372.8352756119 6466.2414254547 2633.6102259248 0.9000000000 0.0511935406 1100.4214095705 0.0000000000 1629.3486637361 0.6973384192 0.6101268640 20.6206329309 20.6206329309 20.6206329309 0.0054742248 112353.2957966465 0.0052820041 100673.2172497607 50232.0732800568 0.0000755372 0.1313055861 0.1315307924 0.0000000000 1428.3341585081 0.0000000000 0.0009310962 13.1862576288 0.0000000000 19.9506420315 6270.7505500000
 6285.0650000000 2688.9542259777 4602.4310077984 3889.0769116908 0.2186782323 6770122.2358392617 0.1932217630 5239097.4158852091 2186889.5513296612 0.0006492752 3843.4507834659 4398.9807056545 6482.0627235910 2639.6226539708 0.9000000000 0.0505017282 1135.4973360318 0.0000000000 1617.5655333325 0.6999101371 0.6115212466 20.9686055030 20.9686055030 20.9686055030 0.0055710222 114309.3870190221 0.0053564059 105002.0798205462 52714.1951949881 0.0000774754 0.1344215494 0.1346492119 0.0000000000 1463.2652132312 0.0000000000 0.0009473302 13.3937244328 0.0000000000 20.1854493881 6285.0650000000
 6299.3794500000 2630.8389848965 3339.2611512764 3475.2587777744 0.1918672615 6077675.0594903575 0.1787898511 4487654.7287345994 1903207.9463770853 0.0005990690 3735.6055899994 4245.5344432962 6497.7939007584 2645.6337128785 0.9000000000 0.0581941453 1545.1621405630 0.0000000000 1507.1713311740 0.6739607412 0.5930116799 20.6510059919 20.6510059919 20.6510059919 0.0054745764 112411.4869776637 0.0051521934 94194.1045787273 46160.6516819604 0.0001136106 0.1477911893 0.1480313432 0.0000000000 1573.8638569432 0.0000000000 0.0009313081 13.2631847531 0.0000000000 20.1618991750 6299.3794500000
 6313.6939000000 2645.1841582453 3388.6147268607 3208.5822304741 0.1991255389 6328195.0328038651 0.1855460493 4929816.9716413002 2075277.8147838209 0.0006489152 3745.0506838502 4272.7848390677 6513.4153916811 2651.6469555133 0.9000000000 0.0558004525 1380.4584964356 0.0000000000 1551.5938202481 0.6767488109 0.5931631693 20.5746141382 20.5746141382 20.5746141382 0.0054736511 112265.0902395328 0.0054538902 120690.3221064422 60667.6973419499 0.0000807822 0.1388814925 0.1390939745 0.0000000000 1516.9045201914 0.0000000000 0.0009306143 13.1021941318 0.0000000000 19.6318851997 6313.6939000000
 6328.0083500000 2835.6582164224 3441.5296552761 4342.9919197058 0.2387258897 7332651.8501315014 0.2323541155 6896873.7924800217 2796033.7625774420 0.0005457079 3920.0639044108 4512.0150302659 6529.2159622539 2657.6585524468 0.9000000000 0.0500592808 925.9076437137 0.0000000000 1693.2322874710 0.7130229261 0.6194783078 20.9491924278 20.9491924278 20.9491924278 0.0055706998 114272.1426227587 0.0054661899 117632.4804295482 58494.3988556552 0.0000805575 0.1388397067 0.1390599418 0.0000000000 1515.0667110222 0.0000000000 0.0009471902 13.3483079497 0.0000000000 20.0522327562 6328.0083500000
 6342.3228000000 2697.8533748633 3347.5971035920 3969.9622740298 0.2210929904 7013430.2144242777 0.2137442315 5832563.4397221692 2401330.9747659406 0.0005676734 3928.9653462820 4503.3221126748 6545.0336313900 2663.6699044319 0.9000000000 0.0487106536 1005.1140809834 0.0000000000 1641.0334869583 0.7100430323 0.6194836608 20.6178432537 20.6178432537 20.6178432537 0.0054739226 112347.8949285744 0.0052902779 104272.9734709853 51027.5905637130 0.0000761223 0.1320617145 0.1322856134 0.0000000000 1437.6070263698 0.0000000000 0.0009311226 13.1952106200 0.0000000000 19.9331759620 6342.3228000000
 6356.6372000000 2653.5349906210 4250.1494665533 3696.1537778731 0.2134651142 6671368.0887236102 0.2016875806 5209455.9983616900 2166009.5797645128 0.0006583945 3917.4573685925 4467.2356861264 6560.8727384921 2669.6833711507 0.9000000000 0.0492382057 1112.0471520966 0.0000000000 1610.7417811572 0.7027671307 0.6162782687 20.9750138898 20.9750138898 20.9750138898 0.0055705576 114321.6120525410 0.0054540963 107066.5295459272 52715.9515777146 0.0000778508 0.1350725244 0.1352991771 0.0000000000 1470.2796596716 0.0000000000 0.0009477219 13.4081362276 0.0000000000 20.2318755537 6356.6372000000
 6370.9516500000 2642.4692148050 4428.0211966999 3446.2428376038 0.2052273217 6391477.5116974534 0.1931214830 4876462.0026508709 2041060.0047955539 0.0006000893 3872.7159986921 4403.0290273226 6576.7653123418 2675.6944298439 0.9000000000 0.0518219566 1236.4454208015 0.0000000000 1576.8649277553 0.6911100993 0.6078708820 20.5914009799 20.5914009799 20.5914009799 0.0054742429 112297.2986492001 0.0053188455 106640.6925663326 53738.4620760810 0.0000770560 0.1334711171 0.1336923592 0.0000000000 1453.7807988840 0.0000000000 0.0009307233 13.1295047985 0.0000000000 19.7469764503 6370.9516500000
