~Version ---------------------------------------------------
VERS.   2.0 : CWLS log ASCII Standard -VERSION 2.0
WRAP.    NO : One line per depth step
DLM . SPACE : Column Data Section Delimiter
~Well ------------------------------------------------------
STRT.ft               5337.35725 : START DEPTH
STOP.ft        7806.412649999999 : STOP DEPTH
STEP.ft       15.433500000000095 : STEP
NULL.                   -9999.25 : NULL VALUE
COMP.                            : COMPANY
WELL.                     bypass : WELL
FLD .                            : FIELD
LOC .                            : LOCATION
PROV.                            : PROVINCE
CNTY.                            : COUNTY
STAT.                            : STATE
CTRY.                            : COUNTRY
SRVC.                            : SERVICE COMPANY
DATE. 2019-07-30 20:43:33.131485 : DATE
UWI .                            : UNIQUE WELL ID
API .                            : API NUMBER
~Curve Information -----------------------------------------
Depth              .ft          : 
KICh               .psi*in^1/2  : 
KICvup             .psi*in^1/2  : 
KICvdown           .psi*in^1/2  : 
nuh                .            : 
Eh                 .psi         : 
nuv                .            : 
Ev                 .psi         : 
Gv                 .psi         : 
Cl                 .ft/min^1/2  : 
Sigma_h            .psi         : 
SigmaH             .psi         : 
SigmaV             .psi         : 
Pore Pressure      .psi         : 
Biot               .            : 
Porosity           .            : 
Permeability       .nD          : 
SoPhi              .            : 
TensileStrength    .psi         : 
Grad_SigmaH        .psi/ft      : 
Grad_Sigma_h       .psi/ft      : 
Std_KICh           .psi*in^1/2  : 
Std_KICvup         .psi*in^1/2  : 
Std_KICvdown       .psi*in^1/2  : 
Std_nuh            .            : 
Std_Eh             .psi         : 
Std_nuv            .            : 
Std_Ev             .psi         : 
Std_Gv             .psi         : 
Std_Cl             .ft/min^1/2  : 
Std_Sigma_h        .psi         : 
Std_SigmaH         .psi         : 
Std_SigmaV         .psi         : 
Std_Pore Pressure  .psi         : 
Std_Biot           .            : 
Std_Porosity       .            : 
Std_Permeability   .nD          : 
Std_SoPhi          .            : 
Std_TensileStrength.psi         : 
Std_Depth          .ft          : 
~Params ----------------------------------------------------
~Other -----------------------------------------------------
Exported from homogenization method
~ASCII -----------------------------------------------------
# ...
 6571.9743500000 2773.0954160935 5010.6316466788 4877.1851365508 0.2447308278 6939416.8843686040 0.2184289422 5447195.6206390811 2231883.8929956346 0.0002558309 4278.9442876384 4836.4477035910 6865.3518864232 2760.1239106082 0.9000000000 0.0460308121 950.8820524629 0.0000000000 1670.3527837860 0.7359200517 0.6510896208 20.6002173872 20.6002173872 20.6002173872 0.0054737541 112314.2023082081 0.0052142735 101864.1461155526 49542.7472300825 0.0000896410 0.1366837155 0.1369553472 0.0000000000 1468.3822676822 0.0000000000 0.0009310290 13.1745957068 0.0000000000 19.8078874143 6571.9743500000
 6586.0606000000 2644.2454819042 4556.3869447251 5167.0414967668 0.2239878005 6789402.4231542740 0.2050142232 5059864.8296502233 2097198.1269629775 0.0001870892 4206.2899771164 4760.9852461771 6881.1112756533 2766.0409387912 0.9000000000 0.0439427931 958.9961298956 0.0000000000 1647.7583352394 0.7228881626 0.6386655442 21.0068599523 21.0068599523 21.0068599523 0.0055708269 114382.7398361259 0.0053804413 95294.8811699523 47203.7941890503 0.0000889895 0.1366605765 0.1369424647 0.0000000000 1464.2147119960 0.0000000000 0.0009483507 13.4881424685 0.0000000000 20.4495147575 6586.0606000000
 6600.1468500000 2646.2911864378 4083.4233159242 5307.4743341255 0.1932202044 5555224.1962830378 0.1705088908 3969183.7800516631 1693357.3746094943 0.0002518466 3908.3051713896 4373.8708880844 6896.8380874704 2771.9569424192 0.9000000000 0.0588414178 1595.5495073101 0.0000000000 1489.6460125184 0.6626929654 0.5921542748 21.0605781912 21.0605781912 21.0605781912 0.0055745651 114485.8249233509 0.0048095522 86583.7331310791 41300.6259873308 0.0001140501 0.1451949326 0.1454719543 0.0000000000 1542.8421279272 0.0000000000 0.0009474700 13.3584757386 0.0000000000 20.8175419381 6600.1468500000
 6614.4332500000 2567.1860023642 2625.6595664201 2820.3665558267 0.1583727551 4161573.4558387194 0.1284181084 2628999.7870413833 1164033.4892266612 0.0006523385 3633.3687486451 3992.6290504265 6911.9670467335 2777.9569388741 0.9000000000 0.0774322370 2266.7517936565 0.0000000000 1251.6646424206 0.6036237572 0.5493091564 20.6711359433 20.6711359433 20.6711359433 0.0054775127 112450.3049874483 0.0047701243 89143.0558526933 42805.9389277203 0.0001144993 0.1452669688 0.1455340334 0.0000000000 1545.6274518696 0.0000000000 0.0009309146 13.1197216928 0.0000000000 20.2934724837 6614.4332500000
 6628.9197000000 2745.6722488550 5728.2874387929 4201.4654681074 0.2449913386 6828278.4061186640 0.2152803374 5219897.5495060058 2143984.5863003558 0.0007211259 4333.0690372834 4881.5289497699 6927.5627045774 2784.0412423376 0.9000000000 0.0440288323 912.6025282354 0.0000000000 1675.0740721935 0.7363988660 0.6536614159 20.5905664150 20.5905664150 20.5905664150 0.0054734518 112295.6464770956 0.0052988608 102634.5612513875 49593.7399540782 0.0000622237 0.1347759523 0.1349677881 0.0000000000 1605.7366552587 0.0000000000 0.0009311528 13.1235228428 0.0000000000 19.7430774496 6628.9197000000
 6643.4061500000 2690.7995527110 4392.3547664156 4528.8356740814 0.2316624145 6927121.0336902514 0.2183211190 5244540.8923300458 2151088.6926428466 0.0007293206 4344.3382798337 4906.7587087037 6943.8891098337 2790.1255462672 0.9000000000 0.0438796837 899.3193898630 0.0000000000 1655.0553462915 0.7385908069 0.6539323627 20.6061253592 20.6061253592 20.6061253592 0.0054733150 112325.4336551394 0.0054127099 100548.4309905358 50142.1402456368 0.0000623362 0.1351964851 0.1353878701 0.0000000000 1609.7929660445 0.0000000000 0.0009316986 13.1342478735 0.0000000000 19.8520569254 6643.4061500000
 6657.8926500000 2676.7350078786 4691.5788193432 4397.9432858650 0.2536896526 7681061.0520679010 0.2502076827 6219081.7348518763 2486796.0904325219 0.0006837891 4564.9541322129 5177.6305658099 6960.3874579990 2796.2098709833 0.9000000000 0.0321233461 475.0062059327 0.0000000000 1777.9678189047 0.7776680758 0.6856454996 20.5534515415 20.5534515415 20.5534515415 0.0054732940 112224.5821254755 0.0054326882 111947.6675304041 54624.4488737067 0.0000632807 0.1366695576 0.1368584099 0.0000000000 1629.7949003792 0.0000000000 0.0009308054 13.0449048093 0.0000000000 19.4833798699 6657.8926500000
 6672.3791500000 2794.2950426779 3694.0238250744 5129.4963146003 0.2616879469 7334456.0500116115 0.2516241629 6061596.6829921650 2419745.6164262886 0.0006978116 4565.1729505800 5146.4938760863 6976.9704120238 2802.2941956994 0.9000000000 0.0373986482 575.9573145469 0.0000000000 1762.7990030053 0.7713131644 0.6841896793 20.5558860233 20.5558860233 20.5558860233 0.0054733054 112229.2487891901 0.0053945481 113893.6900425705 55568.6858817381 0.0000635157 0.1370295406 0.1372179189 0.0000000000 1634.8126038859 0.0000000000 0.0009307455 13.0563374373 0.0000000000 19.5002125727 6672.3791500000
 6686.8656000000 2826.3235438649 4558.9220012118 4795.4738180892 0.2771209393 7891979.8802822288 0.2677127512 6999656.0745905591 2756818.1431001262 0.0006394361 4629.2201732169 5247.1710373175 6993.4770074494 2808.3784990060 0.9000000000 0.0330160652 441.7609086264 0.0000000000 1825.7392304776 0.7846981458 0.6922855116 20.5689982480 20.5689982480 20.5689982480 0.0054734422 112254.3608300848 0.0053929085 112487.0048376418 55545.4746875054 0.0000635186 0.1370959775 0.1372843785 0.0000000000 1635.3598659725 0.0000000000 0.0009308511 13.0898852652 0.0000000000 19.5917437413 6686.8656000000
 6701.3520500000 2783.3642437572 4572.2590244727 5706.8801847384 0.2175108158 6501769.4079434164 0.2076652150 5651894.3722618036 2340634.8368646833 0.0006078352 4048.0903385011 4582.1118292043 7009.8129643910 2814.4628030925 0.9000000000 0.0559414950 1275.6062481725 0.0000000000 1606.4335405996 0.6837593063 0.6040706873 20.6079156550 20.6079156550 20.6079156550 0.0054764284 112328.8625491118 0.0052435631 115521.4609122826 55626.1110518123 0.0000945344 0.1426941780 0.1429543973 0.0000000000 1538.8412675920 0.0000000000 0.0009301861 13.0656300119 0.0000000000 19.8645492934 6701.3520500000
 6715.8385500000 2779.9027392273 7124.0590816559 4749.3075140405 0.2119853035 6091278.4552520895 0.1938139768 5097858.6550655104 2136304.9254449368 0.0004563762 3992.4357314966 4495.0225563914 7025.3189228561 2820.5471278086 0.9000000000 0.0597574666 1446.8875414650 0.0000000000 1562.4893997269 0.6693166494 0.5944806001 20.5884995650 20.5884995650 20.5884995650 0.0054736027 112291.7357204407 0.0052910935 108106.1113417517 52374.9893028273 0.0000628946 0.1359187635 0.1361089659 0.0000000000 1620.7682738688 0.0000000000 0.0009309393 13.1471261604 0.0000000000 19.7269641983 6715.8385500000
 6730.3250000000 2788.8180663135 4722.6827098620 6739.2689706202 0.2457010624 6978950.0794686433 0.2270368039 5685257.2665031739 2315975.2207870823 0.0007075174 4388.1144056386 4948.3571709264 7041.4077498370 2826.6314309973 0.9000000000 0.0458208504 906.9592360531 0.0000000000 1681.8664292995 0.7352330193 0.6519914574 20.5615180644 20.5615180644 20.5615180644 0.0054735049 112240.0406621249 0.0053581416 114670.0381698727 56331.3132562035 0.0000636912 0.1373197968 0.1375078225 0.0000000000 1638.7371481916 0.0000000000 0.0009305796 13.0800001137 0.0000000000 19.5393327548 6730.3250000000
 6744.8114500000 2900.5219672436 25220.9807817390 23876.0274319282 0.2904160314 8284645.5504733939 0.2855973828 7993852.4067226360 3107616.3453128627 0.0008757678 4692.7775234587 5334.7910562332 7057.7036471776 2832.7157352017 0.9000000000 0.0323760313 365.3944350800 0.0000000000 1875.4828717846 0.7909473965 0.6957611133 20.5084731729 20.5084731729 20.5084731729 0.0054732965 112138.5984251171 0.0054709867 114102.8941649456 59569.4335691636 0.0000640441 0.1381477566 0.1383341919 0.0000000000 1648.0433861208 0.0000000000 0.0009301052 13.0113832957 0.0000000000 19.1636666366 6744.8114500000
 6759.2979500000 2840.1848315144 4367.3191631897 6284.3948468664 0.2957362360 8415194.2077941988 0.2809242660 7647889.2026661858 2982138.9845681889 0.0005930534 4811.3562671290 5460.8089855312 7074.4553672946 2839.0418062444 0.9000000000 0.0277805917 357.2134487594 0.0000000000 1885.3040473811 0.8078958830 0.7118130171 20.5741798077 20.5741798077 20.5741798077 0.0054735531 112264.3476992795 0.0053134684 107003.5951429780 53369.2382170386 0.0000629413 0.1360691262 0.1362589910 0.0000000000 1622.2633722285 0.0000000000 0.0009308535 13.1239463541 0.0000000000 19.6256631816 6759.2979500000
