~Version ---------------------------------------------------
VERS.   2.0 : CWLS log ASCII Standard -VERSION 2.0
WRAP.    NO : One line per depth step
DLM . SPACE : Column Data Section Delimiter
~Well ------------------------------------------------------
STRT.ft               5337.35725 : START DEPTH
STOP.ft        7806.412649999999 : STOP DEPTH
STEP.ft       15.433500000000095 : STEP
NULL.                   -9999.25 : NULL VALUE
COMP.                            : COMPANY
WELL.                     bypass : WELL
FLD .                            : FIELD
LOC .                            : LOCATION
PROV.                            : PROVINCE
CNTY.                            : COUNTY
STAT.                            : STATE
CTRY.                            : COUNTRY
SRVC.                            : SERVICE COMPANY
DATE. 2019-07-30 20:43:33.131485 : DATE
UWI .                            : UNIQUE WELL ID
API .                            : API NUMBER
~Curve Information -----------------------------------------
Depth              .ft          : 
KICh               .psi*in^1/2  : 
KICvup             .psi*in^1/2  : 
KICvdown           .psi*in^1/2  : 
nuh                .            : 
Eh                 .psi         : 
nuv                .            : 
Ev                 .psi         : 
Gv                 .psi         : 
Cl                 .ft/min^1/2  : 
Sigma_h            .psi         : 
SigmaH             .psi         : 
SigmaV             .psi         : 
Pore Pressure      .psi         : 
Biot               .            : 
Porosity           .            : 
Permeability       .nD          : 
SoPhi              .            : 
TensileStrength    .psi         : 
Grad_SigmaH        .psi/ft      : 
Grad_Sigma_h       .psi/ft      : 
Std_KICh           .psi*in^1/2  : 
Std_KICvup         .psi*in^1/2  : 
Std_KICvdown       .psi*in^1/2  : 
Std_nuh            .            : 
Std_Eh             .psi         : 
Std_nuv            .            : 
Std_Ev             .psi         : 
Std_Gv             .psi         : 
Std_Cl             .ft/min^1/2  : 
Std_Sigma_h        .psi         : 
Std_SigmaH         .psi         : 
Std_SigmaV         .psi         : 
Std_Pore Pressure  .psi         : 
Std_Biot           .            : 
Std_Porosity       .            : 
Std_Permeability   .nD          : 
Std_SoPhi          .            : 
Std_TensileStrength.psi         : 
Std_Depth          .ft          : 
~Params ----------------------------------------------------
~Other -----------------------------------------------------
Exported from homogenization method
~ASCII -----------------------------------------------------
# ...
 7681.7489500000 2455.2716290717 4071.5174862230 3448.5482380128 0.1852890125 5669504.2794729276 0.1586715869 3239873.5921653225 1397646.6838363004 0.0005304355 5377.5889483667 5855.9114688500 8105.0312783720 4224.8244087132 0.9000000000 0.0508514775 1807.2712547905 0.0000000000 1427.5517274075 0.7623148722 0.7000474740 18.8564743142 18.8564743142 18.8564743142 0.0049823930 102436.3466460046 0.0043770879 65263.4969786997 31695.9965439505 0.0000965909 0.1247789947 0.1250372365 0.0000000000 1318.7385605134 0.0000000000 0.0008493444 12.6340269048 0.0000000000 18.7509355628 7681.7489500000
 7699.3292500000 2451.1110205302 3089.0930464407 3481.5590816396 0.1825444449 5524030.1773231393 0.1561128491 3116621.4910112713 1347506.1717603453 0.0002981015 5375.5073041075 5842.6381761317 8124.7253586296 4234.4940164559 0.9000000000 0.0517289131 1875.9286383741 0.0000000000 1415.9908929173 0.7588502825 0.6981786503 18.8570743414 18.8570743414 18.8570743414 0.0049825181 102437.4991790212 0.0043357187 65245.1299909403 31557.6805002980 0.0000963765 0.1244281679 0.1246871396 0.0000000000 1315.3229993050 0.0000000000 0.0008492221 12.6058259011 0.0000000000 18.7550101829 7699.3292500000
 7716.9095500000 2501.6845230282 3556.0685527860 3752.1778578925 0.1931741399 5666170.3654804695 0.1671153127 3340326.6637877207 1430847.6178206867 0.0002886245 5452.9000670004 5927.7821630811 8144.3534874819 4244.1629797273 0.9000000000 0.0503869080 1666.1132493185 0.0000000000 1458.0861864570 0.7681549362 0.7066170767 18.8480844473 18.8480844473 18.8480844473 0.0049827403 102420.2290925571 0.0043203937 68028.2819657108 32755.8806841577 0.0000975356 0.1255059145 0.1257625421 0.0000000000 1328.3408584331 0.0000000000 0.0008489220 12.4582337599 0.0000000000 18.6940404118 7716.9095500000
 7734.4898500000 2594.8325822673 7576.5479537224 6259.6701725162 0.2258855051 6056103.4938977733 0.1635427069 3619924.9358261405 1548167.2403727570 0.0004217651 5505.0804407647 5999.0991291938 8163.8787801059 4253.8319429987 0.9000000000 0.0487685960 1635.1105169107 0.0000000000 1517.1939755816 0.7756295820 0.7117574071 18.4549919526 18.4549919526 18.4549919526 0.0049128384 100739.6671526102 0.0046997790 92002.6989549812 46211.6983757053 0.0000561574 0.1215571405 0.1217282428 0.0000000000 1448.7730513397 0.0000000000 0.0008351540 11.8914234934 0.0000000000 17.5314137933 7734.4898500000
 7752.2989500000 2932.6340728847 6582.4510328903 8678.0461488963 0.2660652365 6957247.4544325229 0.2618923369 6903628.2717959192 2735877.2679908155 0.0004048250 5599.4697365840 6148.9870326727 8183.9750766468 4263.6268659323 0.9000000000 0.0419546848 581.1884973680 0.0000000000 1823.2048181324 0.7931823930 0.7222979625 18.4229477925 18.4229477925 18.4229477925 0.0049126690 100678.0931584402 0.0049126690 105261.1773223788 52659.1796522557 0.0000575509 0.1240294276 0.1241968429 0.0000000000 1480.1754274458 0.0000000000 0.0008346302 11.7014663765 0.0000000000 17.3147098191 7752.2989500000
 7770.3368500000 2899.1439528859 6872.5332279811 5217.8839076863 0.2740072406 7351171.5943468604 0.2684916261 7063028.7314241584 2783664.1595171411 0.0003643931 5741.5201558282 6318.5319152840 8204.1091377006 4273.5476671342 0.9000000000 0.0369494800 499.0349962327 0.0000000000 1845.5998472713 0.8131606180 0.7389023496 18.4201471901 18.4201471901 18.4201471901 0.0049125429 100672.7453020021 0.0049024204 102934.0784311926 51651.1408904733 0.0000572548 0.1235128400 0.1236809330 0.0000000000 1473.4675441004 0.0000000000 0.0008347833 11.6932463420 0.0000000000 17.2945794326 7770.3368500000
 7788.3747500000 2920.0277740072 6782.4326968421 5662.2481418222 0.2578081719 6649758.6637077015 0.2549339296 5929555.9900053721 2353995.5054688584 0.0004913523 5721.9855109677 6250.6637953397 8224.4937297214 4283.4684683361 0.9000000000 0.0442865659 671.5050719402 0.0000000000 1772.0709880688 0.8025633070 0.7346828696 21.6996195183 21.6996195183 21.6996195183 0.0057806288 118508.5001208374 0.0057420014 111380.7211459381 52524.2607964736 0.0000657370 0.1424066309 0.1426087129 0.0000000000 1696.2976529306 0.0000000000 0.0009825570 13.7797584236 0.0000000000 20.5259465326 7788.3747500000
 7806.4126500000 2920.0277740072 6782.4326968421 5662.2481418222 0.2578081719 6649758.6637077015 0.2549339296 5929555.9900053721 2353995.5054688584 0.0004913523 5721.9855109677 6250.6637953397 8224.4937297214 4283.4684683361 0.9000000000 0.0442865659 671.5050719402 0.0000000000 1772.0709880688 0.8007088628 0.7329852735 21.6996195183 21.6996195183 21.6996195183 0.0057806288 118508.5001208374 0.0057420014 111380.7211459381 52524.2607964736 0.0000657370 0.1424066309 0.1426087129 0.0000000000 1696.2976529306 0.0000000000 0.0009825570 13.7797584236 0.0000000000 20.5259465326 7806.4126500000
