~Version ---------------------------------------------------
VERS.   2.0 : CWLS log ASCII Standard -VERSION 2.0
WRAP.    NO : One line per depth step
DLM . SPACE : Column Data Section Delimiter
~Well ------------------------------------------------------
STRT.ft                 5553.236 : START DEPTH
STOP.ft        7956.265999999999 : STOP DEPTH
STEP.ft        14.83744999999999 : STEP
NULL.                   -9999.25 : NULL VALUE
COMP.                            : COMPANY
WELL.                     bypass : WELL
FLD .                            : FIELD
LOC .                            : LOCATION
PROV.                            : PROVINCE
CNTY.                            : COUNTY
STAT.                            : STATE
CTRY.                            : COUNTRY
SRVC.                            : SERVICE COMPANY
DATE. 2019-07-30 20:43:21.016623 : DATE
UWI .                            : UNIQUE WELL ID
API .                            : API NUMBER
~Curve Information -----------------------------------------
Depth              .ft          : 
KICh               .psi*in^1/2  : 
KICvup             .psi*in^1/2  : 
KICvdown           .psi*in^1/2  : 
nuh                .            : 
Eh                 .psi         : 
nuv                .            : 
Ev                 .psi         : 
Gv                 .psi         : 
Cl                 .ft/min^1/2  : 
Sigma_h            .psi         : 
SigmaH             .psi         : 
SigmaV             .psi         : 
Pore Pressure      .psi         : 
Biot               .            : 
Porosity           .            : 
Permeability       .nD          : 
SoPhi              .            : 
TensileStrength    .psi         : 
Grad_SigmaH        .psi/ft      : 
Grad_Sigma_h       .psi/ft      : 
Std_KICh           .psi*in^1/2  : 
Std_KICvup         .psi*in^1/2  : 
Std_KICvdown       .psi*in^1/2  : 
Std_nuh            .            : 
Std_Eh             .psi         : 
Std_nuv            .            : 
Std_Ev             .psi         : 
Std_Gv             .psi         : 
Std_Cl             .ft/min^1/2  : 
Std_Sigma_h        .psi         : 
Std_SigmaH         .psi         : 
Std_SigmaV         .psi         : 
Std_Pore Pressure  .psi         : 
Std_Biot           .            : 
Std_Porosity       .            : 
Std_Permeability   .nD          : 
Std_SoPhi          .            : 
Std_TensileStrength.psi         : 
Std_Depth          .ft          : 
~Params ----------------------------------------------------
~Other -----------------------------------------------------
Exported from homogenization method
~ASCII -----------------------------------------------------
# ...
 7000.1550000000 2957.3218738920 23638.2141599173 22943.7166211952 0.2696188053 7440702.4369048346 0.2685092036 7418594.5988031896 2923725.1445116531 0.0005142052 4652.2091487098 5238.2671376027 7284.4464426528 3079.9575690977 0.9000000000 0.0425920599 526.0448316421 0.0000000000 1846.3132387258 0.7483073071 0.6645865911 18.7135354128 18.7135354128 18.7135354128 0.0049837457 102162.3491739006 0.0047413782 96105.7388610866 48369.6188175714 0.0000572877 0.1145053505 0.1147032636 0.0000000000 1264.0189112671 0.0000000000 0.0008464434 11.8642578425 0.0000000000 17.7610953149 7000.1550000000
 7017.8183500000 2870.3179950990 5621.3790938203 5283.0896442628 0.2312933491 6084269.8338204566 0.1946228764 4986251.9649115875 2079428.0583329790 0.0007233793 4325.6019355150 4819.7384333835 7303.7986944238 3087.7306472743 0.9000000000 0.0590455993 1349.0776417409 0.0000000000 1604.6644200791 0.6867858632 0.6163741664 18.6921720749 18.6921720749 18.6921720749 0.0049825071 102121.3336003418 0.0049337617 103400.7253764849 52761.3275133732 0.0000587503 0.1171503331 0.1173436051 0.0000000000 1294.1708739092 0.0000000000 0.0008465461 11.8731363875 0.0000000000 17.6155815555 7017.8183500000
 7035.4816500000 2894.2997294344 6566.8475918994 5575.4586048060 0.2673181382 7563852.3578475891 0.2574648977 7201054.6040089475 2856822.1022097655 0.0004532973 4678.5620683765 5275.4013410012 7323.3034884217 3095.5090818879 0.9000000000 0.0410929190 570.1795561374 0.0000000000 1816.7654509639 0.7498280293 0.6649952770 18.4170673479 18.4170673479 18.4170673479 0.0049125939 100666.9112275790 0.0048594904 101559.8588183634 51502.3447788511 0.0000577546 0.1152005462 0.1153914957 0.0000000000 1272.4912108497 0.0000000000 0.0008345733 11.7085710781 0.0000000000 17.2706695769 7035.4816500000
 7053.1450000000 2882.0057448095 21312.1842450789 23769.7075828730 0.2447992434 6640647.4319551187 0.2213246757 5671091.5853943648 2308756.0515446519 0.0007477929 4566.5885698618 5100.0599281751 7343.0179933577 3168.3837683084 0.9000000000 0.0506139145 954.4306709407 0.0000000000 1706.8776313626 0.7230901858 0.6474542307 18.7440777512 18.7440777512 18.7440777512 0.0049832497 102220.6955679048 0.0047173513 95653.1220098581 46050.6665464826 0.0000853263 0.1243491235 0.1246353132 0.0000000000 1295.1693021057 0.0000000000 0.0008469794 11.9326019984 0.0000000000 17.9796140148 7053.1450000000
 7070.8083500000 2873.3203797186 6350.1473166130 4493.2796938424 0.2360479393 5944199.5933930445 0.2052136945 4923603.1898342399 2029313.3246604647 0.0007952855 4630.8492387690 5111.7528837231 7362.2702930087 3447.3224526752 0.9000000000 0.0548631539 1166.9277277657 0.0000000000 1645.0759465100 0.7229375526 0.6549250113 18.6970177384 18.6970177384 18.6970177384 0.0049826387 102130.6554107798 0.0048597093 98873.8626984447 49557.7174363716 0.0000577743 0.1154453232 0.1156414914 0.0000000000 1274.4307048098 0.0000000000 0.0008465429 11.8813367258 0.0000000000 17.6479322588 7070.8083500000
 7088.4716500000 2864.9332263661 20651.7827523214 20250.9282597534 0.2487897992 6591870.8032696499 0.2417319190 6170384.4063158464 2479592.1589488243 0.0004680199 4935.8091224343 5463.6698406683 7381.7910836304 3764.4449473414 0.9000000000 0.0466848888 759.4627674819 0.0000000000 1745.1581008645 0.7707824917 0.6963149979 18.4679910792 18.4679910792 18.4679910792 0.0049129022 100764.2810578536 0.0048021094 100855.9038168227 48452.5213864662 0.0000869639 0.1262428502 0.1265167712 0.0000000000 1316.7652133983 0.0000000000 0.0008351994 11.7641812040 0.0000000000 17.6319315190 7088.4716500000
 7106.1350000000 2802.0294981577 4150.8513156673 4646.8756740051 0.2229123540 5805233.4095436884 0.2115070473 5006480.8297650050 2063065.4334106215 0.0007055323 4877.3887326235 5352.0943311418 7401.2952022436 3904.9610035294 0.9000000000 0.0549875535 1198.7110106095 0.0000000000 1621.0149589159 0.7531653045 0.6863630838 18.7577742674 18.7577742674 18.7577742674 0.0049827711 102246.8866989807 0.0047354722 93799.4154288792 44196.1298705133 0.0000842546 0.1230582063 0.1233475903 0.0000000000 1280.6568867101 0.0000000000 0.0008473762 11.9828111638 0.0000000000 18.0766334478 7106.1350000000
 7123.7983500000 2703.5711722347 4910.9830583159 5050.3076719403 0.2147273515 5732459.4912957037 0.1987877252 4425010.8376622032 1844741.9253428665 0.0006186662 4932.3382054062 5404.2514692390 7420.6533227197 3917.9520994095 0.9000000000 0.0534911271 1271.8148313532 0.0000000000 1571.5734595023 0.7586193774 0.6923747646 18.7730249291 18.7730249291 18.7730249291 0.0049831519 102276.1267430775 0.0046390249 90210.9226749512 42454.2973755509 0.0000827527 0.1211112934 0.1214055171 0.0000000000 1259.4742695487 0.0000000000 0.0008474245 12.0026938558 0.0000000000 18.1819613925 7123.7983500000
 7141.4616500000 2783.1200029189 3998.7423150358 3608.4983753676 0.2194820847 5596748.4338725507 0.2043082666 4611404.3871765547 1912393.8924989062 0.0006471267 4904.5788656639 5363.5235688555 7439.9695905345 3927.6666025035 0.9000000000 0.0562663252 1287.5287340049 0.0000000000 1591.8309839383 0.7510400296 0.6867752158 18.4792246339 18.4792246339 18.4792246339 0.0049145597 100785.7880821411 0.0047186963 98732.3455213883 46699.7939307355 0.0000856295 0.1244355353 0.1247135272 0.0000000000 1297.3991602820 0.0000000000 0.0008349759 11.7784904105 0.0000000000 17.7106093786 7141.4616500000
 7159.1250000000 2871.8663807201 17059.4178633045 17184.8218081733 0.2075868396 4975842.1038324852 0.1706860912 3825861.9921602760 1623796.7579877204 0.0007049441 4748.4574972805 5160.5058850870 7459.0712559184 3937.3806140098 0.9000000000 0.0658957283 1598.4638960535 0.0000000000 1506.4376036644 0.7208291356 0.6632734443 18.7977511024 18.7977511024 18.7977511024 0.0049872954 93547.1422507571 0.0044302475 80917.0196709326 38208.3418367956 0.0001322419 0.1547391683 0.1549525390 0.0000000000 1559.8015215645 0.0000000000 0.0008469959 12.0323405086 0.0000000000 18.3519479785 7159.1250000000
 7176.7883500000 2852.1948125716 4979.2305909645 4386.5733897760 0.1983699016 4662627.1893627346 0.1615769401 3356534.4727264657 1438494.8053784971 0.0004770042 4747.8247230832 5136.9055221925 7477.6625630211 3947.0964945678 0.9000000000 0.0688082840 1720.1002107995 0.0000000000 1446.1939938533 0.7157666176 0.6615528411 18.7322896346 18.7322896346 18.7322896346 0.0049829995 102198.1495356193 0.0047606926 95055.6750049979 46011.0404805853 0.0000852297 0.1243359615 0.1246220310 0.0000000000 1294.5365103140 0.0000000000 0.0008469024 11.9284095153 0.0000000000 17.8962166560 7176.7883500000
 7194.0989500000 2904.4559504546 3711.0568460412 4766.7766494441 0.2539161313 6766335.8525845837 0.2489873055 6533559.3078764640 2611273.6110405540 0.0003359781 5104.8127805207 5644.4290820840 7496.5669858416 3956.6167162502 0.9000000000 0.0461708273 692.9012226359 0.0000000000 1777.5592468011 0.7845915272 0.7095833427 18.9435382993 18.9435382993 18.9435382993 0.0050549375 103571.0701740551 0.0050549375 104860.9855283675 54114.2467973662 0.0000596962 0.1190872650 0.1192827754 0.0000000000 1315.3069975993 0.0000000000 0.0008586998 12.0292992924 0.0000000000 17.7202265791 7194.0989500000
 7211.0568500000 2927.5728276227 4274.9623547793 4114.4283386142 0.2678820366 7721793.8028670987 0.2670620476 7708203.9935861472 3041087.9477241444 0.0001589270 5234.2175803530 5843.2485138250 7515.4904272486 3965.9435037652 0.9000000000 0.0408595114 471.0707383520 0.0000000000 1863.8110842128 0.8103179098 0.7258599799 18.9268952631 18.9268952631 18.9268952631 0.0050548878 103539.2769150348 0.0050548878 103539.2769150348 55313.3526220296 0.0000598071 0.1193437964 0.1195387185 0.0000000000 1317.9925408928 0.0000000000 0.0008584725 12.0185813341 0.0000000000 17.6010758422 7211.0568500000
 7228.0147000000 2912.7058621619 3680.1001075578 4500.8303188741 0.2629361197 7766209.8324496783 0.2623838361 7757728.9006625274 3072530.4829568355 0.0001619127 5207.1685880248 5822.1014980125 7534.4821715069 3975.2703667339 0.9000000000 0.0420452134 509.0400372178 0.0000000000 1846.7607053788 0.8054910981 0.7204147756 19.2304072965 19.2304072965 19.2304072965 0.0051309164 105132.4126788622 0.0051314984 106404.3496928083 55829.5022388630 0.0000607859 0.1212335404 0.1214314317 0.0000000000 1339.1250260841 0.0000000000 0.0008716893 12.2090411376 0.0000000000 18.0010136022 7228.0147000000
