~Version ---------------------------------------------------
VERS.   2.0 : CWLS log ASCII Standard -VERSION 2.0
WRAP.    NO : One line per depth step
DLM . SPACE : Column Data Section Delimiter
~Well ------------------------------------------------------
STRT.ft               6011.19455 : START DEPTH
STOP.ft                8162.3221 : STOP DEPTH
STEP.ft       14.389100000000326 : STEP
NULL.                   -9999.25 : NULL VALUE
COMP.                            : COMPANY
WELL.                     bypass : WELL
FLD .                            : FIELD
LOC .                            : LOCATION
PROV.                            : PROVINCE
CNTY.                            : COUNTY
STAT.                            : STATE
CTRY.                            : COUNTRY
SRVC.                            : SERVICE COMPANY
DATE. 2019-07-30 20:43:20.875901 : DATE
UWI .                            : UNIQUE WELL ID
API .                            : API NUMBER
~Curve Information -----------------------------------------
Depth              .ft          : 
KICh               .psi*in^1/2  : 
KICvup             .psi*in^1/2  : 
KICvdown           .psi*in^1/2  : 
nuh                .            : 
Eh                 .psi         : 
nuv                .            : 
Ev                 .psi         : 
Gv                 .psi         : 
Cl                 .ft/min^1/2  : 
Sigma_h            .psi         : 
SigmaH             .psi         : 
SigmaV             .psi         : 
Pore Pressure      .psi         : 
Biot               .            : 
Porosity           .            : 
Permeability       .nD          : 
SoPhi              .            : 
TensileStrength    .psi         : 
Grad_SigmaH        .psi/ft      : 
Grad_Sigma_h       .psi/ft      : 
Std_KICh           .psi*in^1/2  : 
Std_KICvup         .psi*in^1/2  : 
Std_KICvdown       .psi*in^1/2  : 
Std_nuh            .            : 
Std_Eh             .psi         : 
Std_nuv            .            : 
Std_Ev             .psi         : 
Std_Gv             .psi         : 
Std_Cl             .ft/min^1/2  : 
Std_Sigma_h        .psi         : 
Std_SigmaH         .psi         : 
Std_SigmaV         .psi         : 
Std_Pore Pressure  .psi         : 
Std_Biot           .            : 
Std_Porosity       .            : 
Std_Permeability   .nD          : 
Std_SoPhi          .            : 
Std_TensileStrength.psi         : 
Std_Depth          .ft          : 
~Params ----------------------------------------------------
~Other -----------------------------------------------------
Exported from homogenization method
~ASCII -----------------------------------------------------
# ...
 7076.6441000000 2713.5798466293 20788.7580330208 20412.7839334196 0.2342685077 6652997.6831060639 0.2163195371 5019608.9628809448 2060013.9123404694 0.0010506927 4987.7993171509 5526.8228474087 7527.7023246380 3559.5553901278 0.9000000000 0.0449336610 932.2912514367 0.0000000000 1649.8050247843 0.7809948853 0.7048255143 19.6191568614 19.6191568614 19.6191568614 0.0052105876 106935.8469495383 0.0049524975 93796.7951182834 45187.4051335071 0.0000807699 0.1216646308 0.1218788993 0.0000000000 1484.7494518460 0.0000000000 0.0008866347 12.5477720863 0.0000000000 18.9164666815 7076.6441000000
 7092.8755000000 2683.4357141444 20900.0087796466 21144.0313847448 0.2292738664 6542658.7541635372 0.2157296286 4834575.9917356828 1987206.9260451326 0.0020248934 5155.7118994689 5687.9495832909 7545.9265709096 3825.7296712947 0.9000000000 0.0445047369 930.9756906367 0.0000000000 1637.0463431198 0.8019243512 0.7268859998 19.9394273053 19.9394273053 19.9394273053 0.0052938827 108659.0555354858 0.0050621057 94160.9987297522 45348.3861674566 0.0000818040 0.1233677682 0.1235859631 0.0000000000 1504.8017082758 0.0000000000 0.0009010200 12.7462533775 0.0000000000 19.2642530962 7092.8755000000
 7108.0864500000 2697.7332604951 21643.6359840082 21634.7949703185 0.2376964352 6899419.1345452424 0.2270946401 5446431.8506423095 2217755.7491862355 0.0022510005 5218.3014732460 5775.7418066279 7563.0501895838 3908.8154765058 0.9000000000 0.0418233931 785.8549031156 0.0000000000 1683.9863773396 0.8125593079 0.7341359042 20.2106288425 20.2106288425 20.2106288425 0.0053812964 110343.3831532411 0.0053368825 109940.2363539978 54923.4337015406 0.0000607657 0.1502771839 0.1504142062 0.0000000000 1928.7835681289 0.0000000000 0.0009150547 12.8417411809 0.0000000000 19.1739234480 7108.0864500000
 7123.2974000000 2858.4487058527 3268.3552784225 3781.1588953012 0.2723288213 7973709.2212108998 0.2676963021 7622030.9315401083 3001381.7575958651 0.0003390496 5320.7879760225 5947.4899014556 7580.2776651382 3917.6757083689 0.9000000000 0.0362946453 429.8278140406 0.0000000000 1843.1994181273 0.8349349420 0.7469557534 19.8580209813 19.8580209813 19.8580209813 0.0052938084 108503.2499750754 0.0052572398 106882.6402308510 55609.3415965153 0.0000598192 0.1479588600 0.1480933742 0.0000000000 1898.8404598449 0.0000000000 0.0008997053 12.6155109316 0.0000000000 18.6923251519 7123.2974000000
 7138.5083500000 2759.5131374916 18468.7180817439 18857.8369280041 0.2428541333 6896031.0358997658 0.2282217558 5593332.0875840737 2269246.7992425486 0.0007962228 5221.7259320152 5776.5803474377 7597.4483166604 3926.0421797855 0.9000000000 0.0434202405 784.3045392977 0.0000000000 1700.3355560616 0.8092139232 0.7314869824 20.2598659616 20.2598659616 20.2598659616 0.0053813763 110437.6364260540 0.0051782654 97174.4760243017 46643.2783739856 0.0000834996 0.1258453060 0.1260662412 0.0000000000 1535.3590694565 0.0000000000 0.0009158017 12.9263426286 0.0000000000 19.5192132074 7138.5083500000
 7153.7193000000 2769.7658525313 19675.1747045996 19086.4647763641 0.2590087825 7435885.7934038909 0.2421976345 6139292.9776291763 2460910.5354008367 0.0006299352 5360.1484369004 5950.7627278151 7614.6120642861 3934.4083492210 0.9000000000 0.0377398015 590.1559527485 0.0000000000 1768.1586017542 0.8318417984 0.7492813475 20.1580155556 20.1580155556 20.1580155556 0.0053812635 110242.8341258835 0.0053588243 109239.7276474930 57750.6659369156 0.0000608689 0.1505322722 0.1506687007 0.0000000000 1931.9034867592 0.0000000000 0.0009142158 12.8057962690 0.0000000000 18.7988131067 7153.7193000000
 7168.9302500000 2945.5576678802 21531.1499181745 20924.7627515206 0.3028121490 8760419.0976654142 0.3025810034 8756595.6480485182 3361047.5177642782 0.0014433308 5613.5890201415 6286.0128307595 7631.9779838274 3942.7734083782 0.9000000000 0.0289736636 223.2504041571 0.0000000000 1966.1795415405 0.8768411202 0.7830441676 19.8065108830 19.8065108830 19.8065108830 0.0052937531 108404.8212428221 0.0052937531 108404.8212428283 58376.4114501141 0.0000599914 0.1483253907 0.1484592199 0.0000000000 1903.6542255788 0.0000000000 0.0008989701 12.5763606991 0.0000000000 18.3245970868 7168.9302500000
 7184.1412000000 2948.0165351358 3524.8812525949 3824.7931256921 0.2997318758 8719990.0639975742 0.2996612475 8718923.5366545208 3354288.2382387868 0.0002314950 5595.0649359841 6265.9717765894 7649.4497966349 3951.1409900730 0.9000000000 0.0301577541 235.0557483609 0.0000000000 1962.4162005057 0.8721949642 0.7788077629 20.1367588222 20.1367588222 20.1367588222 0.0053812570 110202.1888334205 0.0053812570 110202.1888334268 59351.8013115773 0.0000609911 0.1507959728 0.1509320169 0.0000000000 1935.3675730940 0.0000000000 0.0009138555 12.7854348588 0.0000000000 18.6480544948 7184.1412000000
 7199.3521500000 2938.1287292124 20838.4871693458 21127.1766853673 0.2971587327 8616018.5230894107 0.2965358821 8606301.0898618940 3318585.2698243493 0.0004721258 5577.5644676968 6241.7868412631 7666.8520138453 3959.5054035264 0.9000000000 0.0305668213 249.1584132520 0.0000000000 1952.1441658319 0.8669928504 0.7747314413 19.8128088579 19.8128088579 19.8128088579 0.0052937718 108416.8433303990 0.0052937718 108416.8433304052 58056.5069217256 0.0000599757 0.1482908562 0.1484247594 0.0000000000 1903.2034052316 0.0000000000 0.0008990184 12.5798507057 0.0000000000 18.3700326893 7199.3521500000
 7214.5631000000 2938.5490975400 4263.0331147764 4249.7243967835 0.2835748350 8165077.0240285899 0.2826675348 8152247.0088469097 3177982.5807881318 0.0006872439 5448.2542350133 6084.3742960444 7684.1880576605 3967.8728643745 0.9000000000 0.0356807790 350.1426881108 0.0000000000 1909.3029064422 0.8433461890 0.7551745212 20.1456763022 20.1456763022 20.1456763022 0.0053812844 110219.2143898702 0.0053812844 110219.2143898765 58626.5054597139 0.0000609418 0.1506854524 0.1508216569 0.0000000000 1933.9231055135 0.0000000000 0.0009139352 12.7905954100 0.0000000000 18.7122651579 7214.5631000000
 7229.7740500000 2929.7520306099 3586.0174033415 3648.3791545916 0.2794843280 7989476.9826005138 0.2791365110 7984402.7481691139 3120978.8180190744 0.0003539502 5419.0577521054 6043.4872044896 7701.3835194464 3976.2380441000 0.9000000000 0.0366696806 368.7841584334 0.0000000000 1895.7392379274 0.8359164702 0.7495473184 20.1543347886 20.1543347886 20.1543347886 0.0053812687 110235.7474425723 0.0053812687 110235.7474425785 58241.8413360872 0.0000609208 0.1506381862 0.1507744933 0.0000000000 1933.3060554188 0.0000000000 0.0009141296 12.7917691862 0.0000000000 18.7745338909 7229.7740500000
 7244.9850000000 2879.3476995274 21493.7310307218 21133.9766821383 0.2856684704 8126100.8005481083 0.2853970925 8121913.9156948598 3159171.0946248425 0.0007825342 5490.8454635311 6122.8980484253 7718.6926438205 3984.6040932549 0.9000000000 0.0316572587 295.5461105863 0.0000000000 1907.2302515562 0.8451222533 0.7578822404 19.8280593535 19.8280593535 19.8280593535 0.0052937551 108445.9621781417 0.0052937551 108445.9621781479 57595.9823392860 0.0000599612 0.1482590035 0.1483930406 0.0000000000 1902.7889646822 0.0000000000 0.0008993384 12.5824347269 0.0000000000 18.4797629391 7244.9850000000
 7260.1959500000 2875.1741138741 3951.2080306079 3917.8528404582 0.2807938502 7965905.5678031379 0.2791121370 7865244.8094648728 3072473.5416504764 0.0004249658 5464.6530207783 6086.6036623049 7736.0971330955 3992.9706846735 0.9000000000 0.0334231047 343.0549559170 0.0000000000 1883.7997534988 0.8383525327 0.7526867124 20.1662851004 20.1662851004 20.1662851004 0.0053812654 110258.5847616081 0.0053775119 110767.0201654825 57825.5763842407 0.0000609255 0.1506348042 0.1507711966 0.0000000000 1933.3579337608 0.0000000000 0.0009143676 12.7976842485 0.0000000000 18.8597636733 7260.1959500000
 7275.4069000000 2884.5691411019 3816.3540173928 3851.6406974741 0.2884610913 8187708.6844019853 0.2866096555 8082063.7856718786 3138635.7887248276 0.0004933051 5553.2239021894 6188.6880803408 7753.4602001962 4001.3353221353 0.9000000000 0.0309860994 290.5975922039 0.0000000000 1911.7101759654 0.8506311970 0.7632870544 19.8291263237 19.8291263237 19.8291263237 0.0052937537 108448.0004788866 0.0052937537 108448.0004788928 57559.3942068083 0.0000599592 0.1482544454 0.1483884940 0.0000000000 1902.7294598888 0.0000000000 0.0008993766 12.5822354132 0.0000000000 18.4873988436 7275.4069000000
