~Version ---------------------------------------------------
VERS.   2.0 : CWLS log ASCII Standard -VERSION 2.0
WRAP.    NO : One line per depth step
DLM . SPACE : Column Data Section Delimiter
~Well ------------------------------------------------------
STRT.ft                 5553.236 : START DEPTH
STOP.ft        7956.265999999999 : STOP DEPTH
STEP.ft        14.83744999999999 : STEP
NULL.                   -9999.25 : NULL VALUE
COMP.                            : COMPANY
WELL.                     bypass : WELL
FLD .                            : FIELD
LOC .                            : LOCATION
PROV.                            : PROVINCE
CNTY.                            : COUNTY
STAT.                            : STATE
CTRY.                            : COUNTRY
SRVC.                            : SERVICE COMPANY
DATE. 2019-07-30 20:43:21.016623 : DATE
UWI .                            : UNIQUE WELL ID
API .                            : API NUMBER
~Curve Information -----------------------------------------
Depth              .ft          : 
KICh               .psi*in^1/2  : 
KICvup             .psi*in^1/2  : 
KICvdown           .psi*in^1/2  : 
nuh                .            : 
Eh                 .psi         : 
nuv                .            : 
Ev                 .psi         : 
Gv                 .psi         : 
Cl                 .ft/min^1/2  : 
Sigma_h            .psi         : 
SigmaH             .psi         : 
SigmaV             .psi         : 
Pore Pressure      .psi         : 
Biot               .            : 
Porosity           .            : 
Permeability       .nD          : 
SoPhi              .            : 
TensileStrength    .psi         : 
Grad_SigmaH        .psi/ft      : 
Grad_Sigma_h       .psi/ft      : 
Std_KICh           .psi*in^1/2  : 
Std_KICvup         .psi*in^1/2  : 
Std_KICvdown       .psi*in^1/2  : 
Std_nuh            .            : 
Std_Eh             .psi         : 
Std_nuv            .            : 
Std_Ev             .psi         : 
Std_Gv             .psi         : 
Std_Cl             .ft/min^1/2  : 
Std_Sigma_h        .psi         : 
Std_SigmaH         .psi         : 
Std_SigmaV         .psi         : 
Std_Pore Pressure  .psi         : 
Std_Biot           .            : 
Std_Porosity       .            : 
Std_Permeability   .nD          : 
Std_SoPhi          .            : 
Std_TensileStrength.psi         : 
Std_Depth          .ft          : 
~Params ----------------------------------------------------
~Other -----------------------------------------------------
Exported from homogenization method
~ASCII -----------------------------------------------------
# ...
 7244.9725500000 2873.9463529993 3414.6314915397 3492.2258166012 0.2641972216 7610850.9698318141 0.2635101115 7556078.5560553791 2988927.5313243177 0.0003793711 5233.4139045826 5835.4442555347 7553.5115075604 3984.5977063787 0.9000000000 0.0397129803 482.2183084579 0.0000000000 1834.8504032740 0.8054473934 0.7223511019 18.9467917067 18.9467917067 18.9467917067 0.0050548632 103577.2802721879 0.0050548632 103577.2802721879 54727.7449034136 0.0000597515 0.1192420606 0.1194373532 0.0000000000 1316.8377853953 0.0000000000 0.0008588547 12.0256954393 0.0000000000 17.7437050831 7244.9725500000
 7261.9304500000 2841.1700246667 3577.9115286553 3536.0490861197 0.2618605962 7543560.1330696074 0.2608097300 7496936.3865033137 2972430.3012889726 0.0001560486 5220.9326670836 5818.7451477970 7572.6244289319 3993.9244938937 0.9000000000 0.0389687278 489.7532504934 0.0000000000 1822.6856680555 0.8012669892 0.7189455618 18.9688341014 18.9688341014 18.9688341014 0.0050548944 103619.4211965125 0.0050553163 107963.4545877385 55165.1722090862 0.0000602021 0.1198916586 0.1200861185 0.0000000000 1325.0330004127 0.0000000000 0.0008591862 12.0448741700 0.0000000000 17.9002524002 7261.9304500000
 7278.8883500000 2825.6900628364 3456.3024021231 3184.2922996131 0.2535830634 7269671.5084131425 0.2528084749 7105009.9865752272 2834954.7243636898 0.0001650728 5182.2413090202 5762.1527421698 7591.7129110160 4003.2512814087 0.9000000000 0.0415229630 571.4126663471 0.0000000000 1791.5774533979 0.7916253781 0.7119550486 18.9670784550 18.9670784550 18.9670784550 0.0050548963 103616.0646691474 0.0050548963 109012.1631231074 55433.5938541822 0.0000603199 0.1200628710 0.1202570362 0.0000000000 1327.1811815136 0.0000000000 0.0008591405 12.0443028232 0.0000000000 17.8877853652 7278.8883500000
 7295.8462500000 2830.9060990301 3494.8987976421 3331.1921613173 0.2537085136 7282373.5140528791 0.2525247640 7100381.3659279821 2833278.3245319636 0.0003714007 5196.7869959759 5777.6535558657 7610.7588604979 4012.5780689236 0.9000000000 0.0418028386 578.4871314463 0.0000000000 1791.2232894139 0.7919099934 0.7122939297 18.9451998288 18.9451998288 18.9451998288 0.0050548948 103574.2389795039 0.0050548948 103574.2389795039 54527.7638586660 0.0000597054 0.1191574236 0.1193528375 0.0000000000 1315.8730296363 0.0000000000 0.0008587762 12.0271288021 0.0000000000 17.7323211755 7295.8462500000
 7312.8041000000 2881.2751029621 3465.1476640909 3477.6565740761 0.2598188089 7480130.8369880421 0.2594409199 7474507.2641051011 2967337.3246016712 0.0001058864 5234.7556710038 5828.5022307560 7629.7707204456 4021.9048290462 0.9000000000 0.0415886279 520.5443769086 0.0000000000 1829.6554837594 0.7970269887 0.7158342545 18.9464948165 18.9464948165 18.9464948165 0.0050548972 103576.7128750916 0.0050548972 103576.7128750916 54535.0137559910 0.0000597118 0.1191692685 0.1193646762 0.0000000000 1316.0082320851 0.0000000000 0.0008587859 12.0283270104 0.0000000000 17.7415890288 7312.8041000000
 7329.7619500000 2866.1007307858 3266.7683130876 3562.6168471590 0.2539828254 7366581.5044835983 0.2534683302 7358744.1186005697 2935272.5309927012 0.0001624948 5195.6131064366 5783.0678430671 7648.7736923075 4031.2315888170 0.9000000000 0.0430775015 576.2331624685 0.0000000000 1809.6717038051 0.7889844012 0.7088379052 18.9479262544 18.9479262544 18.9479262544 0.0050549584 103579.4480551616 0.0050549584 103579.4480551616 54447.9339178438 0.0000597000 0.1191481781 0.1193436329 0.0000000000 1315.7677757010 0.0000000000 0.0008587548 12.0314844663 0.0000000000 17.7518101010 7329.7619500000
 7346.7198500000 2869.5475769283 3641.3678968882 3489.6160340949 0.2584718759 7511306.4992655935 0.2579234313 7503033.1497831950 2982203.9409717731 0.0003670933 5248.2719445008 5845.1312500822 7667.7051118875 4040.5583763320 0.9000000000 0.0414749274 527.5638897094 0.0000000000 1824.0169733156 0.7956110168 0.7143694127 18.9579690262 18.9579690262 18.9579690262 0.0050549222 103598.6583834278 0.0050372517 103044.6077522762 53925.6110407233 0.0000595796 0.1189268778 0.1191228001 0.0000000000 1313.2697144737 0.0000000000 0.0008589819 12.0403452021 0.0000000000 17.8227572299 7346.7198500000
 7363.6777500000 2802.9166961413 3817.3787006274 3528.5368672849 0.2428725502 6907874.7646378921 0.2351471654 6311819.6905684238 2549612.9009362655 0.0001915233 5197.0223228154 5752.8214482877 7686.7088474842 4049.8851638469 0.9000000000 0.0453254416 760.9758667438 0.0000000000 1731.7913356820 0.7812429663 0.7057644969 19.0293129784 19.0293129784 19.0293129784 0.0050552955 103735.2306200062 0.0048918281 100525.5372928202 48842.6403181619 0.0000585879 0.1170331210 0.1172329423 0.0000000000 1292.2171421986 0.0000000000 0.0008599322 12.1531615893 0.0000000000 18.3231262713 7363.6777500000
 7380.6356000000 2705.7840733446 4148.9588547280 4841.1355755581 0.2139827000 6153107.6875744276 0.1880884617 4766967.3501784615 2002253.7489527715 0.0002008382 5042.8662626822 5549.7192588401 7705.5280396967 4059.2119234217 0.9000000000 0.0539618152 1276.7911800905 0.0000000000 1570.3133915806 0.7519297198 0.6832563665 18.9980917323 18.9980917323 18.9980917323 0.0050560017 103675.4716706830 0.0049214317 103267.3116230985 51843.4147989460 0.0000591974 0.1180668027 0.1182645304 0.0000000000 1304.2862506587 0.0000000000 0.0008592663 12.0698819543 0.0000000000 18.1038896163 7380.6356000000
 7397.5934500000 2838.7601536825 4560.0671403057 4814.6162561805 0.2429061606 6607654.6943258364 0.1977115561 5294735.4400979681 2192129.7416828941 0.0003816478 5156.1811488894 5687.8105593720 7724.2796925995 4068.5386837403 0.9000000000 0.0485601077 936.5524245333 0.0000000000 1680.1540859653 0.7688730934 0.6970079099 19.0174327661 19.0174327661 19.0174327661 0.0050567613 103712.5485049647 0.0048043075 97720.7049364486 48416.0024166027 0.0000875358 0.1274638855 0.1277512751 0.0000000000 1328.0621713139 0.0000000000 0.0008593086 12.0793511506 0.0000000000 18.2376972105 7397.5934500000
 7414.5513500000 2782.3271886417 4698.8026468883 3412.4367012118 0.2397694885 6761029.5280883899 0.2281622943 6016140.1915700873 2445696.1812111121 0.0001276291 5215.8387588002 5761.1844533587 7742.9778681667 4077.8654712553 0.9000000000 0.0458440215 819.3168330319 0.0000000000 1713.8905542454 0.7770105272 0.7034597931 18.9919982673 18.9919982673 18.9919982673 0.0050548883 103663.7407082290 0.0050292233 106952.7616671152 52640.8684878606 0.0000596862 0.1189545776 0.1191508054 0.0000000000 1314.3503604070 0.0000000000 0.0008595947 12.0721548529 0.0000000000 18.0635191202 7414.5513500000
 7431.5092500000 2738.1252800598 5275.2654778640 3933.3566731899 0.2434453364 6863859.2194762286 0.2375739604 5999884.4598862417 2421213.7957983967 0.0001851272 5323.0721559098 5875.0754501975 7762.0561831226 4087.1924501265 0.9000000000 0.0413241130 685.3881255865 0.0000000000 1728.6178005781 0.7905628928 0.7162841324 19.2932601793 19.2932601793 19.2932601793 0.0051310199 105252.6429112017 0.0050669744 105573.6772273419 50986.2251959192 0.0000599453 0.1196490365 0.1198501930 0.0000000000 1321.3559149971 0.0000000000 0.0008726733 12.2838406738 0.0000000000 18.4449476371 7431.5092500000
 7448.4671500000 2961.5131412685 6932.2420038016 7418.6828414115 0.2053636376 5005699.7024886729 0.1484691660 3592279.4832462179 1558613.2072625072 0.0003854206 4859.8943027556 5275.1797441075 7780.8155936968 4096.5197290054 0.9000000000 0.0677679231 1717.6951454943 0.0000000000 1507.1172238015 0.7082235362 0.6524690523 19.1196768632 19.1196768632 19.1196768632 0.0044673516 76425.3364126649 0.0037728601 56991.5145574660 28648.9047483344 0.0001115394 0.1320752203 0.1322303373 0.0000000000 1326.7483391831 0.0000000000 0.0008593205 12.6388463614 0.0000000000 18.9421285330 7448.4671500000
 7465.4250000000 2622.3519927902 3217.1027855899 3380.0790545745 0.1590747110 3700063.1373633021 0.1239635281 2400374.5105939554 1065845.0436408359 0.0002028985 4687.9611108724 5007.1867054163 7798.3742271428 4105.8464895210 0.9000000000 0.0825483011 2188.1745922938 0.0000000000 1219.7099469226 0.6707168990 0.6279563603 19.1569507820 19.1569507820 19.1569507820 0.0050632538 103980.3038094731 0.0040060114 70006.9388283655 32965.9913467307 0.0001234676 0.1456759630 0.1459720557 0.0000000000 1463.9114091463 0.0000000000 0.0008597395 12.2818665090 0.0000000000 19.1931328751 7465.4250000000
