~Version ---------------------------------------------------
VERS.   2.0 : CWLS log ASCII Standard -VERSION 2.0
WRAP.    NO : One line per depth step
DLM . SPACE : Column Data Section Delimiter
~Well ------------------------------------------------------
STRT.ft               6039.97275 : START DEPTH
STOP.ft               8231.95595 : STOP DEPTH
STEP.ft       14.389100000000326 : STEP
NULL.                   -9999.25 : NULL VALUE
COMP.                            : COMPANY
WELL.                     bypass : WELL
FLD .                            : FIELD
LOC .                            : LOCATION
PROV.                            : PROVINCE
CNTY.                            : COUNTY
STAT.                            : STATE
CTRY.                            : COUNTRY
SRVC.                            : SERVICE COMPANY
DATE. 2019-07-30 20:43:31.491401 : DATE
UWI .                            : UNIQUE WELL ID
API .                            : API NUMBER
~Curve Information -----------------------------------------
Depth              .ft          : 
KICh               .psi*in^1/2  : 
KICvup             .psi*in^1/2  : 
KICvdown           .psi*in^1/2  : 
nuh                .            : 
Eh                 .psi         : 
nuv                .            : 
Ev                 .psi         : 
Gv                 .psi         : 
Cl                 .ft/min^1/2  : 
Sigma_h            .psi         : 
SigmaH             .psi         : 
SigmaV             .psi         : 
Pore Pressure      .psi         : 
Biot               .            : 
Porosity           .            : 
Permeability       .nD          : 
SoPhi              .            : 
TensileStrength    .psi         : 
Grad_SigmaH        .psi/ft      : 
Grad_Sigma_h       .psi/ft      : 
Std_KICh           .psi*in^1/2  : 
Std_KICvup         .psi*in^1/2  : 
Std_KICvdown       .psi*in^1/2  : 
Std_nuh            .            : 
Std_Eh             .psi         : 
Std_nuv            .            : 
Std_Ev             .psi         : 
Std_Gv             .psi         : 
Std_Cl             .ft/min^1/2  : 
Std_Sigma_h        .psi         : 
Std_SigmaH         .psi         : 
Std_SigmaV         .psi         : 
Std_Pore Pressure  .psi         : 
Std_Biot           .            : 
Std_Porosity       .            : 
Std_Permeability   .nD          : 
Std_SoPhi          .            : 
Std_TensileStrength.psi         : 
Std_Depth          .ft          : 
~Params ----------------------------------------------------
~Other -----------------------------------------------------
Exported from homogenization method
~ASCII -----------------------------------------------------
# ...
 7749.1545500000 2508.7432562522 4096.7335145415 6308.8347063496 0.2483231099 7079454.2903620666 0.2435401791 4876276.5985811558 1955416.9634759887 0.0001958239 6047.8656623606 6614.9828000809 8140.3473821886 4262.0006974610 0.9000000000 0.0273233273 311.4077462607 0.0000000000 1243.6758508844 0.8536392915 0.7804549030 2.2885172057 2.2885172057 2.2885172057 0.0002234374 6387.5762539855 0.0002176468 4504.6406837969 1814.2838914972 0.0000042870 0.0060811147 0.0061002311 0.0000000000 79.7899266839 0.0000000000 0.0000252470 0.2851350811 0.0000000000 1.1713824433 7749.1545500000
 7764.4636500000 2452.2197793782 5169.0487171638 4168.5432368892 0.2509078804 6947395.8815371972 0.2413830411 4446487.8409732217 1788401.6162435743 0.0001852141 6201.7244228340 6757.1127124385 8157.8563406371 4270.4205769771 0.9000000000 0.0256367510 281.4190318503 0.0000000000 1120.1818083574 0.8702613622 0.7987318510 2.1619970597 2.1619970597 2.1619970597 0.0002275250 6209.9081479695 0.0002193472 3848.2425773330 1547.1330810240 0.0000036760 0.0053124008 0.0053328028 0.0000000000 69.0083454352 0.0000000000 0.0000220925 0.2427075888 0.0000000000 0.9065039379 7764.4636500000
 7779.7727500000 2469.0382101431 4208.9982439637 5706.9323338218 0.2483930856 6948579.9142380087 0.2400286352 4625871.1959502771 1858535.3340177201 0.0001851883 6109.3083798378 6665.9103023138 8175.4464901729 4278.8406913617 0.9000000000 0.0266937055 289.8911377377 0.0000000000 1144.1571789393 0.8568258375 0.7852810842 2.3059338124 2.3059338124 2.3059338124 0.0002195743 6335.9582775754 0.0002154076 4626.9553211391 1868.7049907658 0.0000044064 0.0062290447 0.0062474545 0.0000000000 81.9057291690 0.0000000000 0.0000270521 0.3230621051 0.0000000000 1.1943842130 7779.7727500000
 7795.0818500000 2534.8594966181 4246.6002717582 4741.4567650488 0.2405204080 6847463.0273471987 0.2314818868 4728445.4456246747 1914422.1612484001 0.0004379133 5946.4492894542 6498.4323913137 8192.9062429236 4287.2606014152 0.9000000000 0.0307703050 389.9841153118 0.0000000000 1278.1535466063 0.8336580060 0.7628462926 2.2419949294 2.2419949294 2.2419949294 0.0002220492 6203.2352119464 0.0002122325 4112.2346541962 1662.6727471704 0.0000040002 0.0057144361 0.0057334970 0.0000000000 74.7270777975 0.0000000000 0.0000250550 0.2993742793 0.0000000000 1.0480689032 7795.0818500000
 7810.3909500000 2434.6581063896 4144.1461873030 3940.3857066476 0.2510501420 6846419.8707796978 0.2354388640 4230566.3977312585 1710081.8414775347 0.0003028896 6259.6778960133 6806.9317302912 8210.4130304186 4295.6806852624 0.9000000000 0.0254270342 292.1438832694 0.0000000000 1026.5056051809 0.8715225363 0.8014551302 2.1794197133 2.1794197133 2.1794197133 0.0002260717 6100.1391660643 0.0002115221 3676.3949762178 1489.9100236507 0.0000035919 0.0051987663 0.0052188134 0.0000000000 67.5023135040 0.0000000000 0.0000229917 0.2616119166 0.0000000000 0.8676918385 7810.3909500000
 7825.7000000000 2414.7008682713 3238.7545770578 3539.9409807199 0.2516213820 6821429.0037809927 0.2371102486 4151150.5221874169 1677306.4800894335 0.0003964793 6323.9854643408 6868.9928525169 8228.0149950466 4304.1005985041 0.9000000000 0.0247654941 276.6173218793 0.0000000000 977.2447411947 0.8777480420 0.8081047656 2.2014638873 2.2014638873 2.2014638873 0.0002269730 6241.0267749042 0.0002168151 3907.3425141971 1574.8846044958 0.0000037511 0.0054048418 0.0054251424 0.0000000000 70.3244112800 0.0000000000 0.0000225677 0.2535144139 0.0000000000 0.9438010112 7825.7000000000
 7841.0090500000 2441.4072620648 3838.9985869053 3869.5957333532 0.2484257383 6825736.1546581499 0.2346160030 4257413.4305692669 1723045.6935160365 0.0002025888 6246.2863617819 6793.0338330293 8245.6110659403 4312.5206239263 0.9000000000 0.0264115429 297.7639635661 0.0000000000 1045.1934218586 0.8663468936 0.7966176702 2.1981010633 2.1981010633 2.1981010633 0.0002237552 6107.7286724777 0.0002099531 3789.8075614578 1537.4441278442 0.0000037089 0.0053431445 0.0053627694 0.0000000000 69.5568797099 0.0000000000 0.0000241426 0.2749019579 0.0000000000 0.9161116701 7841.0090500000
 7856.3181500000 2445.8012178770 3736.8670519175 3696.7185757115 0.2506161210 6885233.8066991661 0.2371126955 4328231.4767879313 1747634.9564221667 0.0001975847 6274.7484957944 6825.2958372872 8263.1853011497 4320.9405955037 0.9000000000 0.0255734682 291.7502973499 0.0000000000 1051.2965658775 0.8687652036 0.7986881865 2.1977211226 2.1977211226 2.1977211226 0.0002281658 6252.7246115668 0.0002167992 3922.4405690440 1580.4780191348 0.0000037211 0.0053630494 0.0053835636 0.0000000000 69.7565841605 0.0000000000 0.0000219766 0.2448113512 0.0000000000 0.9235790849 7856.3181500000
 7871.6272500000 2392.9288882637 4135.9091983658 3781.8760137847 0.2514377871 6698029.5144994864 0.2303979945 3941112.2306948430 1600394.0678226524 0.0002045748 6369.6610249637 6904.8877524731 8280.7983708821 4329.3606178270 0.9000000000 0.0245593753 276.0542906846 0.0000000000 895.9214183812 0.8771868298 0.8091924100 2.1928088183 2.1928088183 2.1928088183 0.0002268984 6128.3546164765 0.0002107582 3755.1302189115 1521.0469964497 0.0000036101 0.0052150920 0.0052352675 0.0000000000 67.7666740771 0.0000000000 0.0000226389 0.2564205547 0.0000000000 0.8666830806 7871.6272500000
 7886.9363500000 2450.5087283281 4151.8930587796 4618.3306805928 0.2498093495 6782567.7703845017 0.2292319774 4170762.5099687348 1695123.5321974040 0.0004290071 6268.3714657769 6811.0596584093 8298.4219191671 4337.7806199417 0.9000000000 0.0259434680 304.3247247676 0.0000000000 1007.2192652671 0.8635875017 0.7947790102 2.1667496660 2.1667496660 2.1667496660 0.0002170455 5706.1603840767 0.0001920985 3320.3288848994 1368.7549768735 0.0000034845 0.0050420970 0.0050600360 0.0000000000 65.5730448211 0.0000000000 0.0000264803 0.3331393095 0.0000000000 0.8009960262 7886.9363500000
 7902.2454500000 2372.3779645010 3655.3852218939 3936.9318771361 0.2278215198 5865769.7621083111 0.1944214907 3296958.7799383006 1379790.3584645570 0.0002284682 6025.4610138098 6503.1989966766 8315.9447189185 4346.2006117277 0.9000000000 0.0345439409 488.8287605738 0.0000000000 876.1205149689 0.8229558342 0.7624998555 2.0890301744 2.0890301744 2.0890301744 0.0001949047 5122.9525100020 0.0001704631 3001.9211467141 1253.3052846255 0.0000036930 0.0053079915 0.0053217323 0.0000000000 69.5057722340 0.0000000000 0.0000324625 0.5021923757 0.0000000000 0.8686676596 7902.2454500000
 7918.6042000000 2424.8336549623 3736.5156672646 4684.4140614808 0.2178139641 5758831.2259124359 0.1857197683 3354606.2946818611 1413553.1720337309 0.0004736183 5850.7874962173 6323.6701692248 8334.4638001712 4355.1979569489 0.9000000000 0.0408235456 740.8807528647 0.0000000000 1097.1734310161 0.7985839435 0.7388660108 2.0318866809 2.0318866809 2.0318866809 0.0001765820 4639.2678171988 0.0001502849 2637.0466774775 1118.9241451014 0.0000040503 0.0058072243 0.0058175268 0.0000000000 76.4434950606 0.0000000000 0.0000373713 0.7417291418 0.0000000000 0.9278973664 7918.6042000000
 7936.0126000000 2402.2573799008 3778.9641877748 4143.4556440877 0.2113249932 5528803.2716971850 0.1793060722 3139176.8673217720 1330968.0488830111 0.0003080030 5822.6892023053 6279.1152896493 8354.0002927544 4364.7725417040 0.9000000000 0.0433690690 838.9988725144 0.0000000000 1082.1743180534 0.7912179083 0.7337046318 2.0443576681 2.0443576681 2.0443576681 0.0001740105 4592.8743936284 0.0001474778 2672.0652064921 1137.6180378520 0.0000042862 0.0061363294 0.0061459009 0.0000000000 80.9185616685 0.0000000000 0.0000392026 0.8368785387 0.0000000000 0.9682595529 7936.0126000000
 7953.4210500000 2395.8000764198 3427.7467845915 3105.8804040722 0.1982660206 5184579.3964498471 0.1648656607 2974517.1759468955 1276679.0327759383 0.0008711993 5634.0665644597 6066.7400532738 8373.4408788796 4374.3471549459 0.9000000000 0.0499070103 1160.0008254832 0.0000000000 1173.0210724703 0.7627837147 0.7083827864 2.0232530006 2.0232530006 2.0232530006 0.0001684368 4391.2997926377 0.0001402142 2519.8400741559 1080.7993540406 0.0000045404 0.0065010427 0.0065092691 0.0000000000 85.8690755451 0.0000000000 0.0000420221 0.9684280479 0.0000000000 0.9772995059 7953.4210500000
