~Version ---------------------------------------------------
VERS.   2.0 : CWLS log ASCII Standard -VERSION 2.0
WRAP.    NO : One line per depth step
DLM . SPACE : Column Data Section Delimiter
~Well ------------------------------------------------------
STRT.ft                 5533.575 : START DEPTH
STOP.ft        7763.808250000001 : STOP DEPTH
STEP.ft       14.590000000000146 : STEP
NULL.                   -9999.25 : NULL VALUE
COMP.                            : COMPANY
WELL.                     bypass : WELL
FLD .                            : FIELD
LOC .                            : LOCATION
PROV.                            : PROVINCE
CNTY.                            : COUNTY
STAT.                            : STATE
CTRY.                            : COUNTRY
SRVC.                            : SERVICE COMPANY
DATE. 2019-07-30 20:43:20.008820 : DATE
UWI .                            : UNIQUE WELL ID
API .                            : API NUMBER
~Curve Information -----------------------------------------
Depth              .ft          : 
KICh               .psi*in^1/2  : 
KICvup             .psi*in^1/2  : 
KICvdown           .psi*in^1/2  : 
nuh                .            : 
Eh                 .psi         : 
nuv                .            : 
Ev                 .psi         : 
Gv                 .psi         : 
Cl                 .ft/min^1/2  : 
Sigma_h            .psi         : 
SigmaH             .psi         : 
SigmaV             .psi         : 
Pore Pressure      .psi         : 
Biot               .            : 
Porosity           .            : 
Permeability       .nD          : 
SoPhi              .            : 
TensileStrength    .psi         : 
Grad_SigmaH        .psi/ft      : 
Grad_Sigma_h       .psi/ft      : 
Std_KICh           .psi*in^1/2  : 
Std_KICvup         .psi*in^1/2  : 
Std_KICvdown       .psi*in^1/2  : 
Std_nuh            .            : 
Std_Eh             .psi         : 
Std_nuv            .            : 
Std_Ev             .psi         : 
Std_Gv             .psi         : 
Std_Cl             .ft/min^1/2  : 
Std_Sigma_h        .psi         : 
Std_SigmaH         .psi         : 
Std_SigmaV         .psi         : 
Std_Pore Pressure  .psi         : 
Std_Biot           .            : 
Std_Porosity       .            : 
Std_Permeability   .nD          : 
Std_SoPhi          .            : 
Std_TensileStrength.psi         : 
Std_Depth          .ft          : 
~Params ----------------------------------------------------
~Other -----------------------------------------------------
Exported from homogenization method
~ASCII -----------------------------------------------------
# ...
 7691.0683500000 2663.0196367643 3207.4355546095 3752.7959241252 0.2417688255 7070010.3949742103 0.2337571391 5489265.4526394103 2223143.0072842170 0.0002287748 5701.1554379271 6270.5054046757 8120.2137107191 4229.9511086090 0.9000000000 0.0372103543 653.3993886046 0.0000000000 1710.9657787516 0.8152970588 0.7412696362 22.6938222609 22.6938222609 22.6938222609 0.0060164443 123554.7460028603 0.0056803575 96470.7893742332 46837.6621109147 0.0001103976 0.1490101594 0.1492738082 0.0000000000 1710.0854704753 0.0000000000 0.0010249107 14.6257770083 0.0000000000 22.1163352485 7691.0683500000
 7703.1916500000 2518.5498259388 2892.2990310456 2745.7761510018 0.2147572637 6657109.9196252776 0.1980003858 4290015.0947632492 1789645.9843090053 0.0001877496 5653.5952474726 6201.6150139442 8134.0222066560 4236.6182338967 0.9000000000 0.0396099685 1012.5322190863 0.0000000000 1594.5861406093 0.8050708454 0.7339289355 22.6961073927 22.6961073927 22.6961073927 0.0060164313 123559.1216063769 0.0056961079 95663.9658747049 46591.6987616601 0.0001101696 0.1488234296 0.1490874349 0.0000000000 1707.3659324866 0.0000000000 0.0010250977 14.6136814871 0.0000000000 22.1323095790 7703.1916500000
 7715.3150000000 2489.5962944672 3098.0027016185 2988.7945891512 0.2135246500 6714710.9438137747 0.1979675255 4232331.1394143142 1765758.6902696856 0.0006469732 5697.9546291011 6251.2776245349 8147.8909911970 4243.2853861128 0.9000000000 0.0375569505 972.8782087753 0.0000000000 1601.9819311568 0.8102426958 0.7385252098 22.7357439204 22.7357439204 22.7357439204 0.0060164608 123635.1950778667 0.0056554552 83631.7079527070 41264.2924217416 0.0001057784 0.1442349640 0.1445078140 0.0000000000 1648.5545519049 0.0000000000 0.0010260159 14.8363038206 0.0000000000 22.4034303168 7715.3150000000
 7727.4383500000 2434.8609150376 3216.2369804373 3056.2364569399 0.2051655088 6602861.1498168623 0.1926304733 3951454.6636510948 1656612.0200767100 0.0002926509 5722.6917200418 6270.5717499287 8161.8352056786 4249.9525389127 0.9000000000 0.0362884039 1006.6370818325 0.0000000000 1586.6862001500 0.8114683632 0.7405677614 22.2857903989 22.2857903989 22.2857903989 0.0058949255 121155.3256513369 0.0055551056 79696.7916159614 39486.5338726062 0.0001029837 0.1407080659 0.1409766748 0.0000000000 1606.9648228819 0.0000000000 0.0010054889 14.6437096996 0.0000000000 22.0143134315 7727.4383500000
 7739.5616500000 2409.8289624810 3170.3077846869 3039.3297921148 0.1933881464 6278502.9658972574 0.1773555971 3635340.4371177843 1543757.4158848291 0.0002105221 5607.0148179803 6133.1221858895 8175.7841034556 4256.6224610873 0.9000000000 0.0403723739 1287.0653719915 0.0000000000 1528.1338518890 0.7924379265 0.7244615485 22.7394759750 22.7394759750 22.7394759750 0.0060164729 123642.3658533564 0.0055500005 84059.6236295800 41135.3773512571 0.0001056173 0.1437894230 0.1440631601 0.0000000000 1644.5886257336 0.0000000000 0.0010258486 14.8976111917 0.0000000000 22.4286989048 7739.5616500000
 7751.6849500000 2452.5283970614 2831.5567185748 2857.8356507590 0.2054197206 6481190.0612824326 0.1905144002 3915333.3040129761 1644294.9362716582 0.0005068510 5703.5292048096 6241.2000219038 8189.6530066829 4263.2896138872 0.9000000000 0.0381264850 1073.6771550098 0.0000000000 1573.0056040714 0.8051410838 0.7357792843 22.7370353162 22.7370353162 22.7370353162 0.0060164714 123637.6787929173 0.0056377080 83759.5794924967 41202.3314694826 0.0001057508 0.1441554698 0.1444284847 0.0000000000 1647.8544140422 0.0000000000 0.0010260544 14.8549616361 0.0000000000 22.4120953858 7751.6849500000
 7763.8082500000 2452.5283970614 2831.5567185748 2857.8356507590 0.2054197206 6481190.0612824326 0.1905144002 3915333.3040129761 1644294.9362716582 0.0005068510 5703.5292048096 6241.2000219038 8189.6530066829 4263.2896138872 0.9000000000 0.0381264850 1073.6771550098 0.0000000000 1573.0056040714 0.8038838442 0.7346303542 22.7618825208 22.7618825208 22.7618825208 0.0060165523 123685.4265856066 0.0054159087 81810.2545535909 40200.4061114862 0.0001048180 0.1427111782 0.1429872416 0.0000000000 1632.4091209274 0.0000000000 0.0010260750 15.1759041086 0.0000000000 22.5801336561 7763.8082500000
