~Version ---------------------------------------------------
VERS.   2.0 : CWLS log ASCII Standard -VERSION 2.0
WRAP.    NO : One line per depth step
DLM . SPACE : Column Data Section Delimiter
~Well ------------------------------------------------------
STRT.ft               6039.97275 : START DEPTH
STOP.ft               8231.95595 : STOP DEPTH
STEP.ft       14.389100000000326 : STEP
NULL.                   -9999.25 : NULL VALUE
COMP.                            : COMPANY
WELL.                     bypass : WELL
FLD .                            : FIELD
LOC .                            : LOCATION
PROV.                            : PROVINCE
CNTY.                            : COUNTY
STAT.                            : STATE
CTRY.                            : COUNTRY
SRVC.                            : SERVICE COMPANY
DATE. 2019-07-30 20:43:31.491401 : DATE
UWI .                            : UNIQUE WELL ID
API .                            : API NUMBER
~Curve Information -----------------------------------------
Depth              .ft          : 
KICh               .psi*in^1/2  : 
KICvup             .psi*in^1/2  : 
KICvdown           .psi*in^1/2  : 
nuh                .            : 
Eh                 .psi         : 
nuv                .            : 
Ev                 .psi         : 
Gv                 .psi         : 
Cl                 .ft/min^1/2  : 
Sigma_h            .psi         : 
SigmaH             .psi         : 
SigmaV             .psi         : 
Pore Pressure      .psi         : 
Biot               .            : 
Porosity           .            : 
Permeability       .nD          : 
SoPhi              .            : 
TensileStrength    .psi         : 
Grad_SigmaH        .psi/ft      : 
Grad_Sigma_h       .psi/ft      : 
Std_KICh           .psi*in^1/2  : 
Std_KICvup         .psi*in^1/2  : 
Std_KICvdown       .psi*in^1/2  : 
Std_nuh            .            : 
Std_Eh             .psi         : 
Std_nuv            .            : 
Std_Ev             .psi         : 
Std_Gv             .psi         : 
Std_Cl             .ft/min^1/2  : 
Std_Sigma_h        .psi         : 
Std_SigmaH         .psi         : 
Std_SigmaV         .psi         : 
Std_Pore Pressure  .psi         : 
Std_Biot           .            : 
Std_Porosity       .            : 
Std_Permeability   .nD          : 
Std_SoPhi          .            : 
Std_TensileStrength.psi         : 
Std_Depth          .ft          : 
~Params ----------------------------------------------------
~Other -----------------------------------------------------
Exported from homogenization method
~ASCII -----------------------------------------------------
# ...
 6241.4200000000 2686.8376561652 4303.6508502873 4831.7309334277 0.2148562241 6574224.3919719625 0.2116478284 5333275.6559604090 2200846.3397011533 0.0004862751 3864.6937155952 4405.8461797031 6444.3192394774 2621.3701316110 0.9000000000 0.0428842000 822.7484550525 0.0000000000 1677.4866124818 0.7059044544 0.6192010337 2.5258390415 2.5258390415 2.5258390415 0.0001888007 5898.1850598125 0.0001862121 4972.4528393846 2071.5116975466 0.0000049235 0.0075402033 0.0075545469 0.0000000000 86.9056131897 0.0000000000 0.0000446499 1.0050630966 0.0000000000 1.6481656295 6241.4200000000
 6255.8090500000 2714.0213709286 4022.6541102516 3497.8419384856 0.1916364442 5994752.6002804805 0.1844966033 4927395.0111156655 2079791.0146408775 0.0003037306 3621.1546693732 4124.2235902079 6460.1940732070 2627.4135398322 0.9000000000 0.0530261536 1433.2662630637 0.0000000000 1811.5698655580 0.6592630237 0.5788467392 2.5115623199 2.5115623199 2.5115623199 0.0001818496 5638.0213430356 0.0001751256 4534.0923352129 1907.8651390444 0.0000050743 0.0077932541 0.0078059106 0.0000000000 89.8668429910 0.0000000000 0.0000478865 1.2361870519 0.0000000000 1.6436993612 6255.8090500000
 6270.1981500000 2676.0663202485 3806.2123150379 3265.1156837127 0.2005713032 6132938.7691215547 0.1918554800 4811525.8514389237 2018110.4793368038 0.0004809822 3754.2793329346 4265.1143622762 6476.0052236270 2633.4569943395 0.9000000000 0.0489654737 1120.5083583011 0.0000000000 1701.4897245901 0.6802200282 0.5987497114 2.5124390569 2.5124390569 2.5124390569 0.0002056391 6313.0459076400 0.0002004076 5314.8300451020 2171.3209356895 0.0000047037 0.0072053641 0.0072224748 0.0000000000 82.8957840144 0.0000000000 0.0000380462 0.8030019153 0.0000000000 1.5746066257 6270.1981500000
 6284.5872500000 2730.7077663359 4287.2424625140 5050.6763762799 0.2327778336 7009763.2467372436 0.2138518262 5713020.5654515000 2345118.3931757803 0.0006068083 3955.8404916868 4524.4557811115 6492.0419367324 2639.5004105364 0.9000000000 0.0377282443 741.2438962666 0.0000000000 1681.3622659305 0.7199288674 0.6294511213 2.5161916387 2.5161916387 2.5161916387 0.0001853587 5705.2451767898 0.0001763282 4557.7243018264 1913.0615243674 0.0000049770 0.0076450009 0.0076581856 0.0000000000 88.1195922716 0.0000000000 0.0000464945 1.1782403487 0.0000000000 1.6164345910 6284.5872500000
 6298.9763500000 2720.7316549050 3794.6446348825 4208.5026149147 0.1903997747 5869526.5365349464 0.1755779259 4688552.2009990159 1994235.7561000243 0.0004372748 3617.3737385024 4110.4456174961 6507.9450362942 2645.5438267334 0.9000000000 0.0541480700 1535.0808129271 0.0000000000 1786.5056388030 0.6525577156 0.5742796190 2.4950978162 2.4950978162 2.4950978162 0.0001845654 5621.4394780629 0.0001738882 4360.7786985642 1836.8313704155 0.0000049121 0.0075562173 0.0075691302 0.0000000000 87.0652037250 0.0000000000 0.0000467783 1.1856712547 0.0000000000 1.5799560003 6298.9763500000
 6313.3654500000 2606.4569565268 4057.0484054419 3343.2743358216 0.2027471248 6021412.2393533289 0.1923255683 4310600.9737131512 1807149.1947475963 0.0007272143 3907.9609812893 4408.5992381023 6523.7716097366 2651.5872429304 0.9000000000 0.0479789115 1054.4415865245 0.0000000000 1586.6132945007 0.6982962214 0.6189980625 2.4484645118 2.4484645118 2.4484645118 0.0001943140 5851.8016464319 0.0001882918 4472.0765994794 1857.1965306123 0.0000045484 0.0070086338 0.0070236680 0.0000000000 80.5472775250 0.0000000000 0.0000423795 0.8918446090 0.0000000000 1.5106244624 6313.3654500000
 6327.6333500000 2665.9496360185 3595.9932114020 3979.3895067690 0.2106664440 6382205.5111602936 0.2026124451 4983034.9130690955 2070574.6543832496 0.0002325466 3896.1116653560 4423.2763144674 6539.6131649229 2657.5797516205 0.9000000000 0.0448576162 933.5951454102 0.0000000000 1656.2471084210 0.6990411849 0.6157296812 2.5212799451 2.5212799451 2.5212799451 0.0001925003 5926.7615200298 0.0001878775 4776.0514312634 1988.3558539452 0.0000048243 0.0074077744 0.0074224577 0.0000000000 85.2863359863 0.0000000000 0.0000442063 0.9882970845 0.0000000000 1.6092022123 6327.6333500000
 6341.7800000000 2728.2380325377 4427.7194903732 4938.6408745253 0.1964225394 6149283.8040984841 0.1901229127 5180086.9255175972 2176753.9036174491 0.0002921990 3690.6010278813 4204.5736087546 6555.2218055145 2663.5213307615 0.9000000000 0.0516265868 1421.9179982098 0.0000000000 1838.0164733929 0.6629958164 0.5819503401 2.5569519223 2.5569519223 2.5569519223 0.0001818510 5751.8977283420 0.0001789548 4927.1791712068 2067.6146515661 0.0000053737 0.0082330948 0.0082456307 0.0000000000 95.0508229150 0.0000000000 0.0000489440 1.3414489092 0.0000000000 1.7382292972 6341.7800000000
 6355.9266500000 2715.8516444226 3837.9149266622 4109.2348186735 0.1992878892 6217689.2862406084 0.1933655238 5265123.2925811857 2206188.5601369417 0.0002841270 3720.2194646242 4238.6678991064 6570.7665161818 2669.4629097245 0.9000000000 0.0497516331 1209.5739597362 0.0000000000 1801.1788854503 0.6668843321 0.5853150405 2.5288957965 2.5288957965 2.5288957965 0.0001824273 5654.4072405216 0.0001755652 4581.5206512056 1929.9415904385 0.0000051236 0.0078658981 0.0078785100 0.0000000000 90.7195708479 0.0000000000 0.0000487322 1.2431787065 0.0000000000 1.6586700038 6355.9266500000
 6370.0733500000 2678.0612659733 3641.4978998526 3692.4229224526 0.1994909439 6086119.7190922461 0.1900180251 4742461.9243843192 1992412.5075679773 0.0003176326 3807.1544850077 4314.5463707122 6586.3205867419 2675.4045902755 0.9000000000 0.0496603823 1185.3887950395 0.0000000000 1705.5269848940 0.6773150219 0.5976625819 2.5265282934 2.5265282934 2.5265282934 0.0001875067 5748.3075001147 0.0001784038 4557.7755661183 1915.1360871733 0.0000048934 0.0075166845 0.0075302818 0.0000000000 86.5989285966 0.0000000000 0.0000464831 1.0911369673 0.0000000000 1.6079053995 6370.0733500000
 6384.2200000000 2701.4514753288 3269.7826965422 3045.2351859827 0.2006097798 6158172.8830432314 0.1899731149 4940785.1316557070 2075811.7672580299 0.0004687597 3782.6467850061 4295.5672181703 6601.9071665770 2681.3461692385 0.9000000000 0.0489054380 1113.8649736149 0.0000000000 1714.1961906748 0.6728413523 0.5924994416 2.5388732332 2.5388732332 2.5388732332 0.0001882288 5780.4504075369 0.0001784685 4621.2678764584 1940.7109082982 0.0000049246 0.0075617872 0.0075754616 0.0000000000 87.1342852683 0.0000000000 0.0000462070 1.1084669340 0.0000000000 1.6130655448 6384.2200000000
 6398.3666500000 2698.7629965447 5410.6585820200 3694.5705245900 0.2040827433 6218645.2156008016 0.1929095846 4957019.0221031671 2077938.6890914880 0.0006195430 3827.7704083637 4344.2336871764 6617.5142022552 2687.2877483795 0.9000000000 0.0479789378 1133.1675418366 0.0000000000 1704.0227718337 0.6789597916 0.5982418042 2.4670789114 2.4670789114 2.4670789114 0.0001924483 5856.7873932700 0.0001865204 4581.6658315294 1905.8441678410 0.0000045467 0.0069926182 0.0070077577 0.0000000000 80.4020355031 0.0000000000 0.0000419652 0.8480304658 0.0000000000 1.5294672891 6398.3666500000
 6412.9361000000 2641.5683764552 3901.9995321333 3295.0541911765 0.2062573197 6218791.9080267660 0.1992483216 4636095.7866636440 1932809.8230990227 0.0005785299 3975.4999605669 4491.0443478728 6633.6523243619 2693.4069116941 0.9000000000 0.0462649331 945.6686271875 0.0000000000 1625.3399407425 0.7003101665 0.6199188482 2.4230285147 2.4230285147 2.4230285147 0.0001918483 5809.1143464302 0.0001868539 4431.6541299020 1838.6876054849 0.0000043954 0.0067719434 0.0067873000 0.0000000000 77.7867492950 0.0000000000 0.0000406216 0.7859407855 0.0000000000 1.4867930269 6412.9361000000
 6427.9283000000 2677.7704193854 3929.2992744503 3571.5407864108 0.2124441970 6455217.7127663922 0.2065460674 5058046.1047988404 2096014.9042667327 0.0004149178 3985.9906520408 4518.4042450704 6650.3009568178 2699.7036339897 0.9000000000 0.0436553528 831.9678603581 0.0000000000 1643.6655527541 0.7029332056 0.6201050270 2.4599290661 2.4599290661 2.4599290661 0.0002052839 6270.1957688620 0.0002018163 5182.7041371257 2117.3750277820 0.0000044217 0.0067826636 0.0068005670 0.0000000000 77.9076045926 0.0000000000 0.0000350053 0.6047625794 0.0000000000 1.4958803071 6427.9283000000
