~Version ---------------------------------------------------
VERS.   2.0 : CWLS log ASCII Standard -VERSION 2.0
WRAP.    NO : One line per depth step
DLM . SPACE : Column Data Section Delimiter
~Well ------------------------------------------------------
STRT.ft               5857.54595 : START DEPTH
STOP.ft       7958.7521000000015 : STOP DEPTH
STEP.ft       14.211900000000242 : STEP
NULL.                   -9999.25 : NULL VALUE
COMP.                            : COMPANY
WELL.                     bypass : WELL
FLD .                            : FIELD
LOC .                            : LOCATION
PROV.                            : PROVINCE
CNTY.                            : COUNTY
STAT.                            : STATE
CTRY.                            : COUNTRY
SRVC.                            : SERVICE COMPANY
DATE. 2019-07-30 20:43:36.147719 : DATE
UWI .                            : UNIQUE WELL ID
API .                            : API NUMBER
~Curve Information -----------------------------------------
Depth              .ft          : 
KICh               .psi*in^1/2  : 
KICvup             .psi*in^1/2  : 
KICvdown           .psi*in^1/2  : 
nuh                .            : 
Eh                 .psi         : 
nuv                .            : 
Ev                 .psi         : 
Gv                 .psi         : 
Cl                 .ft/min^1/2  : 
Sigma_h            .psi         : 
SigmaH             .psi         : 
SigmaV             .psi         : 
Pore Pressure      .psi         : 
Biot               .            : 
Porosity           .            : 
Permeability       .nD          : 
SoPhi              .            : 
TensileStrength    .psi         : 
Grad_SigmaH        .psi/ft      : 
Grad_Sigma_h       .psi/ft      : 
Std_KICh           .psi*in^1/2  : 
Std_KICvup         .psi*in^1/2  : 
Std_KICvdown       .psi*in^1/2  : 
Std_nuh            .            : 
Std_Eh             .psi         : 
Std_nuv            .            : 
Std_Ev             .psi         : 
Std_Gv             .psi         : 
Std_Cl             .ft/min^1/2  : 
Std_Sigma_h        .psi         : 
Std_SigmaH         .psi         : 
Std_SigmaV         .psi         : 
Std_Pore Pressure  .psi         : 
Std_Biot           .            : 
Std_Porosity       .            : 
Std_Permeability   .nD          : 
Std_SoPhi          .            : 
Std_TensileStrength.psi         : 
Std_Depth          .ft          : 
~Params ----------------------------------------------------
~Other -----------------------------------------------------
Exported from homogenization method
~ASCII -----------------------------------------------------
# ...
 7643.5218500000 2828.3984866768 5180.6515145872 4051.8955536841 0.2940201645 8253444.6682205303 0.2829537652 7609146.8434788352 2956245.6186289592 0.0000911948 5901.5053712382 6539.3195950587 8044.4294259878 4203.7989864202 0.9000000000 0.0269096394 292.3364042500 0.0000000000 1903.4646983839 0.8555375027 0.7720924316 22.7835304168 22.7835304168 22.7835304168 0.0060166621 123727.0471131966 0.0059649468 118614.7262311934 59405.3124960892 0.0000692008 0.1607696623 0.1609415472 0.0000000000 1995.7855724612 0.0000000000 0.0010270451 14.4150580281 0.0000000000 22.7258808173 7643.5218500000
 7655.6727500000 2704.5989444649 3290.3072008954 3805.2780051038 0.2421326823 6720999.3090040684 0.2354503746 5056210.5277947122 2045145.1705797466 0.0002460435 5725.2632373882 6266.3486950792 8058.4186024857 4210.4821137806 0.9000000000 0.0382209574 658.4589271067 0.0000000000 1719.2583628330 0.8185235837 0.7478458686 22.3231611044 22.3231611044 22.3231611044 0.0058949390 121227.1597915256 0.0058948359 118034.5502604780 54985.8552134692 0.0000864336 0.1441400800 0.1443881407 0.0000000000 1696.0086486783 0.0000000000 0.0010059590 14.1428116889 0.0000000000 22.2663995897 7655.6727500000
 7667.8236500000 2682.0611753590 3682.1995275030 3489.1696456605 0.2561723456 7257348.7587957140 0.2534972498 5606098.5756925624 2234803.1381065929 0.0001234601 5881.3175152815 6459.0526313303 8072.3177086370 4217.1663365037 0.9000000000 0.0295891324 422.5981128609 0.0000000000 1798.1934913169 0.8423580048 0.7670126210 22.7835142973 22.7835142973 22.7835142973 0.0060167380 123727.0161027426 0.0060071552 120470.0238259722 57306.7527144745 0.0000690522 0.1604341622 0.1606064040 0.0000000000 1991.5766384801 0.0000000000 0.0010274421 14.4122337701 0.0000000000 22.7257728782 7667.8236500000
 7679.9745500000 2617.1159270979 3575.0603373253 3949.9475243649 0.2414862391 7058865.9623565562 0.2352850634 5168370.0346340938 2090811.4139098770 0.0005774889 5797.7901306655 6366.3720238655 8086.4323851811 4223.8483184751 0.9000000000 0.0329192538 576.1238751963 0.0000000000 1730.5559766612 0.8289574376 0.7549230916 22.7837235563 22.7837235563 22.7837235563 0.0060164375 123727.4186188198 0.0058217816 97078.2860759474 46185.0200966596 0.0001156416 0.1486139635 0.1488836487 0.0000000000 1756.3599491745 0.0000000000 0.0010266698 14.6966732502 0.0000000000 22.7271757416 7679.9745500000
 7692.1254500000 2560.2944928652 2884.5928884035 3041.9950027656 0.2137178415 6302963.3083533738 0.2028358522 4084913.8643183880 1697826.9672582876 0.0002835685 5657.3616120683 6176.6720393066 8100.3253029331 4230.5303004465 0.9000000000 0.0407408438 961.5904111613 0.0000000000 1612.9832250722 0.8029863891 0.7354744341 22.3231639267 22.3231639267 22.3231639267 0.0058949769 121227.1652174878 0.0056458845 94795.8449407594 44923.7182108259 0.0001129351 0.1450808949 0.1453460900 0.0000000000 1714.9009580036 0.0000000000 0.0010055281 14.4052748729 0.0000000000 22.2664185967 7692.1254500000
 7704.2763500000 2550.6821059271 3011.9213844122 3024.9193546183 0.2120068408 6337999.4443540415 0.1997897995 4102107.3035596958 1709401.4656952177 0.0001898420 5638.9133843754 6161.8476806876 8114.1007803174 4237.2156538849 0.9000000000 0.0415767621 1015.3980214223 0.0000000000 1598.8069080220 0.7997957758 0.7319199271 22.7842947822 22.7842947822 22.7842947822 0.0060164746 123728.5173951544 0.0058332620 90955.7386444822 43618.4003997417 0.0001131153 0.1461575507 0.1464317654 0.0000000000 1723.4687772527 0.0000000000 0.0010266366 14.6976294737 0.0000000000 22.7310050418 7704.2763500000
 7716.4272500000 2583.3691167875 3812.1317138913 3274.9251969613 0.2309963306 6672872.5278512789 0.2181284150 4412443.2582340986 1804977.2808250987 0.0002593855 5830.5268511134 6372.5977218320 8127.9710071137 4243.8976505300 0.9000000000 0.0340087396 679.4505157484 0.0000000000 1696.6248151643 0.8258482216 0.7555992770 22.7836451346 22.7836451346 22.7836451346 0.0060165060 123727.2677687829 0.0059976615 112611.3042291763 53118.3628397820 0.0000865144 0.1449106999 0.1451677171 0.0000000000 1702.1830011340 0.0000000000 0.0010269935 14.4706119722 0.0000000000 22.7266501117 7716.4272500000
 7728.5781500000 2638.8148752945 3463.9853911463 3683.6059607856 0.2395527863 6821987.1141156815 0.2368125595 4886980.7593558282 1975361.5335212769 0.0005130286 5875.3426260272 6425.7013674516 8141.9615720186 4250.5796325014 0.9000000000 0.0338768144 571.3898747020 0.0000000000 1730.4368855724 0.8314208956 0.7602100298 22.3233446237 22.3233446237 22.3233446237 0.0058949794 121227.5127948549 0.0059024326 116929.3779754047 55468.9621342212 0.0000675644 0.1570467041 0.1572156289 0.0000000000 1949.2040270266 0.0000000000 0.0010064627 14.1316841181 0.0000000000 22.2676299488 7728.5781500000
 7740.7290500000 2649.8133097385 3220.2259777271 3388.0092123984 0.2484677207 7164488.8690027371 0.2428227588 5335813.2336053699 2140760.2207645327 0.0002231517 5897.3765814574 6471.2391451763 8155.9952676155 4257.2638258770 0.9000000000 0.0316018471 494.9469264663 0.0000000000 1761.6912703965 0.8359986641 0.7618631970 22.7837251576 22.7837251576 22.7837251576 0.0060164478 123727.4216947677 0.0059694526 102314.9466371311 48412.5203289040 0.0000841827 0.1418429379 0.1421055062 0.0000000000 1662.3696851003 0.0000000000 0.0010268534 14.5360927907 0.0000000000 22.7271866108 7740.7290500000
 7752.8800000000 2595.9234284413 2934.7909746223 3466.1022948459 0.2259792805 6605589.3378510866 0.2195885639 4470912.1996623864 1832475.9554878562 0.0002704758 5810.7903265037 6349.5913847945 8169.9549054161 4263.9470100927 0.9000000000 0.0372316179 745.3593773898 0.0000000000 1670.2154386309 0.8189977640 0.7495008728 22.7838399750 22.7838399750 22.7838399750 0.0060164653 123727.6425502710 0.0059409067 100613.2779293271 47424.9209931397 0.0000837431 0.1412160888 0.1414798212 0.0000000000 1654.5477649733 0.0000000000 0.0010267317 14.5663719390 0.0000000000 22.7279563207 7752.8800000000
 7765.0309500000 2623.3216186198 3359.0052370066 3531.8446574313 0.2298177439 6678140.4452563692 0.2238808945 4702769.2166317552 1919677.6589621797 0.0001666814 5797.1735397549 6340.1922495151 8183.8489108336 4270.6290188791 0.9000000000 0.0377144853 725.3468641189 0.0000000000 1680.9507438954 0.8165057281 0.7465744280 22.7834972626 22.7834972626 22.7834972626 0.0060164993 123726.9833402730 0.0059261196 110069.5076869487 51295.7018263779 0.0000856968 0.1436896742 0.1439488701 0.0000000000 1687.2562082840 0.0000000000 0.0010264998 14.5421949912 0.0000000000 22.7256585429 7765.0309500000
 7777.1818500000 2581.7085636350 3866.7268540580 3334.3542188028 0.2283879850 6746141.5965176439 0.2230489159 4564097.7974743163 1864055.6322847332 0.0002633669 5869.9891865438 6419.1757366315 8197.7209643921 4277.3120544555 0.9000000000 0.0347229932 672.1376504340 0.0000000000 1690.7434361927 0.8253858352 0.7547707254 22.3239108610 22.3239108610 22.3239108610 0.0058949506 121228.6019774841 0.0058265581 94785.7051207861 45285.7088603687 0.0001134520 0.1460575689 0.1463210031 0.0000000000 1724.7769926358 0.0000000000 0.0010062064 14.2665935299 0.0000000000 22.2714257426 7777.1818500000
 7789.3327500000 2553.4538557729 3075.1002230819 2983.8362139163 0.2206984680 6494345.5786280651 0.2148981969 4212579.2271459978 1733557.3517392029 0.0005397546 5858.1437578807 6390.1625773285 8211.6935789069 4283.9963689626 0.9000000000 0.0360269623 759.8445246079 0.0000000000 1659.7550129684 0.8203735522 0.7520726031 22.7843570716 22.7843570716 22.7843570716 0.0060164816 123728.6372072575 0.0059046375 92173.5878831101 44069.9390623696 0.0001137114 0.1469062696 0.1471790898 0.0000000000 1732.3340416598 0.0000000000 0.0010270046 14.6360323056 0.0000000000 22.7314227363 7789.3327500000
 7801.4836500000 2521.1272957183 3150.3545659348 3446.4986127647 0.2171592552 6487541.0527378488 0.2087602066 4128315.0917513669 1707308.9042676396 0.0002788150 5838.2783506057 6371.2851059008 8225.6721221956 4290.6783509340 0.9000000000 0.0358937293 816.7379951290 0.0000000000 1642.0534652934 0.8166760826 0.7483548787 22.7840087197 22.7840087197 22.7840087197 0.0060164989 123727.9671355194 0.0058010874 91486.4583655791 43880.4735475430 0.0001132937 0.1462596895 0.1465337089 0.0000000000 1725.3223113194 0.0000000000 0.0010267960 14.7082738659 0.0000000000 22.7290875861 7801.4836500000
