~Version ---------------------------------------------------
VERS.   2.0 : CWLS log ASCII Standard -VERSION 2.0
WRAP.    NO : One line per depth step
DLM . SPACE : Column Data Section Delimiter
~Well ------------------------------------------------------
STRT.ft               5569.94125 : START DEPTH
STOP.ft        8198.326850000001 : STOP DEPTH
STEP.ft        14.50250000000051 : STEP
NULL.                   -9999.25 : NULL VALUE
COMP.                            : COMPANY
WELL.                     bypass : WELL
FLD .                            : FIELD
LOC .                            : LOCATION
PROV.                            : PROVINCE
CNTY.                            : COUNTY
STAT.                            : STATE
CTRY.                            : COUNTRY
SRVC.                            : SERVICE COMPANY
DATE. 2019-07-30 20:43:31.496337 : DATE
UWI .                            : UNIQUE WELL ID
API .                            : API NUMBER
~Curve Information -----------------------------------------
Depth              .ft          : 
KICh               .psi*in^1/2  : 
KICvup             .psi*in^1/2  : 
KICvdown           .psi*in^1/2  : 
nuh                .            : 
Eh                 .psi         : 
nuv                .            : 
Ev                 .psi         : 
Gv                 .psi         : 
Cl                 .ft/min^1/2  : 
Sigma_h            .psi         : 
SigmaH             .psi         : 
SigmaV             .psi         : 
Pore Pressure      .psi         : 
Biot               .            : 
Porosity           .            : 
Permeability       .nD          : 
SoPhi              .            : 
TensileStrength    .psi         : 
Grad_SigmaH        .psi/ft      : 
Grad_Sigma_h       .psi/ft      : 
Std_KICh           .psi*in^1/2  : 
Std_KICvup         .psi*in^1/2  : 
Std_KICvdown       .psi*in^1/2  : 
Std_nuh            .            : 
Std_Eh             .psi         : 
Std_nuv            .            : 
Std_Ev             .psi         : 
Std_Gv             .psi         : 
Std_Cl             .ft/min^1/2  : 
Std_Sigma_h        .psi         : 
Std_SigmaH         .psi         : 
Std_SigmaV         .psi         : 
Std_Pore Pressure  .psi         : 
Std_Biot           .            : 
Std_Porosity       .            : 
Std_Permeability   .nD          : 
Std_SoPhi          .            : 
Std_TensileStrength.psi         : 
Std_Depth          .ft          : 
~Params ----------------------------------------------------
~Other -----------------------------------------------------
Exported from homogenization method
~ASCII -----------------------------------------------------
# ...
 5975.6220500000 2710.7935286728 3872.0910772613 3473.5252409998 0.2021438540 5460397.8685180843 0.1962316295 4456515.0691357385 1862882.2588267468 0.0005174483 3557.2753828221 4011.4970510780 6185.9086778974 2509.6563626626 0.9000000000 0.0573044973 1362.7094903783 0.0000000000 1569.9284062247 0.6713103703 0.5952979210 20.6165445580 20.6165445580 20.6165445580 0.0054740568 112345.3931170915 0.0053335523 98465.6074265875 47220.3529615097 0.0000829053 0.1330925175 0.1333434436 0.0000000000 1446.8693292914 0.0000000000 0.0009310403 13.1822316314 0.0000000000 19.9246103066 5975.6220500000
 5990.0934000000 2720.4493598975 3246.7783791838 3858.9320017617 0.2098376183 5692846.1885077702 0.2044156996 4685702.3092863243 1944973.5256587034 0.0005313194 3626.7011389576 4097.2474422368 6201.7630041965 2515.7343055268 0.9000000000 0.0543264184 1217.5423041344 0.0000000000 1599.5924357368 0.6840039326 0.6054498481 20.6052285838 20.6052285838 20.6052285838 0.0054744152 112323.7045162860 0.0053103165 106021.3444618880 49993.5244959229 0.0000847731 0.1353228253 0.1355694813 0.0000000000 1474.2575847251 0.0000000000 0.0009306792 13.1416266512 0.0000000000 19.8462028300 5990.0934000000
 6004.5648000000 2717.3756578063 3498.9062861543 3068.8437039772 0.2036947435 5337171.9575755158 0.1946931869 4320733.1525031058 1808136.3414741117 0.0005197394 3575.3883032436 4018.7874280029 6217.5333621499 2521.8122697873 0.9000000000 0.0580696519 1402.7613479159 0.0000000000 1559.4185808324 0.6692887098 0.5954450360 20.6086687943 20.6086687943 20.6086687943 0.0054743394 112330.2989465414 0.0052937429 104134.1589923504 49209.8032524716 0.0000842328 0.1346181682 0.1348661552 0.0000000000 1465.9428802657 0.0000000000 0.0009307632 13.1543754409 0.0000000000 19.8700117431 6004.5648000000
 6019.0361500000 2702.3525795341 3130.5654586222 3153.6245277725 0.1995447844 5411542.9166180491 0.1894229037 4285458.9236012558 1800632.9451535128 0.0005181153 3570.3797909795 4021.5128363524 6233.2827523884 2527.8902131115 0.9000000000 0.0585696618 1446.1410879418 0.0000000000 1548.6376395695 0.6681323614 0.5931813171 20.6293323640 20.6293323640 20.6293323640 0.0054743878 112369.9157024142 0.0052292045 95268.5235380358 45656.5541498079 0.0000818489 0.1315487931 0.1318027984 0.0000000000 1429.5273639765 0.0000000000 0.0009310743 13.2026811132 0.0000000000 20.0127719035 6019.0361500000
 6033.5075000000 2704.7055259461 3512.5801451878 3141.1073678328 0.2105130546 5896200.8995691473 0.1990610082 4586965.7571031973 1910829.0925123929 0.0005323943 3696.6854358112 4183.7682373647 6249.0760815224 2533.9681562254 0.9000000000 0.0537387299 1244.9211321351 0.0000000000 1585.2504816064 0.6934222320 0.6126926064 20.9666163818 20.9666163818 20.9666163818 0.0055707142 114305.5120060506 0.0054293553 105667.4958955745 51055.1546931871 0.0000860864 0.1376351888 0.1378863432 0.0000000000 1498.5744627383 0.0000000000 0.0009474425 13.3813422424 0.0000000000 20.1738724168 6033.5075000000
 6047.9788500000 2734.8345791286 3433.8777216368 4049.9146950873 0.2195218727 5976773.0865377616 0.2108369071 4945057.7957342537 2039519.9326614428 0.0005121417 3722.9900646265 4213.0815685457 6265.0717782181 2540.0460993829 0.9000000000 0.0513974334 1088.8603896133 0.0000000000 1628.6154733050 0.6966098383 0.6155759068 20.5999146966 20.5999146966 20.5999146966 0.0054739409 112313.5228746090 0.0053314779 105290.4640712690 49867.8902894571 0.0000846484 0.1352237485 0.1354705394 0.0000000000 1472.7579700096 0.0000000000 0.0009308291 13.1440671967 0.0000000000 19.8092746136 6047.9788500000
 6062.4502000000 2719.4778455397 3168.3517858525 3132.6030323654 0.2143479304 5796616.7733627353 0.2063436549 4698893.5953040058 1947192.3699266077 0.0005283204 3714.3051277204 4191.6491103087 6280.9818100666 2546.1240426635 0.9000000000 0.0531126979 1177.1067222948 0.0000000000 1603.8691776029 0.6914117184 0.6126739198 20.6139441725 20.6139441725 20.6139441725 0.0054739560 112340.4079797041 0.0053227760 99717.8823568839 47677.3007725198 0.0000831951 0.1334213356 0.1336716175 0.0000000000 1451.0053425270 0.0000000000 0.0009310574 13.1754236255 0.0000000000 19.9066315637 6062.4502000000
 6076.9216000000 2694.3186046280 3493.0915401464 3291.0173095444 0.2125890618 6000140.9338915953 0.2054776812 4727851.6116023939 1960232.3318110628 0.0005242011 3755.2724569213 4250.0930951026 6296.9209256532 2552.2020069240 0.9000000000 0.0513108614 1131.1340043734 0.0000000000 1608.4370067474 0.6993825780 0.6179563773 20.6099756800 20.6099756800 20.6099756800 0.0054740938 112332.8027671507 0.0052920410 102429.0299478765 48812.2351627479 0.0000838760 0.1341992089 0.1344479921 0.0000000000 1460.7680124432 0.0000000000 0.0009309193 13.1606969524 0.0000000000 19.8791016739 6076.9216000000
 6091.3929500000 2733.5109545581 3803.3568749219 3612.0066860758 0.2130149763 5720791.2674276736 0.2013654519 4690570.7718622945 1950507.9265463240 0.0005755154 3681.6326934439 4153.2502232447 6312.8273227428 2558.2799498317 0.9000000000 0.0550847633 1265.2086174231 0.0000000000 1591.7677173776 0.6818227386 0.6043991454 20.6034476042 20.6034476042 20.6034476042 0.0054741189 112320.3020477821 0.0053023412 105469.7338582520 50304.8089041534 0.0000848041 0.1353937574 0.1356402737 0.0000000000 1474.9636783925 0.0000000000 0.0009308190 13.1485551950 0.0000000000 19.8334788267 6091.3929500000
 6105.8643000000 2673.2665781650 3486.2410460593 3457.1586961016 0.2032081855 5769847.0471276622 0.1947388166 4370270.6721176058 1828851.1337143651 0.0002714668 3727.6501784490 4207.1887251870 6328.6923619912 2564.3578933621 0.9000000000 0.0542779371 1302.6550328499 0.0000000000 1566.7017270051 0.6890406531 0.6105032794 20.6204916452 20.6204916452 20.6204916452 0.0054738138 112352.9665301215 0.0053015339 96229.6381632984 46526.7610304998 0.0000823597 0.1323720706 0.1326244146 0.0000000000 1438.4327885778 0.0000000000 0.0009312415 13.2016572549 0.0000000000 19.9516741608 6105.8643000000
 6120.3566500000 2696.4251028006 3467.4085366978 3413.8869241178 0.2152418622 6120563.3097128123 0.2045035948 4781344.6655161660 1982559.7682006690 0.0005413493 3796.3138939168 4299.9637022503 6344.6958202676 2570.4448481737 0.9000000000 0.0509876671 1127.7043526323 0.0000000000 1608.6071486012 0.7025675052 0.6202765804 20.6077423570 20.6077423570 20.6077423570 0.0054739149 112328.5273324571 0.0052908371 102134.0320857906 48704.9906475017 0.0000837911 0.1340905037 0.1343394683 0.0000000000 1459.4746448951 0.0000000000 0.0009309781 13.1635136035 0.0000000000 19.8634526473 6120.3566500000
 6134.8700000000 2738.1282209294 3191.9636503547 3384.7697110933 0.2161345750 5677491.9014955685 0.2071063908 4689669.7033451684 1941647.7895711488 0.0002580773 3740.4168939236 4207.2642328962 6360.7070697297 2576.5404504113 0.9000000000 0.0536747128 1187.9920267584 0.0000000000 1606.1057444527 0.6857951730 0.6096978247 20.5942214435 20.5942214435 20.5942214435 0.0054738732 112302.6215420504 0.0053718517 107616.4701964068 51125.4202134886 0.0000854567 0.1363390420 0.1365837549 0.0000000000 1485.6109597498 0.0000000000 0.0009308163 13.1267359435 0.0000000000 19.7694575661 6134.8700000000
 6149.3833500000 2740.4098086925 3497.3706066451 3617.0832930000 0.2224538090 5924818.2793312715 0.2159408494 5026199.7759098243 2065845.2072795697 0.0005890112 3789.6382643928 4274.3042890375 6376.6828075804 2582.6360518972 0.9000000000 0.0507646560 1043.9036755907 0.0000000000 1640.3329356010 0.6950785218 0.6162631355 20.5917990538 20.5917990538 20.5917990538 0.0054738211 112297.9746733936 0.0053908902 109404.1908268697 51770.1853870477 0.0000859589 0.1369978421 0.1372413545 0.0000000000 1493.3668268277 0.0000000000 0.0009307679 13.1277917099 0.0000000000 19.7528156302 6149.3833500000
 6163.8966500000 2712.6157881839 3296.9771090627 3222.8584938655 0.2188710864 5984091.5458184974 0.2127429801 4877668.3788844123 2010591.6453612098 0.0002558751 3824.9798039256 4315.9334094687 6392.7150145940 2588.7316327782 0.9000000000 0.0502754803 1055.8178435988 0.0000000000 1628.5472936787 0.7001956156 0.6205457393 20.6179098617 20.6179098617 20.6179098617 0.0054739288 112348.0088014751 0.0052609043 97975.9335903962 46721.6116457506 0.0000825582 0.1324811078 0.1327332102 0.0000000000 1440.4814782469 0.0000000000 0.0009311305 13.1877264568 0.0000000000 19.9341081410 6163.8966500000
