~Version ---------------------------------------------------
VERS.   2.0 : CWLS log ASCII Standard -VERSION 2.0
WRAP.    NO : One line per depth step
DLM . SPACE : Column Data Section Delimiter
~Well ------------------------------------------------------
STRT.ft       6025.5836500000005 : START DEPTH
STOP.ft               8231.95595 : STOP DEPTH
STEP.ft       14.389099999999416 : STEP
NULL.                   -9999.25 : NULL VALUE
COMP.                            : COMPANY
WELL.                     bypass : WELL
FLD .                            : FIELD
LOC .                            : LOCATION
PROV.                            : PROVINCE
CNTY.                            : COUNTY
STAT.                            : STATE
CTRY.                            : COUNTRY
SRVC.                            : SERVICE COMPANY
DATE. 2019-07-30 20:43:31.832888 : DATE
UWI .                            : UNIQUE WELL ID
API .                            : API NUMBER
~Curve Information -----------------------------------------
Depth              .ft          : 
KICh               .psi*in^1/2  : 
KICvup             .psi*in^1/2  : 
KICvdown           .psi*in^1/2  : 
nuh                .            : 
Eh                 .psi         : 
nuv                .            : 
Ev                 .psi         : 
Gv                 .psi         : 
Cl                 .ft/min^1/2  : 
Sigma_h            .psi         : 
SigmaH             .psi         : 
SigmaV             .psi         : 
Pore Pressure      .psi         : 
Biot               .            : 
Porosity           .            : 
Permeability       .nD          : 
SoPhi              .            : 
TensileStrength    .psi         : 
Grad_SigmaH        .psi/ft      : 
Grad_Sigma_h       .psi/ft      : 
Std_KICh           .psi*in^1/2  : 
Std_KICvup         .psi*in^1/2  : 
Std_KICvdown       .psi*in^1/2  : 
Std_nuh            .            : 
Std_Eh             .psi         : 
Std_nuv            .            : 
Std_Ev             .psi         : 
Std_Gv             .psi         : 
Std_Cl             .ft/min^1/2  : 
Std_Sigma_h        .psi         : 
Std_SigmaH         .psi         : 
Std_SigmaV         .psi         : 
Std_Pore Pressure  .psi         : 
Std_Biot           .            : 
Std_Porosity       .            : 
Std_Permeability   .nD          : 
Std_SoPhi          .            : 
Std_TensileStrength.psi         : 
Std_Depth          .ft          : 
~Params ----------------------------------------------------
~Other -----------------------------------------------------
Exported from homogenization method
~ASCII -----------------------------------------------------
# ...
 7519.5181500000 2761.1387759512 3391.4884029554 3376.3320804905 0.2600363797 7587115.8678164072 0.2583877936 7391327.6243238077 2934286.9838068518 0.0001633438 5424.3468391395 6026.4815068559 7880.7617467794 4135.7006504710 0.9000000000 0.0300294913 490.8133886337 0.0000000000 1852.5784684826 0.8014451706 0.7213689403 9.9589320647 9.9589320647 9.9589320647 0.0063375022 63375.0222297642 0.0063096060 59940.4618093680 27833.4642837080 0.0000586855 0.1167950653 0.1167691179 0.0000000000 1365.8937647335 0.0000000000 0.0009053575 9.0535746043 0.0000000000 9.0535746043 7519.5181500000
 7534.8272500000 2649.9627700646 3209.8345835987 3013.1880985690 0.2367710194 6880697.0224269936 0.2299026147 5837499.7297757585 2369598.6580522619 0.0002088529 5382.4069275174 5938.7505767773 7898.3576664744 4144.1205811821 0.9000000000 0.0359107570 850.8649826012 0.0000000000 1734.2514715823 0.7881734219 0.7143371373 9.9183659813 9.9183659813 9.9183659813 0.0063116874 63116.8744267215 0.0061327611 52038.5476914178 24052.2113768499 0.0000575299 0.1146564157 0.1146301992 0.0000000000 1340.3422535357 0.0000000000 0.0009016696 9.0166963467 0.0000000000 9.0166963467 7534.8272500000
 7550.1363500000 2640.9434564642 2955.6960823055 3168.5124415168 0.2274132375 6473256.4036061987 0.2129953144 5160578.1317786267 2120544.1216661711 0.0004195895 5337.5147546312 5864.9048956092 7915.7874163397 4152.5406443716 0.9000000000 0.0411423080 1172.4847075630 0.0000000000 1668.9204194282 0.7767945668 0.7069428295 9.9589320647 9.9589320647 9.9589320647 0.0063375022 63375.0222297637 0.0057159714 44685.9216774102 20523.3315411354 0.0000882008 0.1086113198 0.1086316653 0.0000000000 1246.0799694846 0.0000000000 0.0009053575 9.0535746043 0.0000000000 9.0535746043 7550.1363500000
 7565.4454500000 2473.7294999681 3111.9090398428 2888.6797926867 0.1978282715 5116397.2317226762 0.1693710819 3145856.7945309044 1343890.9181298090 0.0003437747 5288.4102448872 5715.5497066648 7932.9975814584 4160.9606056202 0.9000000000 0.0489796033 2375.0180235648 0.0000000000 1459.5777782714 0.7554809224 0.6990216610 9.9183659813 9.9183659813 9.9183659813 0.0063116874 63116.8744267189 0.0054805935 38997.4232944799 17859.8733507703 0.0001328597 0.1179290553 0.1179631197 0.0000000000 1332.6544593913 0.0000000000 0.0009016696 9.0166963467 0.0000000000 9.0166963467 7565.4454500000
 7580.7545500000 2468.8629631268 2710.5594943263 2849.0677892729 0.2008177972 5143706.5547812656 0.1686269643 3089394.0457869973 1321155.2070667678 0.0005615470 5334.7763700448 5763.1266632015 7950.2377934326 4169.3806382723 0.9000000000 0.0481111482 2471.8704535791 0.0000000000 1445.8035134605 0.7602312705 0.7037263026 9.9589320647 9.9589320647 9.9589320647 0.0063375022 63375.0222297616 0.0054451193 39736.7961069444 18133.9643714724 0.0001334112 0.1181630439 0.1181973195 0.0000000000 1336.3627390849 0.0000000000 0.0009053575 9.0535746043 0.0000000000 9.0535746043 7580.7545500000
 7596.0636500000 2491.5737289336 3236.8809675918 3279.8994923552 0.2064705985 5467385.4422092186 0.1740859113 3356803.4358738530 1426059.2989558491 0.0003322211 5381.3284726173 5834.5003484057 7967.4773244552 4177.8006300583 0.9000000000 0.0453667688 2148.2882524381 0.0000000000 1494.1372966037 0.7680952421 0.7084364640 9.9589320647 9.9589320647 9.9589320647 0.0063375022 63375.0222297616 0.0054442739 38919.6717559698 17812.7603695877 0.0001328293 0.1178087586 0.1178431372 0.0000000000 1331.6821217027 0.0000000000 0.0009053575 9.0535746043 0.0000000000 9.0535746043 7596.0636500000
 7611.3727500000 2505.7396964145 3193.6418666709 2991.4763053293 0.1914023306 4975184.2099098004 0.1637960189 3046612.3061866411 1305862.3708651536 0.0004147151 5261.4284509011 5679.0190566926 7984.6093783500 4186.2206321730 0.9000000000 0.0534450392 2480.6986984920 0.0000000000 1448.2574497136 0.7461228405 0.6912588075 9.9183659813 9.9183659813 9.9183659813 0.0063116874 63116.8744267189 0.0055820292 38615.1214751987 17705.4629878014 0.0001332592 0.1186114353 0.1186453038 0.0000000000 1338.9999704212 0.0000000000 0.0009016696 9.0166963467 0.0000000000 9.0166963467 7611.3727500000
 7626.6818500000 2485.5266506222 2849.6117720697 2857.3034360602 0.1884391006 4775119.3192175049 0.1605006475 2915114.6383479061 1254790.3052276091 0.0003493219 5237.6265283526 5639.4240892705 8001.5555027586 4194.6406544963 0.9000000000 0.0552599974 2705.5134905227 0.0000000000 1413.5333095260 0.7394335047 0.6867503629 9.9589320647 9.9589320647 9.9589320647 0.0063375022 63375.0222297616 0.0055665741 42203.0544136171 19195.3351780017 0.0001360717 0.1203028676 0.1203365337 0.0000000000 1361.4761666823 0.0000000000 0.0009053575 9.0535746043 0.0000000000 9.0535746043 7626.6818500000
 7641.9909500000 2636.3182860026 4530.7509536357 3693.6709854332 0.2246997652 5984690.5548964953 0.1921455270 4241207.8208171092 1767262.7811298487 0.0002603949 5405.7550059979 5894.4209407071 8018.5349618779 4203.0606260737 0.9000000000 0.0436580291 1547.1794535160 0.0000000000 1611.0629526968 0.7713200630 0.7073752169 9.9183659813 9.9183659813 9.9183659813 0.0063116874 63116.8744267215 0.0062165698 55288.0470210731 25574.9828280230 0.0000579303 0.1154183113 0.1153922679 0.0000000000 1349.3203331599 0.0000000000 0.0009016696 9.0166963467 0.0000000000 9.0166963467 7641.9909500000
 7657.3000000000 2668.6075563713 3327.7184865846 4666.6270090178 0.2420339910 6706242.2259748783 0.2088923683 5088074.8911511870 2082130.7969828863 0.0002289626 5504.9810134142 6044.9213269976 8036.1018986614 4211.4806514959 0.9000000000 0.0347381162 991.5157293358 0.0000000000 1736.2191449212 0.7894324797 0.7189193336 9.9589320647 9.9589320647 9.9589320647 0.0063375022 63375.0222297642 0.0061056768 53304.2717888754 24845.3369474808 0.0000578101 0.1150887117 0.1150623796 0.0000000000 1345.9811471953 0.0000000000 0.0009053575 9.0535746043 0.0000000000 9.0535746043 7657.3000000000
 7672.6090500000 2667.6593993050 4309.9506582499 4340.3131466968 0.2697312704 7828881.5523106735 0.2314076986 6106220.6884582434 2440657.1214074874 0.0001588667 5754.7410946616 6371.3189276710 8053.8803468900 4219.9005647376 0.9000000000 0.0206706131 563.2329052921 0.0000000000 1871.9775778534 0.8303979632 0.7500370548 9.9183659813 9.9183659813 9.9183659813 0.0063116874 63116.8744267210 0.0056988073 42361.7126790393 19539.8398344489 0.0000871889 0.1076242735 0.1076446387 0.0000000000 1233.6406832621 0.0000000000 0.0009016696 9.0166963467 0.0000000000 9.0166963467 7672.6090500000
 7687.9181500000 2403.8396266824 2918.7655193780 2793.3308926771 0.1874256532 4737988.8770720605 0.1557731935 2624439.7246003863 1134275.2654384896 0.0003925974 5373.9316247655 5772.9451431371 8071.4539136553 4228.3206485848 0.9000000000 0.0501335782 2906.2145438888 0.0000000000 1393.6549123551 0.7509113690 0.6990099946 9.9589320647 9.9589320647 9.9589320647 0.0063375022 63375.0222297616 0.0054150234 36723.6516596405 16785.1244337871 0.0001309909 0.1165585369 0.1165932842 0.0000000000 1315.9529043125 0.0000000000 0.0009053575 9.0535746043 0.0000000000 9.0535746043 7687.9181500000
 7703.2272500000 2442.0930779664 2819.2749353181 2972.8481488148 0.1961608023 5134498.1051701652 0.1686095957 3026028.1843191301 1294405.3177116942 0.0003621553 5439.5421775296 5868.7903267327 8088.6735818809 4236.7405586383 0.9000000000 0.0470555785 2404.7151687843 0.0000000000 1454.8252784138 0.7618612481 0.7061380900 9.9183659813 9.9183659813 9.9183659813 0.0063116874 63116.8744267189 0.0055431721 37752.1126412547 17271.7773740236 0.0001323249 0.1178697378 0.1179038193 0.0000000000 1330.2476615746 0.0000000000 0.0009016696 9.0166963467 0.0000000000 9.0166963467 7703.2272500000
 7718.5363500000 2499.7309604813 3521.9388455332 3247.9196942528 0.2156851307 5828046.1458870089 0.1934708082 3638619.1041629654 1520038.2529474625 0.0003068965 5645.6907676301 6125.0950145495 8106.1153118231 4245.1606730229 0.9000000000 0.0369591934 1432.7024817827 0.0000000000 1602.5363236883 0.7935565419 0.7314457705 9.9589320647 9.9589320647 9.9589320647 0.0063375022 63375.0222297637 0.0062111003 43119.0007619656 19822.9074381907 0.0000893492 0.1111482200 0.1111681012 0.0000000000 1270.2300094193 0.0000000000 0.0009053575 9.0535746043 0.0000000000 9.0535746043 7718.5363500000
