~Version ---------------------------------------------------
VERS.   2.0 : CWLS log ASCII Standard -VERSION 2.0
WRAP.    NO : One line per depth step
DLM . SPACE : Column Data Section Delimiter
~Well ------------------------------------------------------
STRT.ft               5683.82875 : START DEPTH
STOP.ft        7698.577649999999 : STOP DEPTH
STEP.ft       15.128450000000157 : STEP
NULL.                   -9999.25 : NULL VALUE
COMP.                            : COMPANY
WELL.                     bypass : WELL
FLD .                            : FIELD
LOC .                            : LOCATION
PROV.                            : PROVINCE
CNTY.                            : COUNTY
STAT.                            : STATE
CTRY.                            : COUNTRY
SRVC.                            : SERVICE COMPANY
DATE. 2019-07-30 20:43:20.519169 : DATE
UWI .                            : UNIQUE WELL ID
API .                            : API NUMBER
~Curve Information -----------------------------------------
Depth              .ft          : 
KICh               .psi*in^1/2  : 
KICvup             .psi*in^1/2  : 
KICvdown           .psi*in^1/2  : 
nuh                .            : 
Eh                 .psi         : 
nuv                .            : 
Ev                 .psi         : 
Gv                 .psi         : 
Cl                 .ft/min^1/2  : 
Sigma_h            .psi         : 
SigmaH             .psi         : 
SigmaV             .psi         : 
Pore Pressure      .psi         : 
Biot               .            : 
Porosity           .            : 
Permeability       .nD          : 
SoPhi              .            : 
TensileStrength    .psi         : 
Grad_SigmaH        .psi/ft      : 
Grad_Sigma_h       .psi/ft      : 
Std_KICh           .psi*in^1/2  : 
Std_KICvup         .psi*in^1/2  : 
Std_KICvdown       .psi*in^1/2  : 
Std_nuh            .            : 
Std_Eh             .psi         : 
Std_nuv            .            : 
Std_Ev             .psi         : 
Std_Gv             .psi         : 
Std_Cl             .ft/min^1/2  : 
Std_Sigma_h        .psi         : 
Std_SigmaH         .psi         : 
Std_SigmaV         .psi         : 
Std_Pore Pressure  .psi         : 
Std_Biot           .            : 
Std_Porosity       .            : 
Std_Permeability   .nD          : 
Std_SoPhi          .            : 
Std_TensileStrength.psi         : 
Std_Depth          .ft          : 
~Params ----------------------------------------------------
~Other -----------------------------------------------------
Exported from homogenization method
~ASCII -----------------------------------------------------
# ...
 6897.3332500000 2707.2871578570 4003.9720811048 3939.7825930112 0.2329785258 7643016.4019322209 0.2171621643 6438579.7690299395 2637652.7789034722 0.0003630525 4417.1705216286 5037.0528830979 7187.4038334670 3034.7163041701 0.9000000000 0.0451980046 895.4742585034 0.0000000000 1674.6618515938 0.7302899107 0.6404171528 22.6318474423 22.6318474423 22.6318474423 0.0180502040 123435.9393445420 0.0175837368 126235.8877078566 62998.9228631947 0.0001428396 0.2700230887 0.2697336517 0.0000000000 2861.9946436061 0.0000000000 0.0020467161 14.4250899854 0.0000000000 21.6876638718 6897.3332500000
 6909.4409000000 2785.5380503218 4673.6916627184 3526.6739923782 0.2568293072 8149872.2346780384 0.2501668820 7484405.4123158278 2985945.9694744055 0.0006678677 4596.7923273766 5245.2393510069 7200.9722904588 3040.0432495292 0.9000000000 0.0386384346 548.6880371699 0.0000000000 1787.0375535551 0.7591409243 0.6652915039 22.0996345135 22.0996345135 22.0996345135 0.0176847936 120798.6145239957 0.0176869028 124137.3981295524 67449.0186956337 0.0001070145 0.2593733926 0.2590620738 0.0000000000 2843.0432427038 0.0000000000 0.0020033483 14.0283939753 0.0000000000 20.7210961819 6909.4409000000
 6921.5485500000 2802.5079512546 3856.5710495773 4356.9331616890 0.2454386198 7799741.2190654464 0.2343268806 7052106.3496063855 2849575.4970731768 0.0006258142 4481.1351460146 5107.3997483278 7214.6276481432 3045.3720541474 0.9000000000 0.0448867506 748.3407174494 0.0000000000 1740.1614771794 0.7378984213 0.6474180039 22.6095001805 22.6095001805 22.6095001805 0.0180500440 123393.1678885592 0.0176935804 123050.1276117641 63236.4728015293 0.0001082746 0.2622151985 0.2618946704 0.0000000000 2875.3258502275 0.0000000000 0.0020461121 14.3885141497 0.0000000000 21.5306768638 6921.5485500000
 6933.6562000000 2735.2924043252 4357.8259295027 4955.6183206632 0.2408188657 7752958.4457122386 0.2257589262 6686414.5531393941 2718815.7284726994 0.0006837839 4489.3811971128 5114.2071616271 7228.1896330843 3050.6990947834 0.9000000000 0.0434749492 796.3398702666 0.0000000000 1709.3199716013 0.7375916853 0.6474767522 20.9744250843 20.9744250843 20.9744250843 0.0167111375 114320.4936926219 0.0161452791 109084.5310276856 54121.2724560536 0.0001307363 0.2476455444 0.2473751719 0.0000000000 2622.8799262365 0.0000000000 0.0018956989 13.4122966775 0.0000000000 20.2274512430 6933.6562000000
 6947.9319000000 2642.5732091519 3485.2293295364 5052.1110885550 0.2172512081 6689288.3273190511 0.1981530588 4876911.3450270062 2032105.6544458168 0.0008462814 4463.8026892093 5013.3431852760 7244.1689824100 3056.9799335920 0.9000000000 0.0482432921 1154.0446576001 0.0000000000 1587.9487227947 0.7215590563 0.6424649455 19.3159066554 19.3159066554 19.3159066554 0.0153937545 105296.1057733636 0.0146134465 95463.8603365229 48100.6827052191 0.0001192136 0.2257900834 0.2255384095 0.0000000000 2391.5739262384 0.0000000000 0.0017457041 12.3761360411 0.0000000000 18.5998378870 6947.9319000000
 6964.3757000000 2824.3317811621 22987.3937134749 22689.6005036375 0.2598125760 7992261.9557572333 0.2531978943 7587870.7278268673 3022700.3331526062 0.0005090045 4603.5689843738 5237.9698554210 7262.5386212656 3064.2151210791 0.9000000000 0.0397161423 548.3533311981 0.0000000000 1799.7715662933 0.7521090305 0.6610167490 19.2496208234 19.2496208234 19.2496208234 0.0153926552 105169.1491251251 0.0153693130 108768.6707680874 57320.5667269141 0.0000930337 0.2254736005 0.2252023663 0.0000000000 2471.5321849473 0.0000000000 0.0017441412 12.2229445098 0.0000000000 18.1373321025 6964.3757000000
 6980.8195000000 2792.5050726562 4981.5054077369 5299.2119621272 0.2545230332 7818386.3737110337 0.2493297325 7153192.3829859989 2858247.4633813025 0.0007636582 4628.2457987149 5251.4616478392 7281.1093031554 3071.4503085661 0.9000000000 0.0400976703 596.7733021636 0.0000000000 1767.5660677439 0.7522700806 0.6629946239 19.2868622457 19.2868622457 19.2868622457 0.0153927560 105240.4063086573 0.0151741546 106729.7807578759 53234.6775618659 0.0000924520 0.2239807245 0.2237078691 0.0000000000 2455.6551702414 0.0000000000 0.0017453908 12.2723974928 0.0000000000 18.3996937405 6980.8195000000
 6997.2633000000 2727.2533429225 23580.8106221093 22605.3704055059 0.2589866937 7963553.3516991809 0.2484270090 7006896.4985337751 2800974.1295775422 0.0004809979 4717.5649762881 5350.1017132845 7299.7260591507 3078.6856940610 0.9000000000 0.0347783817 529.3317025500 0.0000000000 1783.4107644796 0.7645991703 0.6742014376 19.2584538795 19.2584538795 19.2584538795 0.0153925802 105186.0372288568 0.0153535629 111865.2913602575 57143.5468355246 0.0000931106 0.2255277797 0.2252566606 0.0000000000 2472.6733291713 0.0000000000 0.0017448171 12.2209280676 0.0000000000 18.2000326263 6997.2633000000
 7013.7071000000 2797.1744383825 4395.4769263639 3852.2000580649 0.2620168731 7995164.4260024047 0.2574098893 7451245.2787522608 2959124.0828531273 0.0007601568 4701.8605232221 5335.3833069844 7318.5141281406 3085.9214354346 0.9000000000 0.0372242712 507.4397566832 0.0000000000 1799.3543369283 0.7607080294 0.6703816478 19.2625397511 19.2625397511 19.2625397511 0.0153928258 105193.8696101033 0.0152815912 107625.6331875985 55732.1439600842 0.0000927740 0.2248099309 0.2245379529 0.0000000000 2464.4616946273 0.0000000000 0.0017445172 12.2417250746 0.0000000000 18.2282806377 7013.7071000000
 7030.1509500000 2770.2223631249 23821.5513464938 22304.4240882903 0.2549912875 7869932.6390359048 0.2460172554 7031178.0312292026 2815754.7434050529 0.0004725372 4681.4603427305 5308.5509621939 7337.1401836323 3093.1566445916 0.9000000000 0.0389488251 602.7116074957 0.0000000000 1767.5567119091 0.7551119457 0.6659117814 19.2901871325 19.2901871325 19.2901871325 0.0153925687 105246.7758782438 0.0152251947 103084.3884160416 51696.6614225065 0.0000922897 0.2238388884 0.2235658874 0.0000000000 2453.0295445228 0.0000000000 0.0017457822 12.2692013387 0.0000000000 18.4228268604 7030.1509500000
 7046.5948000000 2642.4454082221 4566.3895346190 4454.0326592674 0.2343270311 7299995.6040233960 0.2273003958 5779148.3584768511 2353540.0410553967 0.0008469605 4693.1139139671 5284.5289458266 7355.8111103959 3117.7042593369 0.9000000000 0.0394917734 732.4997092978 0.0000000000 1687.9770795173 0.7499408006 0.6660116052 19.2798861209 19.2798861209 19.2798861209 0.0153925411 105227.0878727967 0.0152339767 104125.0297179587 52823.0079230547 0.0000924059 0.2240636442 0.2237908652 0.0000000000 2455.7221005322 0.0000000000 0.0017453969 12.2660822334 0.0000000000 18.3494690129 7046.5948000000
 7063.0386000000 2785.7761292876 4195.5154485748 4420.1395823113 0.2554667415 7792032.5537091987 0.2499311942 7168071.0533908689 2864576.8291425952 0.0007076977 4794.4786217815 5415.1268871735 7374.4808927833 3305.3801851112 0.9000000000 0.0395655631 590.3184968504 0.0000000000 1775.4488124486 0.7666851611 0.6788124621 19.5699669956 19.5699669956 19.5699669956 0.0156315062 106841.6310736838 0.0155709518 113946.4211776957 57336.3934067584 0.0000945064 0.2288842627 0.2286088235 0.0000000000 2509.6003309104 0.0000000000 0.0017717842 12.4380365052 0.0000000000 18.5733884861 7063.0386000000
 7079.4824000000 2793.2472801241 23443.9944059602 22915.7853343799 0.2628741319 7989392.3423066223 0.2585846711 7571409.4925481658 3004060.2197242226 0.0005402800 5009.7939828480 5642.4296621118 7393.0337403135 3613.1316156483 0.9000000000 0.0365393103 486.3431427191 0.0000000000 1808.3411733394 0.7970116095 0.7076497546 19.2417568233 19.2417568233 19.2417568233 0.0153925116 105154.1176022930 0.0153757733 109077.1959712396 57280.4607586982 0.0000930284 0.2254679843 0.2251967104 0.0000000000 2471.4239748349 0.0000000000 0.0017441677 12.2104104423 0.0000000000 18.0813658166 7079.4824000000
 7095.9262000000 2811.0828664283 4339.1649686627 6035.8375746660 0.2533770771 7389931.6132470109 0.2284074356 6416928.8363004914 2603532.7812393135 0.0006980873 5059.5021320160 5649.1037569550 7411.7265419849 3855.0304694915 0.9000000000 0.0437914419 815.9912918797 0.0000000000 1735.9607986892 0.7961052015 0.7130150440 19.2954374644 19.2954374644 19.2954374644 0.0153944117 105256.8699594968 0.0148044095 100522.1637642952 49994.4912335621 0.0001202006 0.2275967977 0.2273469625 0.0000000000 2410.8756403627 0.0000000000 0.0017448230 12.3022392062 0.0000000000 18.4580713807 7095.9262000000
