~Version ---------------------------------------------------
VERS.   2.0 : CWLS log ASCII Standard -VERSION 2.0
WRAP.    NO : One line per depth step
DLM . SPACE : Column Data Section Delimiter
~Well ------------------------------------------------------
STRT.ft       6025.5836500000005 : START DEPTH
STOP.ft               8231.95595 : STOP DEPTH
STEP.ft       14.389099999999416 : STEP
NULL.                   -9999.25 : NULL VALUE
COMP.                            : COMPANY
WELL.                     bypass : WELL
FLD .                            : FIELD
LOC .                            : LOCATION
PROV.                            : PROVINCE
CNTY.                            : COUNTY
STAT.                            : STATE
CTRY.                            : COUNTRY
SRVC.                            : SERVICE COMPANY
DATE. 2019-07-30 20:43:31.832888 : DATE
UWI .                            : UNIQUE WELL ID
API .                            : API NUMBER
~Curve Information -----------------------------------------
Depth              .ft          : 
KICh               .psi*in^1/2  : 
KICvup             .psi*in^1/2  : 
KICvdown           .psi*in^1/2  : 
nuh                .            : 
Eh                 .psi         : 
nuv                .            : 
Ev                 .psi         : 
Gv                 .psi         : 
Cl                 .ft/min^1/2  : 
Sigma_h            .psi         : 
SigmaH             .psi         : 
SigmaV             .psi         : 
Pore Pressure      .psi         : 
Biot               .            : 
Porosity           .            : 
Permeability       .nD          : 
SoPhi              .            : 
TensileStrength    .psi         : 
Grad_SigmaH        .psi/ft      : 
Grad_Sigma_h       .psi/ft      : 
Std_KICh           .psi*in^1/2  : 
Std_KICvup         .psi*in^1/2  : 
Std_KICvdown       .psi*in^1/2  : 
Std_nuh            .            : 
Std_Eh             .psi         : 
Std_nuv            .            : 
Std_Ev             .psi         : 
Std_Gv             .psi         : 
Std_Cl             .ft/min^1/2  : 
Std_Sigma_h        .psi         : 
Std_SigmaH         .psi         : 
Std_SigmaV         .psi         : 
Std_Pore Pressure  .psi         : 
Std_Biot           .            : 
Std_Porosity       .            : 
Std_Permeability   .nD          : 
Std_SoPhi          .            : 
Std_TensileStrength.psi         : 
Std_Depth          .ft          : 
~Params ----------------------------------------------------
~Other -----------------------------------------------------
Exported from homogenization method
~ASCII -----------------------------------------------------
# ...
 7305.8288000000 2546.6639840167 3803.0184927995 3002.3751072408 0.2202643794 5730434.7867322545 0.1742724719 3556461.4885238679 1501272.9952558875 0.0003793818 5196.5954142599 5666.2014179596 7635.9756823187 4018.1714879857 0.9000000000 0.0425220497 1983.3665766389 0.0000000000 1541.1317900292 0.7755727068 0.7112944413 9.9589320647 9.9589320647 9.9589320647 0.0063375022 63375.0222297637 0.0058777710 46638.8691001108 21482.2725089392 0.0000894186 0.1101684653 0.1101885233 0.0000000000 1263.6574316814 0.0000000000 0.0009053575 9.0535746043 0.0000000000 9.0535746043 7305.8288000000
 7321.0397500000 2706.4632548817 3508.5554631894 3437.8756588160 0.2537643412 7190845.4958111523 0.2372508312 6124133.5813770099 2461365.4714759411 0.0002556845 5323.1697726397 5896.7102107621 7653.3942952232 4026.5374553363 0.9000000000 0.0317147446 690.9130613985 0.0000000000 1790.1607493715 0.8054470966 0.7271057055 9.9589320647 9.9589320647 9.9589320647 0.0063375022 63375.0222297642 0.0062931653 59933.7138030184 27670.3179966921 0.0000586434 0.1166937661 0.1166677963 0.0000000000 1364.7989779185 0.0000000000 0.0009053575 9.0535746043 0.0000000000 9.0535746043 7321.0397500000
 7336.2507000000 2746.2049996864 3595.0286921847 3225.7763526122 0.2487561265 7077310.8610459836 0.2423812052 6499622.8656617803 2610707.3670455073 0.0002590351 5238.1957483706 5804.9445883579 7670.8182341381 4034.9035078233 0.9000000000 0.0359143632 740.2955772416 0.0000000000 1780.5559891551 0.7912685683 0.7140153687 10.0000000000 10.0000000000 10.0000000000 0.0063636364 63636.3636363649 0.0061683922 53325.6647282647 24617.0245193043 0.0000580547 0.1156432788 0.1156168564 0.0000000000 1352.1423682606 0.0000000000 0.0009090909 9.0909090909 0.0000000000 9.0909090909 7336.2507000000
 7351.4616500000 2531.3875537655 3234.0344863452 4224.9405555418 0.2243408753 6180166.9448511796 0.1887997435 4056241.7430962124 1692928.5303730660 0.0005104081 5286.6352462418 5791.4102700609 7688.2809553030 4043.2695666430 0.9000000000 0.0372409226 1511.8330423055 0.0000000000 1614.7805289949 0.7877903124 0.7191270931 9.9589320647 9.9589320647 9.9589320647 0.0063375022 63375.0222297637 0.0057024447 42880.8124010094 19743.8493511930 0.0000875801 0.1080327870 0.1080532415 0.0000000000 1238.6466468902 0.0000000000 0.0009053575 9.0535746043 0.0000000000 9.0535746043 7351.4616500000
 7366.6726000000 2599.6804063470 3515.9177719609 3841.9352024288 0.2255314173 6084422.9728835365 0.1989867502 4289049.6663230173 1780645.2568491139 0.0005448016 5270.5302330312 5767.0024480330 7705.6152174433 4051.6355339886 0.9000000000 0.0402800279 1398.4709139271 0.0000000000 1626.3580683458 0.7828503805 0.7154560165 9.9589320647 9.9589320647 9.9589320647 0.0063375022 63375.0222297637 0.0059647928 47858.1702320488 21872.9800114424 0.0000900583 0.1109811828 0.1110010940 0.0000000000 1272.8455228929 0.0000000000 0.0009053575 9.0535746043 0.0000000000 9.0535746043 7366.6726000000
 7381.8835500000 2548.7377986847 4820.3180982648 4003.2485676186 0.2138853015 5657272.9932377003 0.1847889238 3807207.9453441738 1601616.6652880532 0.0005356392 5202.0089562268 5668.0557059719 7722.8487406235 4060.0015509437 0.9000000000 0.0447190062 1806.8628631424 0.0000000000 1559.6600812668 0.7678332593 0.7046994065 10.0000000000 10.0000000000 10.0000000000 0.0063636364 63636.3636363649 0.0059874939 50179.3391851471 23120.4461681216 0.0000575465 0.1145252712 0.1144985908 0.0000000000 1339.6913045870 0.0000000000 0.0009090909 9.0909090909 0.0000000000 9.0909090909 7381.8835500000
 7397.0945000000 2664.9762153302 4948.4467929974 7923.3980643403 0.2633940835 6994782.3547312254 0.2072792148 4981051.5856031533 2036942.5859148197 0.0002867710 5471.1626440868 6024.8127241484 7740.3457670853 4068.3676451252 0.9000000000 0.0312712811 1083.8723002670 0.0000000000 1754.3406819630 0.8144836766 0.7396367106 9.9589320647 9.9589320647 9.9589320647 0.0063375022 63375.0222297637 0.0055537186 42815.7557072944 19555.3465606399 0.0000870194 0.1070880654 0.1071087003 0.0000000000 1228.9366367290 0.0000000000 0.0009053575 9.0535746043 0.0000000000 9.0535746043 7397.0945000000
 7412.3545500000 2664.4294731461 3917.6658012541 3138.5443748689 0.2394177434 6507068.3024645410 0.1969833115 4813366.2840920538 1989953.3311226091 0.0002316222 5265.8634174334 5790.8735149057 7757.7135633757 4076.7605790837 0.9000000000 0.0398106802 1356.6588514362 0.0000000000 1667.6188482421 0.7812461581 0.7104170992 9.9183659813 9.9183659813 9.9183659813 0.0063116874 63116.8744267215 0.0062797198 62490.3355231923 28950.8535942931 0.0000587100 0.1166951282 0.1166693698 0.0000000000 1365.3613758651 0.0000000000 0.0009016696 9.0166963467 0.0000000000 9.0166963467 7412.3545500000
 7427.6636500000 2811.3551736751 3594.7043647638 3053.3352925881 0.2652226832 7698343.1489297701 0.2642883805 7682713.0787921296 3037650.0094926902 0.0003285527 5373.4855136258 5981.9430801400 7775.2264930356 4085.1806831394 0.9000000000 0.0306815583 458.4455608431 0.0000000000 1876.9212829908 0.8053599842 0.7234422245 9.9589320647 9.9589320647 9.9589320647 0.0063375022 63375.0222297642 0.0063374995 63208.1397689763 29183.0289177018 0.0000590272 0.1173495839 0.1173237592 0.0000000000 1372.8851670595 0.0000000000 0.0009053575 9.0535746043 0.0000000000 9.0535746043 7427.6636500000
 7442.9727500000 2796.4065320642 3430.1262804233 3380.1513783466 0.2628007723 7598919.5988041889 0.2618140638 7562586.5091034211 2995921.6215500124 0.0003236122 5364.9111949613 5966.6624581421 7792.8145082241 4093.6005729844 0.9000000000 0.0312171626 490.8383110423 0.0000000000 1860.6294071381 0.8016504505 0.7208022084 9.9183659813 9.9183659813 9.9183659813 0.0063116874 63116.8744267215 0.0063049214 63046.7599128805 29166.9607681694 0.0000587949 0.1168711825 0.1168454630 0.0000000000 1367.3653878790 0.0000000000 0.0009016696 9.0166963467 0.0000000000 9.0166963467 7442.9727500000
 7458.2818500000 2817.7048612243 3611.1041406093 3225.1104541356 0.2592378055 7528571.9320864454 0.2578740102 7501896.5240118150 2981093.5381290517 0.0001653196 5339.8918806485 5937.7592492415 7810.3455394870 4102.0207075775 0.9000000000 0.0338896416 545.0991594969 0.0000000000 1852.8593719496 0.7961296407 0.7159680994 9.9589320647 9.9589320647 9.9589320647 0.0063375022 63375.0222297642 0.0063375022 63375.0222297625 29411.1557666003 0.0000590633 0.1174076456 0.1173818337 0.0000000000 1373.6239276390 0.0000000000 0.0009053575 9.0535746043 0.0000000000 9.0535746043 7458.2818500000
 7473.5909500000 2815.7211956452 3315.8361156418 3634.1861970870 0.2667187425 7840466.4343183879 0.2655312290 7819936.9549244614 3088572.4572366090 0.0003150922 5423.4322127541 6042.3909579911 7827.8933807083 4110.4405870936 0.9000000000 0.0298229743 425.2075782727 0.0000000000 1890.8398025474 0.8084990199 0.7256795627 9.9183659813 9.9183659813 9.9183659813 0.0063116874 63116.8744267215 0.0063116874 63116.8744267198 29334.5865025845 0.0000588282 0.1169389407 0.1169132360 0.0000000000 1368.1465389718 0.0000000000 0.0009016696 9.0166963467 0.0000000000 9.0166963467 7473.5909500000
 7488.9000000000 2815.0833006511 3242.0686805394 3486.5739576778 0.2651951300 7868882.4792278511 0.2648493511 7862892.0632667979 3107924.1354095801 0.0003176483 5424.2490152389 6046.1991233939 7845.5075182620 4118.8606842789 0.9000000000 0.0298387823 406.3260666534 0.0000000000 1899.3307839213 0.8073547682 0.7243051737 9.9589320647 9.9589320647 9.9589320647 0.0063375022 63375.0222297642 0.0063375022 63375.0222297625 29500.0429043219 0.0000590746 0.1174272662 0.1174014586 0.0000000000 1373.8663955830 0.0000000000 0.0009053575 9.0535746043 0.0000000000 9.0535746043 7488.9000000000
 7504.2090500000 2804.3309945864 3147.4796761093 3165.2905262824 0.2661474574 7841819.7386225779 0.2656833624 7833910.5608921917 3094366.0700159050 0.0001531191 5442.6288211845 6061.9737239472 7863.1317526092 4127.2805567440 0.9000000000 0.0294353377 420.2652561955 0.0000000000 1886.3743244366 0.8078098149 0.7252768126 9.9183659813 9.9183659813 9.9183659813 0.0063116874 63116.8744267215 0.0063103012 61866.9794678378 28638.1236733257 0.0000586852 0.1167221924 0.1166964400 0.0000000000 1365.3231727163 0.0000000000 0.0009016696 9.0166963467 0.0000000000 9.0166963467 7504.2090500000
