~Version ---------------------------------------------------
VERS.   2.0 : CWLS log ASCII Standard -VERSION 2.0
WRAP.    NO : One line per depth step
DLM . SPACE : Column Data Section Delimiter
~Well ------------------------------------------------------
STRT.ft                 5553.236 : START DEPTH
STOP.ft        7956.265999999999 : STOP DEPTH
STEP.ft        14.83744999999999 : STEP
NULL.                   -9999.25 : NULL VALUE
COMP.                            : COMPANY
WELL.                     bypass : WELL
FLD .                            : FIELD
LOC .                            : LOCATION
PROV.                            : PROVINCE
CNTY.                            : COUNTY
STAT.                            : STATE
CTRY.                            : COUNTRY
SRVC.                            : SERVICE COMPANY
DATE. 2019-07-30 20:43:21.016623 : DATE
UWI .                            : UNIQUE WELL ID
API .                            : API NUMBER
~Curve Information -----------------------------------------
Depth              .ft          : 
KICh               .psi*in^1/2  : 
KICvup             .psi*in^1/2  : 
KICvdown           .psi*in^1/2  : 
nuh                .            : 
Eh                 .psi         : 
nuv                .            : 
Ev                 .psi         : 
Gv                 .psi         : 
Cl                 .ft/min^1/2  : 
Sigma_h            .psi         : 
SigmaH             .psi         : 
SigmaV             .psi         : 
Pore Pressure      .psi         : 
Biot               .            : 
Porosity           .            : 
Permeability       .nD          : 
SoPhi              .            : 
TensileStrength    .psi         : 
Grad_SigmaH        .psi/ft      : 
Grad_Sigma_h       .psi/ft      : 
Std_KICh           .psi*in^1/2  : 
Std_KICvup         .psi*in^1/2  : 
Std_KICvdown       .psi*in^1/2  : 
Std_nuh            .            : 
Std_Eh             .psi         : 
Std_nuv            .            : 
Std_Ev             .psi         : 
Std_Gv             .psi         : 
Std_Cl             .ft/min^1/2  : 
Std_Sigma_h        .psi         : 
Std_SigmaH         .psi         : 
Std_SigmaV         .psi         : 
Std_Pore Pressure  .psi         : 
Std_Biot           .            : 
Std_Porosity       .            : 
Std_Permeability   .nD          : 
Std_SoPhi          .            : 
Std_TensileStrength.psi         : 
Std_Depth          .ft          : 
~Params ----------------------------------------------------
~Other -----------------------------------------------------
Exported from homogenization method
~ASCII -----------------------------------------------------
 5553.2360000000 2856.4089888790 3431.8315770345 3192.4910380601 0.2228097057 5398924.6153555866 0.2058650499 4548052.2852364359 1884014.2048590640 0.0004788636 3364.2748552364 3805.7928273354 5720.3038118479 2332.2541008277 0.9000000000 0.0600724790 1409.1788942289 0.0000000000 1580.4884939659 0.6853288474 0.6058224169 20.2654653771 20.2654653771 20.2654653771 0.0053830518 110448.3730675890 0.0049440771 99989.5085650582 46559.1943139687 0.0000899152 0.1312328935 0.1315495027 0.0000000000 1366.0856258128 0.0000000000 0.0009148934 12.9003287641 0.0000000000 19.5578549182 5553.2360000000
 5568.0734500000 2859.3428974070 3604.9742727144 3867.7295259554 0.2146980462 5361959.0978498394 0.1902475079 4297947.8650002815 1800920.5165011249 0.0004926317 3322.9006978564 3764.3239070672 5736.2640599152 2338.4853390787 0.9000000000 0.0654510531 1688.2402692430 0.0000000000 1518.3183510591 0.6760550019 0.5967774541 21.3389619267 21.3389619267 21.3389619267 0.0056744657 116379.3159079186 0.0052992278 114972.4587914501 55361.8630976589 0.0000994647 0.1441641106 0.1444840691 0.0000000000 1504.6074593321 0.0000000000 0.0009640058 13.5466715266 0.0000000000 20.4568882697 5568.0734500000
 5581.8003000000 2893.6251282386 3208.1125613179 3350.0972585668 0.2257719265 6118300.4900125647 0.2071693927 5402858.2498976421 2232893.3219162268 0.0004682650 3358.6958942812 3857.8344662982 5750.9766657544 2344.2515464639 0.9000000000 0.0610941145 1408.7899568821 0.0000000000 1594.7785057109 0.6911451967 0.6017226905 20.9505867275 20.9505867275 20.9505867275 0.0055727047 114274.8607253526 0.0052207671 111145.8361887337 53951.1280361159 0.0000971711 0.1410425232 0.1413578158 0.0000000000 1471.2488890661 0.0000000000 0.0009465125 13.2905181623 0.0000000000 20.0602817150 5581.8003000000
 5595.5271500000 2899.9052062417 3476.9118689868 3374.0177894833 0.2098065160 5372071.5990452748 0.1766641812 4281033.4527908871 1808861.3856530557 0.0004866200 3257.0741734423 3701.1180373118 5765.5643245296 2350.0162145131 0.9000000000 0.0703283397 1827.4726281572 0.0000000000 1497.1839964038 0.6614422445 0.5820853132 21.3797833599 21.3797833599 21.3797833599 0.0056762502 116457.6088646021 0.0050206428 100791.0177875562 47718.5461689018 0.0000930976 0.1360548703 0.1363943697 0.0000000000 1415.6510452801 0.0000000000 0.0009641403 13.5210885092 0.0000000000 20.7378989934 5595.5271500000
 5609.2540500000 2921.7353355388 4510.1293159710 3747.0302834620 0.2307632668 5393878.1250194125 0.1945291073 4397003.5155249229 1831245.5684317697 0.0004789461 3387.0784083723 3825.3331297034 5780.1193033810 2355.7817348418 0.9000000000 0.0628470727 1493.0835921035 0.0000000000 1566.1549417172 0.6819682431 0.6038375831 21.3285640205 21.3285640205 21.3285640205 0.0056740869 116359.3782939199 0.0053984953 115870.4157992061 54346.9734681674 0.0000992501 0.1439631956 0.1442834732 0.0000000000 1502.0055591179 0.0000000000 0.0009639625 13.5543731969 0.0000000000 20.3851387323 5609.2540500000
 5622.9809500000 2909.9738251013 3752.1096002914 3368.8208259201 0.2222636489 5174815.5870237211 0.2080145176 4731623.8841656521 1957579.3751321791 0.0004770037 3319.7757605898 3743.1554129067 5794.8437273317 2361.5471312532 0.9000000000 0.0639664935 1542.2527784889 0.0000000000 1581.4384303141 0.6656887950 0.5903942749 20.9500687193 20.9500687193 20.9500687193 0.0055717101 114273.8098187226 0.0052453720 112313.6657199207 52172.0483075924 0.0000965532 0.1401429135 0.1404602466 0.0000000000 1461.7857211909 0.0000000000 0.0009467198 13.3225080716 0.0000000000 20.0587366020 5622.9809500000
 5636.7078000000 2904.5212902859 3625.9875259725 3386.1723724816 0.2300666476 5419657.4017860740 0.2139351487 4835196.2293877043 1989412.6139833953 0.0004756520 3408.0863289394 3848.6850080743 5809.5972623779 2367.3119232450 0.9000000000 0.0600591302 1365.9444746494 0.0000000000 1604.7402548576 0.6827895191 0.6046235586 21.3413115367 21.3413115367 21.3413115367 0.0056739730 116383.8045359342 0.0052632992 112557.7264425824 52300.7864343807 0.0000975017 0.1415954899 0.1419212849 0.0000000000 1476.6602204030 0.0000000000 0.0009641887 13.5705611966 0.0000000000 20.4736853782 5636.7078000000
 5650.4346500000 2902.4563703126 3525.6789578782 3514.8018777421 0.2313990940 5571057.0968614947 0.2098217512 4799259.1659326795 1977431.1029307807 0.0004760445 3440.8908856147 3893.3077441387 5824.4154624404 2373.0780066876 0.9000000000 0.0593219560 1346.1098862945 0.0000000000 1602.8636730787 0.6890280103 0.6089603896 20.9338288902 20.9338288902 20.9338288902 0.0055717097 114242.7524299479 0.0052973425 114118.7441268842 55083.5608078610 0.0000983122 0.1425050919 0.1428169645 0.0000000000 1487.2288719339 0.0000000000 0.0009465405 13.2907334050 0.0000000000 19.9437731329 5650.4346500000
 5664.1615500000 2929.3143506490 4884.7606033194 3893.0326371312 0.2366641587 6464084.9257160621 0.2154503730 5769317.1041221851 2368027.8609306416 0.0004621712 3472.5773119134 3995.2806570593 5839.2364257192 2378.8421119116 0.9000000000 0.0585967547 1275.5287389633 0.0000000000 1635.6378023227 0.7053613534 0.6130787904 21.3246443207 21.3246443207 21.3246443207 0.0056734891 116351.8752776193 0.0054317833 118718.1128310838 57428.0963012898 0.0001013416 0.1466723183 0.1469866589 0.0000000000 1531.6020705986 0.0000000000 0.0009641054 13.5692350506 0.0000000000 20.3576351170 5664.1615500000
 5677.8884500000 2911.0920755233 4330.3254838524 3905.5079044714 0.2401475337 6891280.8374214647 0.2250872781 6260021.0648380397 2548650.9972526734 0.0004575549 3530.9834427104 4086.6657829153 5854.1447713539 2384.6089234277 0.9000000000 0.0550451305 1119.6024904639 0.0000000000 1657.6020261942 0.7197509812 0.6218832007 20.9215145906 20.9215145906 20.9215145906 0.0055708610 114219.1601296431 0.0054175929 120668.4680862599 60050.2523439131 0.0000662255 0.1316334317 0.1318486700 0.0000000000 1455.9834685859 0.0000000000 0.0009466341 13.3021902966 0.0000000000 19.8581194880 5677.8884500000
 5691.6153500000 2884.5289595642 3501.4648247885 3866.7911133852 0.2292018736 6554834.5985282129 0.2112916543 5736475.6564240549 2362292.6306969449 0.0004679737 3474.4019650235 4007.6613700995 5869.1039898732 2390.3726461911 0.9000000000 0.0587612218 1310.3658535341 0.0000000000 1614.2175935784 0.7041342613 0.6104421595 21.3424200270 21.3424200270 21.3424200270 0.0056740717 116385.9132052089 0.0053188374 114929.4026417240 54744.4784836879 0.0000992127 0.1438544692 0.1441751715 0.0000000000 1501.1399443113 0.0000000000 0.0009641664 13.5718814989 0.0000000000 20.4819195072 5691.6153500000
 5705.3422000000 2937.8737599386 3520.0722939016 4549.6450003790 0.2212185333 5375917.1679846719 0.1872393966 4373015.5275115836 1832549.3784531257 0.0004842783 3383.2174688123 3823.4267369574 5883.9016311774 2396.1394947111 0.9000000000 0.0668877754 1590.7986817290 0.0000000000 1523.9376373649 0.6701485385 0.5929911564 20.9511880112 20.9511880112 20.9511880112 0.0055734592 114276.0542753353 0.0051567592 110670.8256800617 54473.0695603770 0.0000972519 0.1410858944 0.1414010771 0.0000000000 1472.0346849249 0.0000000000 0.0009464806 13.3190630319 0.0000000000 20.0630339517 5705.3422000000
 5719.0690500000 2960.6122787788 4276.6010846027 3608.1538558373 0.2488386402 7405671.8005309422 0.2366421489 7119415.4345266717 2871216.1743361377 0.0004437664 3582.7665899040 4175.7712873992 5898.5691444068 2401.9035216254 0.9000000000 0.0533856346 980.2150884818 0.0000000000 1712.0351186099 0.7301487796 0.6264597540 21.3219393144 21.3219393144 21.3219393144 0.0056744246 116346.7625587745 0.0053689057 114000.3218059485 58017.0298503149 0.0001006863 0.1460357404 0.1463513875 0.0000000000 1523.8521733434 0.0000000000 0.0009638450 13.5198680694 0.0000000000 20.3363656837 5719.0690500000
 5732.7959500000 2927.6310253763 3423.8726611522 3411.1612651664 0.2183635068 6266687.2693282347 0.1908731241 5276358.0952439010 2203220.9395899773 0.0004853459 3397.1989492780 3911.5517868768 5913.3715294845 2407.6696829583 0.9000000000 0.0672621485 1693.4461758903 0.0000000000 1540.4539883575 0.6823113575 0.5925902437 20.9689364121 20.9689364121 20.9689364121 0.0055724912 114310.0042894820 0.0051422627 107622.4790448612 52892.0871548168 0.0000960086 0.1395898089 0.1399086264 0.0000000000 1455.2365291649 0.0000000000 0.0009467450 13.3217875938 0.0000000000 20.1883553195 5732.7959500000
