~Version ---------------------------------------------------
VERS.   2.0 : CWLS log ASCII Standard -VERSION 2.0
WRAP.    NO : One line per depth step
DLM . SPACE : Column Data Section Delimiter
~Well ------------------------------------------------------
STRT.ft                 5533.575 : START DEPTH
STOP.ft        7763.808250000001 : STOP DEPTH
STEP.ft       14.590000000000146 : STEP
NULL.                   -9999.25 : NULL VALUE
COMP.                            : COMPANY
WELL.                     bypass : WELL
FLD .                            : FIELD
LOC .                            : LOCATION
PROV.                            : PROVINCE
CNTY.                            : COUNTY
STAT.                            : STATE
CTRY.                            : COUNTRY
SRVC.                            : SERVICE COMPANY
DATE. 2019-07-30 20:43:20.008820 : DATE
UWI .                            : UNIQUE WELL ID
API .                            : API NUMBER
~Curve Information -----------------------------------------
Depth              .ft          : 
KICh               .psi*in^1/2  : 
KICvup             .psi*in^1/2  : 
KICvdown           .psi*in^1/2  : 
nuh                .            : 
Eh                 .psi         : 
nuv                .            : 
Ev                 .psi         : 
Gv                 .psi         : 
Cl                 .ft/min^1/2  : 
Sigma_h            .psi         : 
SigmaH             .psi         : 
SigmaV             .psi         : 
Pore Pressure      .psi         : 
Biot               .            : 
Porosity           .            : 
Permeability       .nD          : 
SoPhi              .            : 
TensileStrength    .psi         : 
Grad_SigmaH        .psi/ft      : 
Grad_Sigma_h       .psi/ft      : 
Std_KICh           .psi*in^1/2  : 
Std_KICvup         .psi*in^1/2  : 
Std_KICvdown       .psi*in^1/2  : 
Std_nuh            .            : 
Std_Eh             .psi         : 
Std_nuv            .            : 
Std_Ev             .psi         : 
Std_Gv             .psi         : 
Std_Cl             .ft/min^1/2  : 
Std_Sigma_h        .psi         : 
Std_SigmaH         .psi         : 
Std_SigmaV         .psi         : 
Std_Pore Pressure  .psi         : 
Std_Biot           .            : 
Std_Porosity       .            : 
Std_Permeability   .nD          : 
Std_SoPhi          .            : 
Std_TensileStrength.psi         : 
Std_Depth          .ft          : 
~Params ----------------------------------------------------
~Other -----------------------------------------------------
Exported from homogenization method
~ASCII -----------------------------------------------------
# ...
 6554.6736000000 2660.2646633909 3943.1443028539 4950.7733827858 0.2086028204 6130273.4999589073 0.1841639680 4423248.1788258441 1863261.8210095426 0.0005986141 4018.2850634472 4525.5049206689 6840.4126956628 2752.8584780178 0.9000000000 0.0536829224 1384.8318593660 0.0000000000 1543.9642734213 0.6904241457 0.6130412144 19.9721213355 19.9721213355 19.9721213355 0.0052950532 108721.7598739458 0.0048726619 91340.0499592366 44228.8433527696 0.0000787608 0.1261538590 0.1264030948 0.0000000000 1388.6603291563 0.0000000000 0.0009007377 12.8226158669 0.0000000000 19.4893665068 6554.6736000000
 6570.0541500000 2724.0671505077 4176.7676218741 3794.3175047938 0.2204425936 6757558.6166621940 0.1958960097 5309191.6776293134 2212394.3998853737 0.0006494063 4038.9511411744 4592.6485171790 6857.2518894959 2759.3179197035 0.9000000000 0.0530607959 1230.6876416022 0.0000000000 1598.6318642274 0.6990274985 0.6147515757 20.2521871580 20.2521871580 20.2521871580 0.0053819727 110422.9954004189 0.0051592583 104973.3422969879 52974.1022461054 0.0000846274 0.1345699081 0.1348108192 0.0000000000 1485.3132990810 0.0000000000 0.0009151644 12.9394782359 0.0000000000 19.4633329932 6570.0541500000
 6585.4347000000 2687.8437729796 3831.8717285124 3914.1105298394 0.2131897483 6779077.5138027128 0.1975954327 5191493.9834031453 2163718.3129146276 0.0005971698 4078.6333103071 4637.4146158205 6874.1827218368 2765.7773610912 0.9000000000 0.0527037396 1245.7572908344 0.0000000000 1578.6550437949 0.7041926353 0.6193415463 19.9686502069 19.9686502069 19.9686502069 0.0052946944 108715.1268674641 0.0048957949 89798.4616537252 43682.6262515903 0.0000784136 0.1257753930 0.1260253480 0.0000000000 1383.7443926005 0.0000000000 0.0009008948 12.8318124815 0.0000000000 19.4646602638 6585.4347000000
 6600.8153000000 2651.4938657193 3267.3653148201 3884.4534975393 0.1944810649 5891866.6625352576 0.1694739730 4104285.7306554206 1752125.4687385913 0.0006698248 3941.7863513847 4435.0437863948 6891.0662388802 2772.2368237910 0.9000000000 0.0609305936 1716.1411418895 0.0000000000 1464.6761331754 0.6718933321 0.5971665881 19.9659708929 19.9659708929 19.9659708929 0.0052951737 108709.9760614887 0.0048363818 92295.9579518770 44749.4010983870 0.0000789557 0.1263190775 0.1265679110 0.0000000000 1391.1002722189 0.0000000000 0.0009006303 12.7840217132 0.0000000000 19.4466153539 6600.8153000000
 6616.1958500000 2695.9496229719 4179.0071192374 3736.3132057357 0.2175642464 6528476.6581489947 0.2009078080 4831138.8539697342 2010783.0778194715 0.0006887500 4179.1376696163 4715.3292239727 6907.8374910177 2778.6978196418 0.9000000000 0.0512906911 1209.7097085851 0.0000000000 1581.0518345644 0.7126949279 0.6316526542 19.9506353448 19.9506353448 19.9506353448 0.0052943701 108680.5785877727 0.0049782183 92367.6920006185 44981.2045644474 0.0000792052 0.1269201513 0.1271676540 0.0000000000 1396.7906365503 0.0000000000 0.0009008687 12.7814674916 0.0000000000 19.3405109381 6616.1958500000
 6631.5764000000 2673.4028991600 5050.9298082917 4609.0739190667 0.2161911640 6587108.4376124013 0.1934352540 4803069.4121944159 2009251.6166236582 0.0005937251 4151.4106913598 4693.0285416296 6924.8951233653 2785.1573371000 0.9000000000 0.0510558215 1249.4680726423 0.0000000000 1575.7711600104 0.7076791789 0.6260066146 20.2868507620 20.2868507620 20.2868507620 0.0053819057 110489.3832463162 0.0050453344 94824.3947457008 46249.2700915833 0.0000808397 0.1294187788 0.1296696705 0.0000000000 1424.8210510211 0.0000000000 0.0009157499 13.0271366190 0.0000000000 19.7052770084 6631.5764000000
 6646.9569500000 2639.5542968066 3572.4415906357 3274.1692837672 0.2101814573 6543655.7625512071 0.1963412238 4784140.4672416029 1998833.2705426428 0.0006686683 4162.4428691229 4703.1597775667 6941.9345341791 2791.6167785183 0.9000000000 0.0504296510 1218.1613817844 0.0000000000 1571.1491972454 0.7075658550 0.6262178167 19.9596839885 19.9596839885 19.9596839885 0.0052942254 108697.9007745346 0.0050012590 92435.1338183364 45222.5814066829 0.0000793974 0.1272432277 0.1274902145 0.0000000000 1400.2926072733 0.0000000000 0.0009010337 12.8184409316 0.0000000000 19.4039120285 6646.9569500000
 6662.3375000000 2630.4950423681 3447.9844137946 4039.2768535976 0.2002467549 6084404.1702659633 0.1741564758 4065882.0496053463 1728472.0134555991 0.0006054417 4092.2614646958 4599.1909061043 6958.9859260182 2798.0762201735 0.9000000000 0.0557050264 1533.8185136580 0.0000000000 1493.1386653084 0.6903269170 0.6142380906 19.9672109767 19.9672109767 19.9672109767 0.0052948722 108712.3954366013 0.0048785161 90608.9437973214 44157.5782760157 0.0000786259 0.1260082277 0.1262576989 0.0000000000 1386.7566612502 0.0000000000 0.0009008614 12.8031512390 0.0000000000 19.4537751261 6662.3375000000
 6677.7180500000 2717.7860990661 3615.8788448016 4011.0820992184 0.2327620241 7133099.3077999828 0.2150153239 5647185.4840664864 2319666.1697641071 0.0006382112 4275.5328259986 4854.1602632570 6975.9751142499 2804.5369129742 0.9000000000 0.0461333413 949.3099754955 0.0000000000 1654.5292816046 0.7269190204 0.6402685459 19.9225950555 19.9225950555 19.9225950555 0.0052941515 108626.9023610820 0.0050732351 99379.9239049978 49639.4200108409 0.0000818062 0.1304851315 0.1307255703 0.0000000000 1438.5150572346 0.0000000000 0.0009005425 12.7467729843 0.0000000000 19.1438217989 6677.7180500000
 6693.0986000000 2766.3890594788 5656.3890738358 4082.5265705394 0.2623094559 7586342.1152250292 0.2269978184 6114007.3701356240 2475564.5905030891 0.0005159362 4447.8433014105 5048.8323916820 6993.2293407945 2810.9967334824 0.9000000000 0.0381832864 704.6500868804 0.0000000000 1756.9421298845 0.7543340825 0.6645417268 20.2057655969 20.2057655969 20.2057655969 0.0053813531 110334.1372715926 0.0053020057 106296.2305623319 54697.9494387047 0.0000612843 0.1360550437 0.1362202300 0.0000000000 1608.9233475163 0.0000000000 0.0009149811 12.8598156012 0.0000000000 19.1375199472 6693.0986000000
 6708.4791500000 2694.3940180693 4127.7983339993 4982.1897894175 0.2433644993 7061812.1080451738 0.2232122508 5416122.4569714814 2207992.4515115707 0.0006402727 4439.6679436407 5007.6278710694 7010.7355123821 2817.4561749618 0.9000000000 0.0398665741 773.7026093139 0.0000000000 1704.0996034155 0.7464624633 0.6617994697 19.9391267253 19.9391267253 19.9391267253 0.0052939133 108658.5018926824 0.0051290834 93347.9708406753 45368.8329418854 0.0000796397 0.1277564439 0.1280022095 0.0000000000 1405.3053022479 0.0000000000 0.0009010815 12.7540189350 0.0000000000 19.2613972710 6708.4791500000
 6723.8597000000 2634.3198189558 3486.6981507964 4024.1832142036 0.2203409696 6392714.9714587089 0.2077024775 4672931.3314234810 1933907.5128098840 0.0006699569 4324.6608058409 4848.5074299117 7028.1001508058 2823.9156165559 0.9000000000 0.0450307125 998.0643656923 0.0000000000 1620.3249654885 0.7210899165 0.6431812975 20.2700743919 20.2700743919 20.2700743919 0.0053815931 110457.2242669930 0.0051380573 97215.8577323057 46760.3939253976 0.0000813647 0.1301946014 0.1304438147 0.0000000000 1433.5413311503 0.0000000000 0.0009157384 12.9775657804 0.0000000000 19.5891754837 6723.8597000000
 6738.6162500000 2689.8310094687 4398.5068510962 3956.8876077672 0.2302741849 6435034.2375072241 0.2117066425 4986581.8155496120 2053599.2319701191 0.0001889325 4299.9178614208 4822.9747796678 7044.6241847784 2830.1143516717 0.9000000000 0.0454694392 969.0648343578 0.0000000000 1646.1177467605 0.7157218338 0.6381010139 20.9718123018 20.9718123018 20.9718123018 0.0055703835 114315.4822917955 0.0053809238 102933.4094851871 49711.7360214411 0.0000850251 0.1359113929 0.1361670704 0.0000000000 1497.0323698238 0.0000000000 0.0009478567 13.3997751632 0.0000000000 20.2094742190 6738.6162500000
 6752.7487500000 2667.0745259612 4250.3630079849 3911.3704670982 0.2269342507 6510542.3207775326 0.2136946487 4932396.6052231453 2030697.1504978400 0.0002662141 4353.0606418191 4883.6956222166 7060.4840623367 2836.0494799222 0.9000000000 0.0445542207 942.3953483621 0.0000000000 1640.9813505370 0.7232159529 0.6446353630 20.9941090553 20.9941090553 20.9941090553 0.0055703699 114358.1968909883 0.0052950009 95513.7840201729 45954.6073679356 0.0000827599 0.1328899883 0.1331517325 0.0000000000 1461.3025755788 0.0000000000 0.0009481512 13.4598174033 0.0000000000 20.3646698177 6752.7487500000
