~Version ---------------------------------------------------
VERS.   2.0 : CWLS log ASCII Standard -VERSION 2.0
WRAP.    NO : One line per depth step
DLM . SPACE : Column Data Section Delimiter
~Well ------------------------------------------------------
STRT.ft               5337.35725 : START DEPTH
STOP.ft        7806.412649999999 : STOP DEPTH
STEP.ft       15.433500000000095 : STEP
NULL.                   -9999.25 : NULL VALUE
COMP.                            : COMPANY
WELL.                     bypass : WELL
FLD .                            : FIELD
LOC .                            : LOCATION
PROV.                            : PROVINCE
CNTY.                            : COUNTY
STAT.                            : STATE
CTRY.                            : COUNTRY
SRVC.                            : SERVICE COMPANY
DATE. 2019-07-30 20:43:33.131485 : DATE
UWI .                            : UNIQUE WELL ID
API .                            : API NUMBER
~Curve Information -----------------------------------------
Depth              .ft          : 
KICh               .psi*in^1/2  : 
KICvup             .psi*in^1/2  : 
KICvdown           .psi*in^1/2  : 
nuh                .            : 
Eh                 .psi         : 
nuv                .            : 
Ev                 .psi         : 
Gv                 .psi         : 
Cl                 .ft/min^1/2  : 
Sigma_h            .psi         : 
SigmaH             .psi         : 
SigmaV             .psi         : 
Pore Pressure      .psi         : 
Biot               .            : 
Porosity           .            : 
Permeability       .nD          : 
SoPhi              .            : 
TensileStrength    .psi         : 
Grad_SigmaH        .psi/ft      : 
Grad_Sigma_h       .psi/ft      : 
Std_KICh           .psi*in^1/2  : 
Std_KICvup         .psi*in^1/2  : 
Std_KICvdown       .psi*in^1/2  : 
Std_nuh            .            : 
Std_Eh             .psi         : 
Std_nuv            .            : 
Std_Ev             .psi         : 
Std_Gv             .psi         : 
Std_Cl             .ft/min^1/2  : 
Std_Sigma_h        .psi         : 
Std_SigmaH         .psi         : 
Std_SigmaV         .psi         : 
Std_Pore Pressure  .psi         : 
Std_Biot           .            : 
Std_Porosity       .            : 
Std_Permeability   .nD          : 
Std_SoPhi          .            : 
Std_TensileStrength.psi         : 
Std_Depth          .ft          : 
~Params ----------------------------------------------------
~Other -----------------------------------------------------
Exported from homogenization method
~ASCII -----------------------------------------------------
# ...
 5960.4098000000 2755.1872654799 3596.4792972812 4329.7251486260 0.2167177107 6040173.1348778447 0.2054949899 4918523.4515753658 2037822.4286283422 0.0005110373 3658.3958578856 4154.8276170065 6189.0882249008 2503.2671598424 0.9000000000 0.0545618854 1218.6402164397 0.0000000000 1601.8794105930 0.6970707982 0.6137826057 20.5947598044 20.5947598044 20.5947598044 0.0054743671 112303.6495632391 0.0053453205 111533.4135585964 53238.7909779643 0.0000929499 0.1409085589 0.1411719772 0.0000000000 1517.0275845310 0.0000000000 0.0009305549 13.1201200800 0.0000000000 19.7733213540 5960.4098000000
 5974.9266000000 2775.3177462793 3835.1932411556 3832.0197922819 0.2096466547 5342434.6786946366 0.1975759424 4448981.5907596080 1855359.1153752529 0.0002657164 3560.2936588541 4001.9461577727 6204.8835887233 2509.3642076766 0.9000000000 0.0597679972 1436.5219949040 0.0000000000 1563.1925194146 0.6697900118 0.5958723675 20.6175773671 20.6175773671 20.6175773671 0.0054751093 112347.3777484491 0.0051259494 100436.5881229306 46948.2170310356 0.0000882043 0.1345805688 0.1348566080 0.0000000000 1445.3909563086 0.0000000000 0.0009306562 13.1268970691 0.0000000000 19.9315912553 5974.9266000000
 5989.4434000000 2792.3052769352 4678.4077189868 4173.1286065961 0.2177797264 5389789.2392123882 0.1972321715 4359001.7591330875 1818139.0108059456 0.0004900490 3620.7929103920 4063.3843842428 6220.5516758940 2515.4612555109 0.9000000000 0.0581167380 1370.9336522415 0.0000000000 1574.0178675983 0.6784243732 0.6045291137 20.5744471278 20.5744471278 20.5744471278 0.0054738181 112264.7867321934 0.0053112013 108731.6060119498 51859.8815867792 0.0000917370 0.1393251516 0.1395913317 0.0000000000 1498.9263211301 0.0000000000 0.0009305598 13.0998569376 0.0000000000 19.6301178192 5989.4434000000
 6003.9602000000 2810.6144637436 4082.4584069591 5187.6949728114 0.2499220332 6554330.2342250701 0.2387494438 5734717.5685248524 2312280.1734115486 0.0005068057 3887.3529341757 4411.7320602551 6236.6529042001 2521.5583033451 0.9000000000 0.0439410638 761.1675998916 0.0000000000 1726.7952002650 0.7348036818 0.6474648073 20.5918945828 20.5918945828 20.5918945828 0.0054737807 112298.1820652105 0.0052981837 104635.4703586430 49753.4677275494 0.0000902390 0.1374749777 0.1377449464 0.0000000000 1477.2887436553 0.0000000000 0.0009308483 13.1276942481 0.0000000000 19.7526224792 6003.9602000000
 6018.4770500000 2750.1672027291 3071.0021760946 3400.8017131177 0.2150251584 5612843.4671928529 0.2008423943 4381238.1081916252 1823776.0301536282 0.0005596195 3705.2783267550 4167.2311866236 6252.7189633908 2527.6553722213 0.9000000000 0.0557066389 1309.9767220804 0.0000000000 1574.5912841913 0.6924062603 0.6156504870 20.6165652097 20.6165652097 20.6165652097 0.0054742463 112345.4322474595 0.0051977551 98160.9507507765 46349.5438872274 0.0000877635 0.1342501351 0.1345268678 0.0000000000 1440.4508883764 0.0000000000 0.0009309411 13.1738812238 0.0000000000 19.9247681731 6018.4770500000
 6032.9939000000 2728.5261596977 3521.2582072897 3361.1946195370 0.2141844130 5701050.5102291470 0.2027796745 4472182.2155644521 1858608.8832207120 0.0005382159 3720.3412326736 4189.8786809605 6268.5947628657 2533.7524409649 0.9000000000 0.0539371025 1234.1019255511 0.0000000000 1589.6813187533 0.6944941020 0.6166658370 20.2652242808 20.2652242808 20.2652242808 0.0053819062 110447.9051383937 0.0051823134 97171.1375447604 46250.1221435436 0.0000867788 0.1327728385 0.1330432774 0.0000000000 1424.4654600409 0.0000000000 0.0009153866 12.9523963931 0.0000000000 19.5563833960 6032.9939000000
 6047.5107000000 2706.8063448863 3630.2038267372 3514.9068696826 0.2172232556 6043048.9701320091 0.2068694873 4738503.1227678396 1961699.5832977281 0.0005340263 3771.3601601441 4267.8220000195 6284.6085767942 2539.8494887992 0.9000000000 0.0507938512 1109.1025042459 0.0000000000 1615.4964264895 0.7057154938 0.6236219078 20.6308554269 20.6308554269 20.6308554269 0.0054752884 112372.8833699048 0.0051138042 97320.2689421791 46548.2991946608 0.0000876102 0.1339426807 0.1342201923 0.0000000000 1437.4907946466 0.0000000000 0.0009308521 13.1284591811 0.0000000000 20.0216804269 6047.5107000000
 6062.0275000000 2650.0018925170 3682.9502199141 3271.7174073791 0.1824470220 5267817.0914420122 0.1652669032 3766121.3235147367 1614410.3814580869 0.0005273709 3524.3769998542 3969.8783198794 6300.4037066856 2545.9465366334 0.9000000000 0.0639257483 1767.6685619644 0.0000000000 1455.5059921157 0.6548763297 0.5813858482 20.6544625624 20.6544625624 20.6544625624 0.0054752012 112418.1289427683 0.0051381599 90722.5685486489 44073.8549077118 0.0001167019 0.1485933966 0.1488543690 0.0000000000 1578.8079978270 0.0000000000 0.0009311331 13.2159663609 0.0000000000 20.1852827623 6062.0275000000
 6076.5443000000 2600.9312469704 3580.7115459678 3333.5266795411 0.1752972492 5247493.4495731443 0.1611330285 3714639.2672108007 1598946.9588041203 0.0005129287 3501.0905550614 3947.5727920675 6316.0629825324 2552.0435844677 0.9000000000 0.0638297498 1807.0474807243 0.0000000000 1447.5492203613 0.6496410784 0.5761647381 20.6302337733 20.6302337733 20.6302337733 0.0054744916 112371.6708873655 0.0052479280 96700.5428011042 46637.0933770929 0.0000878286 0.1345413580 0.1348176553 0.0000000000 1442.8214072210 0.0000000000 0.0009310657 13.1962805390 0.0000000000 20.0180790690 6076.5443000000
 6091.0611000000 2696.3139721159 3795.5795969481 4466.7326603451 0.2121535909 6042016.3744064039 0.2011969586 4734595.0022085197 1970668.2344807056 0.0005767176 3749.7362844065 4248.1893203765 6331.8896152646 2558.1406323019 0.9000000000 0.0529802165 1215.8837028149 0.0000000000 1591.4597540361 0.6974465123 0.6156129815 20.6160858699 20.6160858699 20.6160858699 0.0054741013 112344.5220317362 0.0052070699 98977.6886913793 47423.0878519070 0.0000883527 0.1350467658 0.1353218682 0.0000000000 1449.4436734560 0.0000000000 0.0009310203 13.1758355892 0.0000000000 19.9211537182 6091.0611000000
 6105.5779500000 2751.7078666836 3685.5430922983 4083.0618783600 0.2211552900 6152872.6779026063 0.2069604444 4869244.5255217822 2016415.9596109027 0.0005480709 3807.4093154866 4311.2660098939 6347.8552232781 2564.2377008866 0.9000000000 0.0530823774 1189.8180380674 0.0000000000 1602.1906619417 0.7061192315 0.6235952348 20.6093224296 20.6093224296 20.6093224296 0.0054740083 112331.5558578740 0.0052499087 102248.8705605970 48961.4567807887 0.0000895410 0.1365749534 0.1368469037 0.0000000000 1466.9957054924 0.0000000000 0.0009309436 13.1652971883 0.0000000000 19.8743956672 6105.5779500000
 6120.0948000000 2731.4553229279 4239.1526787589 3519.6263690913 0.2168437206 6013478.5712735290 0.2048182123 4767825.9676843425 1978457.9594431843 0.0002646627 3786.2315319760 4280.4181287949 6363.7968668776 2570.3347699217 0.9000000000 0.0533522117 1209.6794876798 0.0000000000 1596.1388127130 0.6994038930 0.6186556999 20.6135173043 20.6135173043 20.6135173043 0.0054740497 112339.6005338714 0.0052371876 98962.0287203750 47329.3549655849 0.0000883471 0.1350929336 0.1353679120 0.0000000000 1449.6977666998 0.0000000000 0.0009310455 13.1647608799 0.0000000000 19.9033040231 6120.0948000000
 6134.6116000000 2698.4462114537 3729.2063383410 4147.7950236127 0.2088598854 5940575.1568229562 0.1949894479 4445385.1035145903 1859826.8016640551 0.0005527669 3786.0353048852 4277.4549663958 6379.7917214872 2576.4318177560 0.9000000000 0.0547685816 1330.4472026175 0.0000000000 1559.8231940636 0.6972658165 0.6171597408 21.3642063789 21.3642063789 21.3642063789 0.0056732494 116427.6646503260 0.0053658314 103181.9892587126 49295.2980957894 0.0000916552 0.1399863667 0.1402713977 0.0000000000 1502.9061508972 0.0000000000 0.0009648461 13.6513462889 0.0000000000 20.6330569964 6134.6116000000
 6148.3233500000 2753.6415097699 3858.7912029275 3491.2765352787 0.2277918696 6154145.2879962428 0.2116225443 4862797.2776298691 2005470.4431902366 0.0005880960 3883.7296870706 4384.9665367533 6394.8383012240 2582.1910296978 0.9000000000 0.0505211757 1087.2048840500 0.0000000000 1627.1335869505 0.7131971250 0.6316729726 21.7234812963 21.7234812963 21.7234812963 0.0057807204 118554.2164720986 0.0056647219 117382.3406966705 56382.6821392372 0.0000666575 0.1439594828 0.1441596006 0.0000000000 1716.9079436707 0.0000000000 0.0009829311 13.8311359207 0.0000000000 20.6919161185 6148.3233500000
