~Version ---------------------------------------------------
VERS.   2.0 : CWLS log ASCII Standard -VERSION 2.0
WRAP.    NO : One line per depth step
DLM . SPACE : Column Data Section Delimiter
~Well ------------------------------------------------------
STRT.ft       6025.5836500000005 : START DEPTH
STOP.ft               8231.95595 : STOP DEPTH
STEP.ft       14.389099999999416 : STEP
NULL.                   -9999.25 : NULL VALUE
COMP.                            : COMPANY
WELL.                     bypass : WELL
FLD .                            : FIELD
LOC .                            : LOCATION
PROV.                            : PROVINCE
CNTY.                            : COUNTY
STAT.                            : STATE
CTRY.                            : COUNTRY
SRVC.                            : SERVICE COMPANY
DATE. 2019-07-30 20:43:31.832888 : DATE
UWI .                            : UNIQUE WELL ID
API .                            : API NUMBER
~Curve Information -----------------------------------------
Depth              .ft          : 
KICh               .psi*in^1/2  : 
KICvup             .psi*in^1/2  : 
KICvdown           .psi*in^1/2  : 
nuh                .            : 
Eh                 .psi         : 
nuv                .            : 
Ev                 .psi         : 
Gv                 .psi         : 
Cl                 .ft/min^1/2  : 
Sigma_h            .psi         : 
SigmaH             .psi         : 
SigmaV             .psi         : 
Pore Pressure      .psi         : 
Biot               .            : 
Porosity           .            : 
Permeability       .nD          : 
SoPhi              .            : 
TensileStrength    .psi         : 
Grad_SigmaH        .psi/ft      : 
Grad_Sigma_h       .psi/ft      : 
Std_KICh           .psi*in^1/2  : 
Std_KICvup         .psi*in^1/2  : 
Std_KICvdown       .psi*in^1/2  : 
Std_nuh            .            : 
Std_Eh             .psi         : 
Std_nuv            .            : 
Std_Ev             .psi         : 
Std_Gv             .psi         : 
Std_Cl             .ft/min^1/2  : 
Std_Sigma_h        .psi         : 
Std_SigmaH         .psi         : 
Std_SigmaV         .psi         : 
Std_Pore Pressure  .psi         : 
Std_Biot           .            : 
Std_Porosity       .            : 
Std_Permeability   .nD          : 
Std_SoPhi          .            : 
Std_TensileStrength.psi         : 
Std_Depth          .ft          : 
~Params ----------------------------------------------------
~Other -----------------------------------------------------
Exported from homogenization method
~ASCII -----------------------------------------------------
 6025.5836500000 2836.2307105475 4220.8282309207 3284.1971786885 0.2084758540 4633728.4471089495 0.1881462716 3504170.6587721156 1463295.2633970305 0.0005672129 3613.8446081748 3997.2803575609 6207.1456495598 2530.7189000181 0.9000000000 0.0541419565 1729.1463405757 0.0000000000 1593.8735741392 0.6633847590 0.5997501351 10.2575528906 10.2575528906 10.2575528906 0.0065275337 65275.3365768227 0.0064015104 52484.6304826317 23387.3889333835 0.0000944971 0.1165809648 0.1166010735 0.0000000000 1336.4220330850 0.0000000000 0.0009325048 9.3250480824 0.0000000000 9.3250480824 6025.5836500000
 6039.9727500000 2698.5428215767 3553.5770822512 3487.9832435503 0.2107932188 4773114.1942687379 0.2040625487 3869426.2402412733 1606347.7161033961 0.0003734301 3645.0323721455 4039.2461916464 6223.0516803978 2536.7623162151 0.9000000000 0.0522443817 1645.5338083203 0.0000000000 1606.6634344944 0.6687523866 0.6034849035 10.2575528906 10.2575528906 10.2575528906 0.0065275337 65275.3365768227 0.0062853802 54361.2447565839 24231.8867537915 0.0000947933 0.1164739935 0.1164941206 0.0000000000 1337.2580487950 0.0000000000 0.0009325048 9.3250480824 0.0000000000 9.3250480824 6039.9727500000
 6054.3618500000 2736.2477889420 3667.4128198319 4301.7731017925 0.2164165425 4899713.7024918199 0.1940285910 3822213.4929948389 1593271.4099812943 0.0005948002 3653.6985547285 4056.4975574702 6238.9449829255 2542.8057324120 0.9000000000 0.0526488738 1768.8509251509 0.0000000000 1590.7907811430 0.6700124072 0.6034820259 10.2132435997 10.2132435997 10.2132435997 0.0064993368 64993.3683619689 0.0061586576 51536.3049760267 23067.0277827864 0.0000931596 0.1146061960 0.1146264748 0.0000000000 1315.2392807321 0.0000000000 0.0009284767 9.2847669089 0.0000000000 9.2847669089 6054.3618500000
 6068.7509500000 2703.3030704393 3272.6363807077 4097.2624176082 0.2155788586 4964714.0381309409 0.2005505151 3909592.4341023546 1624293.2283818941 0.0007931592 3692.1381649020 4100.5620201867 6254.8199513573 2548.8491486090 0.9000000000 0.0507248367 1634.0227844309 0.0000000000 1604.2713163530 0.6756846761 0.6083851843 10.2575528906 10.2575528906 10.2575528906 0.0065275337 65275.3365768227 0.0061212795 51281.0554203682 22801.9309724595 0.0000931184 0.1145079561 0.1145284287 0.0000000000 1314.3277854451 0.0000000000 0.0009325048 9.3250480824 0.0000000000 9.3250480824 6068.7509500000
 6083.1400000000 2690.5627394921 3229.8716383462 3292.9697215607 0.2057286578 4590524.1299788179 0.1918672723 3672608.0052767196 1540014.5770995228 0.0003901165 3597.0557356882 3977.7818717334 6270.6232983685 2554.8925438703 0.9000000000 0.0571016209 2024.5992740327 0.0000000000 1544.7603002715 0.6539027331 0.5913156258 10.2575528906 10.2575528906 10.2575528906 0.0065275337 65275.3365768227 0.0060573503 50938.5452192437 22759.8181059492 0.0000928366 0.1140751384 0.1140956887 0.0000000000 1309.7535324888 0.0000000000 0.0009325048 9.3250480824 0.0000000000 9.3250480824 6083.1400000000
 6097.5290500000 2640.0596463922 3383.8951647563 3206.4278788001 0.2013481296 4969114.6611653036 0.1874693079 3591853.8753387723 1509665.1801102015 0.0005477821 3702.1151273323 4115.7433287307 6286.3472220137 2560.9359390441 0.9000000000 0.0533905534 1926.2484327227 0.0000000000 1544.4343018223 0.6749854400 0.6071500598 10.2575528906 10.2575528906 10.2575528906 0.0065275337 65275.3365768227 0.0063168945 48763.9198190154 22297.7528073574 0.0000931568 0.1151949994 0.1152153499 0.0000000000 1319.4283258062 0.0000000000 0.0009325048 9.3250480824 0.0000000000 9.3250480824 6097.5290500000
 6111.9181500000 2653.8327984572 3249.0516404878 3435.0393645686 0.2089368508 5637656.7211990226 0.2028857024 4284518.1750780735 1780002.5640527878 0.0005941189 3780.6462878569 4246.9780666890 6302.3144364671 2566.9793552411 0.9000000000 0.0492405454 1551.6764588962 0.0000000000 1610.2125562319 0.6948682823 0.6185695219 10.2575528906 10.2575528906 10.2575528906 0.0065275337 65275.3365768227 0.0062871827 48184.5202744977 22013.2538388743 0.0000928492 0.1148334485 0.1148538631 0.0000000000 1315.2130353936 0.0000000000 0.0009325048 9.3250480824 0.0000000000 9.3250480824 6111.9181500000
 6126.3072500000 2618.7086109151 3040.3097109454 3326.9616416217 0.2012558849 5538788.1673731450 0.1918516660 4058635.7939169570 1699594.0167958690 0.0003940487 3743.8633362110 4204.9464607159 6318.2814460259 2573.0227780056 0.9000000000 0.0515720208 1771.8106183958 0.0000000000 1571.0137951716 0.6863753790 0.6111125648 10.2575528906 10.2575528906 10.2575528906 0.0065275337 65275.3365768227 0.0064078306 49567.4930307594 22871.7293800741 0.0000938317 0.1160816829 0.1161018780 0.0000000000 1329.3458741085 0.0000000000 0.0009325048 9.3250480824 0.0000000000 9.3250480824 6126.3072500000
 6140.6963500000 2627.5781837584 3806.5149897424 3418.3794769266 0.2092655467 5653851.8044011053 0.2016831186 4381780.6554810237 1820665.9184719766 0.0002868929 3765.6388952349 4233.1831678599 6334.1988342608 2579.0662390803 0.9000000000 0.0476364017 1493.5909188346 0.0000000000 1622.8120273712 0.6893653303 0.6132266897 10.2575528906 10.2575528906 10.2575528906 0.0065275337 65275.3365768227 0.0063796436 54161.0596929113 24298.7416301091 0.0000951023 0.1170485604 0.1170685887 0.0000000000 1342.9947369871 0.0000000000 0.0009325048 9.3250480824 0.0000000000 9.3250480824 6140.6963500000
 6155.0854500000 2705.7932076744 3898.9754042419 3673.9586071784 0.2044303849 4495436.0471185204 0.1952714736 3659478.2631036388 1529701.8145918788 0.0003875623 3635.6833579651 4008.9250250102 6350.1229340488 2585.1096552773 0.9000000000 0.0566899124 1929.0820492341 0.0000000000 1568.9376617468 0.6513191503 0.5906795913 10.2575528906 10.2575528906 10.2575528906 0.0065275337 65275.3365768227 0.0063670814 54701.4916044045 24310.9307335585 0.0000951569 0.1170391547 0.1170591846 0.0000000000 1343.2110447831 0.0000000000 0.0009325048 9.3250480824 0.0000000000 9.3250480824 6155.0854500000
 6169.4745500000 2734.9618410266 3475.8405763417 4417.8899580523 0.2120787212 4670837.4411758175 0.2001486856 3951888.2527416958 1643084.8559034199 0.0003614652 3646.8180496420 4032.1756472520 6365.9020381176 2591.1530714742 0.9000000000 0.0548379548 1775.7032548418 0.0000000000 1601.8549426487 0.6535687301 0.5911067499 10.2575528906 10.2575528906 10.2575528906 0.0065275337 65275.3365768227 0.0062549093 52292.4301051520 23323.4032955312 0.0000939480 0.1156467172 0.1156669883 0.0000000000 1326.8548872998 0.0000000000 0.0009325048 9.3250480824 0.0000000000 9.3250480824 6169.4745500000
 6183.8636500000 2664.2907914575 3481.8685382351 3280.4648980783 0.2050521717 4796620.1294402825 0.1968506512 3708233.1522684712 1548739.3237176775 0.0004004202 3735.5223172316 4133.5648453534 6381.6571759890 2597.1964876712 0.9000000000 0.0530600819 1781.8604660492 0.0000000000 1576.7625693726 0.6684437237 0.6040757896 10.2132435997 10.2132435997 10.2132435997 0.0064993368 64993.3683619689 0.0063012084 53679.7208739696 23910.4955528406 0.0000943545 0.1160781433 0.1160981649 0.0000000000 1332.0820964006 0.0000000000 0.0009284767 9.2847669089 0.0000000000 9.2847669089 6183.8636500000
 6198.2527500000 2718.2348818360 3156.8845683315 3284.0546157734 0.2076695115 4500447.1727569848 0.1971078294 3712402.4563586125 1548607.8867059306 0.0003866986 3663.3314097083 4035.9869358892 6397.4687794274 2603.2399038682 0.9000000000 0.0561595900 1879.9953341969 0.0000000000 1576.9083546360 0.6511491381 0.5910264646 10.2575528906 10.2575528906 10.2575528906 0.0065275337 65275.3365768227 0.0062664664 52659.1108454374 23385.6620760229 0.0000940736 0.1157841437 0.1158043906 0.0000000000 1328.4986566097 0.0000000000 0.0009325048 9.3250480824 0.0000000000 9.3250480824 6198.2527500000
 6212.6418500000 2692.1024052216 3243.1400459676 3171.5638638247 0.2084973450 4678857.5413075136 0.2014295644 3818745.5213658726 1589022.2609797299 0.0007866316 3717.7829989256 4104.9462443237 6413.2242976396 2609.2833200652 0.9000000000 0.0536040410 1739.3234838234 0.0000000000 1591.8760215497 0.6607408480 0.5984222314 10.2575528906 10.2575528906 10.2575528906 0.0065275337 65275.3365768227 0.0061882132 50963.5327725502 22758.5490843872 0.0000932685 0.1148522574 0.1148726686 0.0000000000 1317.5769370081 0.0000000000 0.0009325048 9.3250480824 0.0000000000 9.3250480824 6212.6418500000
