~Version ---------------------------------------------------
VERS.   2.0 : CWLS log ASCII Standard -VERSION 2.0
WRAP.    NO : One line per depth step
DLM . SPACE : Column Data Section Delimiter
~Well ------------------------------------------------------
STRT.ft                 5553.236 : START DEPTH
STOP.ft        7956.265999999999 : STOP DEPTH
STEP.ft        14.83744999999999 : STEP
NULL.                   -9999.25 : NULL VALUE
COMP.                            : COMPANY
WELL.                     bypass : WELL
FLD .                            : FIELD
LOC .                            : LOCATION
PROV.                            : PROVINCE
CNTY.                            : COUNTY
STAT.                            : STATE
CTRY.                            : COUNTRY
SRVC.                            : SERVICE COMPANY
DATE. 2019-07-30 20:43:21.016623 : DATE
UWI .                            : UNIQUE WELL ID
API .                            : API NUMBER
~Curve Information -----------------------------------------
Depth              .ft          : 
KICh               .psi*in^1/2  : 
KICvup             .psi*in^1/2  : 
KICvdown           .psi*in^1/2  : 
nuh                .            : 
Eh                 .psi         : 
nuv                .            : 
Ev                 .psi         : 
Gv                 .psi         : 
Cl                 .ft/min^1/2  : 
Sigma_h            .psi         : 
SigmaH             .psi         : 
SigmaV             .psi         : 
Pore Pressure      .psi         : 
Biot               .            : 
Porosity           .            : 
Permeability       .nD          : 
SoPhi              .            : 
TensileStrength    .psi         : 
Grad_SigmaH        .psi/ft      : 
Grad_Sigma_h       .psi/ft      : 
Std_KICh           .psi*in^1/2  : 
Std_KICvup         .psi*in^1/2  : 
Std_KICvdown       .psi*in^1/2  : 
Std_nuh            .            : 
Std_Eh             .psi         : 
Std_nuv            .            : 
Std_Ev             .psi         : 
Std_Gv             .psi         : 
Std_Cl             .ft/min^1/2  : 
Std_Sigma_h        .psi         : 
Std_SigmaH         .psi         : 
Std_SigmaV         .psi         : 
Std_Pore Pressure  .psi         : 
Std_Biot           .            : 
Std_Porosity       .            : 
Std_Permeability   .nD          : 
Std_SoPhi          .            : 
Std_TensileStrength.psi         : 
Std_Depth          .ft          : 
~Params ----------------------------------------------------
~Other -----------------------------------------------------
Exported from homogenization method
~ASCII -----------------------------------------------------
# ...
 7482.3828500000 2582.5225234831 3535.6189785783 3356.0685298983 0.1609334122 4070801.0948252408 0.1227931880 2425831.1688079564 1077558.3891848125 0.0002040442 4780.8291052788 5131.4780789450 7815.9001444127 4115.1732488987 0.9000000000 0.0749681577 2245.3583882269 0.0000000000 1239.1017288004 0.6858080082 0.6389447321 19.1502984858 19.1502984858 19.1502984858 0.0050624012 100907.1764934641 0.0040561922 69821.1754213725 32992.6988743961 0.0001233971 0.1456224055 0.1458966660 0.0000000000 1463.3709849536 0.0000000000 0.0008598367 12.2869218839 0.0000000000 19.1477786008 7482.3828500000
 7499.3407500000 2673.3461740394 3997.2558013306 3289.1845843490 0.1810159180 4425847.2566390354 0.1319115063 2852678.6031969544 1250413.6131548688 0.0003569605 4824.8936105833 5199.6427726641 7833.7101581464 4124.5000364137 0.9000000000 0.0715367777 1866.7235226415 0.0000000000 1360.0435756861 0.6933466482 0.6433757008 19.0590899514 19.0590899514 19.0590899514 0.0050604509 88509.6638093279 0.0046522459 83847.8969363779 40437.6743250381 0.0000809469 0.1186176573 0.1188214692 0.0000000000 1233.5683956478 0.0000000000 0.0008592076 12.2338373703 0.0000000000 18.5284799727 7499.3407500000
 7516.2986500000 2695.0097665900 5409.2542090414 3966.0789815999 0.1701182912 4572788.0453734528 0.1324290178 2775296.7820565519 1220413.1127461616 0.0002102068 4886.8224141486 5277.6194882389 7851.5658685083 4133.8268239287 0.9000000000 0.0695830343 2122.2791007580 0.0000000000 1318.9171314350 0.7021567042 0.6501634171 19.1614534951 19.1614534951 19.1614534951 0.0050558919 103988.9688443300 0.0042569516 66236.1939602196 32288.2218552823 0.0001227792 0.1460730232 0.1463686109 0.0000000000 1463.7711813220 0.0000000000 0.0008617212 13.0890004272 0.0000000000 19.2232005676 7516.2986500000
 7533.2565500000 2408.4080302784 3362.6543549770 4015.0039022193 0.1784983088 5586669.7325402303 0.1506341677 3256244.5370053044 1414807.3012000478 0.0002322312 5134.7331471590 5608.7830198609 7870.2227113854 4143.1536114436 0.9000000000 0.0528094224 1982.4567031034 0.0000000000 1395.4784743871 0.7445363081 0.6816086925 19.1342141694 19.1342141694 19.1342141694 0.0050559195 103936.5753827305 0.0043308015 70760.1921601100 34099.6966803500 0.0001259638 0.1492416949 0.1495306473 0.0000000000 1497.6282596404 0.0000000000 0.0008612454 12.6741186914 0.0000000000 19.0405001509 7533.2565500000
 7550.2144000000 2483.5870372664 3664.7545251339 3577.9028477949 0.1812426150 5336431.3393617123 0.1500486708 3241688.8242501812 1408461.1761852081 0.0004698706 5089.7822152713 5541.5464228662 7888.9682951277 4152.4803712746 0.9000000000 0.0577565259 2023.6085226018 0.0000000000 1384.5022958285 0.7339588162 0.6741241964 19.1300308775 19.1300308775 19.1300308775 0.0050560461 103928.6122031501 0.0043563148 74230.4992448493 35794.0209683942 0.0001288481 0.1520748070 0.1523583271 0.0000000000 1528.1282608945 0.0000000000 0.0008610482 12.7490511273 0.0000000000 19.0097822710 7550.2144000000
 7567.1722500000 2456.0191299979 4233.1529070839 4123.0619902822 0.1808030317 5411865.1552262390 0.1461596136 3266877.6389507526 1423866.6976790172 0.0002484312 5076.9252654701 5535.2460022728 7907.6155273527 4161.8071313370 0.9000000000 0.0573255500 2053.7640106616 0.0000000000 1382.3981712875 0.7314814331 0.6709144576 19.1451870603 19.1451870603 19.1451870603 0.0050556137 103957.6768832661 0.0043093301 69218.0294030439 33566.9977417705 0.0001249870 0.1482942673 0.1485852221 0.0000000000 1487.4169102722 0.0000000000 0.0008615673 12.8868960769 0.0000000000 19.1142339709 7567.1722500000
 7584.1301500000 2418.5659719973 3425.5670640028 2986.7007998793 0.1782898275 5506415.7540258011 0.1506738809 3223131.0979335862 1400355.8622698747 0.0002760208 5162.4917269421 5629.8144200100 7926.3620716653 4171.1339188520 0.9000000000 0.0539327509 2032.1843877839 0.0000000000 1386.5101267026 0.7423151118 0.6806966158 19.1286571083 19.1286571083 19.1286571083 0.0050554382 103925.8948936448 0.0043777629 70372.2677902617 33910.5612406898 0.0001258235 0.1492681928 0.1495570334 0.0000000000 1497.2190906887 0.0000000000 0.0008613916 12.7530130163 0.0000000000 19.0029617181 7584.1301500000
 7601.0880500000 2454.7351899439 4058.8860892581 4813.3095346149 0.1854023433 5559129.4089743998 0.1556013361 3301567.2385246363 1428401.6060026663 0.0005250759 5214.4136292943 5683.3792459284 7945.2230816761 4180.4607063669 0.9000000000 0.0533211532 1918.0021281892 0.0000000000 1411.0116296320 0.7477060137 0.6860088444 19.1621695950 19.1621695950 19.1621695950 0.0050556296 103990.3422849778 0.0042298700 65393.7573997492 31821.5315137228 0.0001219973 0.1452361042 0.1455334102 0.0000000000 1455.0607553874 0.0000000000 0.0008617954 13.1705122263 0.0000000000 19.2281232063 7601.0880500000
 7618.0459000000 2356.5813046859 2602.7769956361 2746.0507956746 0.1612584298 5056406.1180298384 0.1303994363 2790674.6227755463 1234143.2895743165 0.0002731690 5035.6981941008 5471.1229013157 7963.9696076118 4189.7874656500 0.9000000000 0.0600338879 2541.6496456786 0.0000000000 1284.8059843143 0.7181793039 0.6610222963 19.1780777070 19.1780777070 19.1780777070 0.0050563728 104020.9709752453 0.0041151957 63073.4375991356 30639.9620119738 0.0001198487 0.1428203973 0.1431229238 0.0000000000 1430.3618800221 0.0000000000 0.0008616953 13.1470428000 0.0000000000 19.3338963806 7618.0459000000
 7635.0037500000 2331.3150161119 3895.7146254681 3140.8472854882 0.1676739953 5518241.6453907033 0.1383560374 3026426.2994587314 1329111.5803545571 0.0002155079 5148.5112113766 5621.0953116960 7982.6236629383 4199.1145068080 0.9000000000 0.0530188193 2249.2425092251 0.0000000000 1345.8826003211 0.7362269222 0.6743298864 19.4354119040 19.4354119040 19.4354119040 0.0051310352 105525.4663410687 0.0044807312 67453.6214103533 33077.5391605634 0.0001255413 0.1497086262 0.1500056135 0.0000000000 1498.9921468625 0.0000000000 0.0008751739 13.3303343739 0.0000000000 19.4177057181 7635.0037500000
 7651.9616500000 2419.9721504778 3824.6057647023 4595.6755556503 0.1742216763 5323263.4582219515 0.1402441953 2902536.8717614599 1270843.8648008606 0.0005312327 5195.7163974651 5649.0603925123 8001.6963696711 4208.4416964954 0.9000000000 0.0546149980 2055.9711809525 0.0000000000 1356.7612021516 0.7382499614 0.6790045004 19.1538015533 19.1538015533 19.1538015533 0.0050617434 85618.7378698819 0.0041288305 59076.3890728630 28879.0990124684 0.0001157941 0.1380836314 0.1382679042 0.0000000000 1383.1102387646 0.0000000000 0.0008604870 12.6494726245 0.0000000000 19.1713732490 7651.9616500000
 7668.9195500000 2744.7889301670 5268.5323468224 4033.7989317775 0.1916227928 4932150.2058170047 0.1426182077 3097580.3639527517 1347962.8209426382 0.0002235922 5080.7730741091 5494.6750433822 8019.8412346713 4217.7684840104 0.9000000000 0.0664555349 1545.0298639225 0.0000000000 1399.4903786595 0.7164862022 0.6625148485 19.0946552467 19.0946552467 19.0946552467 0.0050567604 103860.5975896480 0.0044829701 82064.1145905742 39175.8457465793 0.0001351354 0.1583939978 0.1586657521 0.0000000000 1595.4709375593 0.0000000000 0.0008602882 12.2904949712 0.0000000000 18.7716185797 7668.9195500000
 7685.8774500000 2540.6863100625 4568.2321158652 4184.6210469282 0.1793269059 4826575.1186648076 0.1391585376 2917660.3779632463 1278229.5683546173 0.0002411532 5081.4311716797 5490.6964139616 8038.2370083911 4227.0952715254 0.9000000000 0.0656356525 2090.5344793330 0.0000000000 1330.8376373086 0.7143877130 0.6611387190 19.1314766004 19.1314766004 19.1314766004 0.0050570749 103931.3655850722 0.0042685816 73182.0313596940 35021.1171027411 0.0001273418 0.1502886325 0.1505755033 0.0000000000 1510.1635923881 0.0000000000 0.0008607300 12.4199375301 0.0000000000 19.0203872841 7685.8774500000
 7702.8353000000 2561.9475839082 4274.5248049129 5177.0273789371 0.1780469917 4820509.4702747110 0.1325259471 2813897.3572529764 1238631.2568203427 0.0004552593 5073.4843887818 5482.6793957767 8056.6175725148 4236.4220317494 0.9000000000 0.0666732899 1938.1450798822 0.0000000000 1312.1029191467 0.7117741951 0.6586515473 19.1714501734 19.1714501734 19.1714501734 0.0050645670 88716.2016797415 0.0039419986 59694.3784362197 28945.2072408850 0.0001155079 0.1372842407 0.1374894842 0.0000000000 1376.5869291988 0.0000000000 0.0008598747 12.3586087503 0.0000000000 19.2890983695 7702.8353000000
