~Version ---------------------------------------------------
VERS.   2.0 : CWLS log ASCII Standard -VERSION 2.0
WRAP.    NO : One line per depth step
DLM . SPACE : Column Data Section Delimiter
~Well ------------------------------------------------------
STRT.ft               5857.54595 : START DEPTH
STOP.ft       7958.7521000000015 : STOP DEPTH
STEP.ft       14.211900000000242 : STEP
NULL.                   -9999.25 : NULL VALUE
COMP.                            : COMPANY
WELL.                     bypass : WELL
FLD .                            : FIELD
LOC .                            : LOCATION
PROV.                            : PROVINCE
CNTY.                            : COUNTY
STAT.                            : STATE
CTRY.                            : COUNTRY
SRVC.                            : SERVICE COMPANY
DATE. 2019-07-30 20:43:36.147719 : DATE
UWI .                            : UNIQUE WELL ID
API .                            : API NUMBER
~Curve Information -----------------------------------------
Depth              .ft          : 
KICh               .psi*in^1/2  : 
KICvup             .psi*in^1/2  : 
KICvdown           .psi*in^1/2  : 
nuh                .            : 
Eh                 .psi         : 
nuv                .            : 
Ev                 .psi         : 
Gv                 .psi         : 
Cl                 .ft/min^1/2  : 
Sigma_h            .psi         : 
SigmaH             .psi         : 
SigmaV             .psi         : 
Pore Pressure      .psi         : 
Biot               .            : 
Porosity           .            : 
Permeability       .nD          : 
SoPhi              .            : 
TensileStrength    .psi         : 
Grad_SigmaH        .psi/ft      : 
Grad_Sigma_h       .psi/ft      : 
Std_KICh           .psi*in^1/2  : 
Std_KICvup         .psi*in^1/2  : 
Std_KICvdown       .psi*in^1/2  : 
Std_nuh            .            : 
Std_Eh             .psi         : 
Std_nuv            .            : 
Std_Ev             .psi         : 
Std_Gv             .psi         : 
Std_Cl             .ft/min^1/2  : 
Std_Sigma_h        .psi         : 
Std_SigmaH         .psi         : 
Std_SigmaV         .psi         : 
Std_Pore Pressure  .psi         : 
Std_Biot           .            : 
Std_Porosity       .            : 
Std_Permeability   .nD          : 
Std_SoPhi          .            : 
Std_TensileStrength.psi         : 
Std_Depth          .ft          : 
~Params ----------------------------------------------------
~Other -----------------------------------------------------
Exported from homogenization method
~ASCII -----------------------------------------------------
# ...
 7813.6345500000 2512.2829697155 3162.3210360269 3415.5850903166 0.2067522648 6181307.7877678815 0.1928246317 3835401.5592499468 1607465.9618825768 0.0002948037 5713.8714066842 6226.0981468397 8239.5899516797 4297.3603329054 0.9000000000 0.0412119870 1083.9130794711 0.0000000000 1578.1031718268 0.7968248460 0.7312693434 24.9582618996 24.9582618996 24.9582618996 0.0065908852 135536.4871119894 0.0060489783 93439.1932819840 45018.2171360303 0.0001207797 0.1562302392 0.1565380533 0.0000000000 1841.7448000174 0.0000000000 0.0011240457 16.4087386726 0.0000000000 24.8959931816 7813.6345500000
 7823.4679000000 2538.6048833357 3371.1798258737 2805.2321832607 0.2002802055 6018441.8239486264 0.1810104651 3785779.0092912731 1602601.9492073779 0.0007571290 5573.4734790768 6074.8932139367 8250.6927842251 4302.7699291714 0.9000000000 0.0480367144 1376.6396734149 0.0000000000 1518.6344250523 0.7764962152 0.7124044670 28.8188671966 28.8188671966 28.8188671966 0.0076105065 156503.1866440789 0.0070571265 116229.6527776905 55822.3707491875 0.0001430656 0.1841231845 0.1844714369 0.0000000000 2174.9879062956 0.0000000000 0.0012979400 18.7889350350 0.0000000000 28.7443912057 7823.4679000000
 7830.9837000000 2515.8375976271 2952.7042434729 2998.8550988684 0.1999824878 6130010.0866263835 0.1813420258 3797693.3710382725 1607172.5526039668 0.0003617382 5607.5273989909 6118.3690278267 8259.1555304139 4306.9037748442 0.9000000000 0.0461777244 1334.0197324035 0.0000000000 1524.7706095884 0.7813027408 0.7160693489 28.8188225862 28.8188225862 28.8188225862 0.0076107415 156503.1008360537 0.0069149914 112406.2674759775 54020.9200103208 0.0001411618 0.1819052707 0.1822577529 0.0000000000 2147.7810345347 0.0000000000 0.0012975549 18.9011811066 0.0000000000 28.7440920974 7830.9837000000
 7838.4995000000 2564.4375654414 2945.5845031817 2713.6274121545 0.2053730317 6090517.0877372772 0.1875922118 3921406.6491914969 1650581.5765985753 0.0007431577 5619.3077192505 6124.5884023085 8267.5812544583 4311.0374484053 0.9000000000 0.0470898503 1267.6175225814 0.0000000000 1543.1020792420 0.7813470425 0.7168856385 28.8187550034 28.8187550034 28.8187550034 0.0076108365 156502.9708411679 0.0069789100 115890.6193288432 55312.7897918150 0.0001425505 0.1833831911 0.1837328342 0.0000000000 2166.6479787475 0.0000000000 0.0012974644 18.7728338335 0.0000000000 28.7436389402 7838.4995000000
 7846.0153000000 2579.8863098499 3007.9879214284 2894.4049747331 0.2044558601 6049611.3402878325 0.1855759761 3926953.3112774910 1655994.0362603113 0.0003570153 5591.1705691100 6093.4398128784 8275.9889187253 4315.1711219664 0.9000000000 0.0490428446 1335.4606521453 0.0000000000 1530.5903121983 0.7766285917 0.7126127538 28.8186965819 28.8186965819 28.8186965819 0.0076109224 156502.8584680424 0.0068833658 114556.3904148645 54852.6123694877 0.0001419166 0.1825604772 0.1829116895 0.0000000000 2157.0639346704 0.0000000000 0.0012973886 18.8722890899 0.0000000000 28.7432472111 7846.0153000000
 7853.5310500000 2531.8220699042 2786.7359007715 2793.1062073167 0.1924685462 5768520.7774822926 0.1696082552 3572074.8197217663 1527016.8889449269 0.0002434427 5494.0490175294 5977.7951755064 8284.3651690963 4319.3047667142 0.9000000000 0.0526483303 1642.1720186057 0.0000000000 1463.6221872828 0.7611601886 0.6995641811 28.8187706669 28.8187706669 28.8187706669 0.0076108738 156503.0009714002 0.0069195890 118479.6035043817 56683.5980595205 0.0001436972 0.1844182243 0.1847659077 0.0000000000 2181.0941813087 0.0000000000 0.0012974648 18.8397551586 0.0000000000 28.7437439176 7853.5310500000
 7861.0468000000 2547.4806657098 2855.2104305486 2864.7661517298 0.2077889226 6357319.3185038399 0.1900622447 4166557.0733105112 1749856.7711663868 0.0008437266 5640.4299094780 6166.7900374206 8292.7613218214 4323.4384141983 0.9000000000 0.0452658389 1200.7723955196 0.0000000000 1556.9286668480 0.7844744083 0.7175163885 28.8187766363 28.8187766363 28.8187766363 0.0076106379 156503.0124516130 0.0068981253 112140.2040938954 54201.2070472912 0.0001412104 0.1819561018 0.1823084885 0.0000000000 2148.4840654668 0.0000000000 0.0012977066 18.9609288678 0.0000000000 28.7437839978 7861.0468000000
 7868.5626000000 2520.3736286859 3067.7670523805 2944.5460760226 0.1975388379 6087222.9559125658 0.1765445522 3806872.5232846919 1617604.7509699031 0.0003609217 5570.0708325042 6078.3819422047 8301.2025468180 4327.5720877594 0.9000000000 0.0488350499 1461.5966746173 0.0000000000 1499.9093301320 0.7724894941 0.7078892443 28.8187659021 28.8187659021 28.8187659021 0.0076105498 156502.9918047675 0.0069898080 115043.3082144320 55340.2060602398 0.0001424732 0.1833886402 0.1837382823 0.0000000000 2166.2374129799 0.0000000000 0.0012978014 18.8407708354 0.0000000000 28.7437120157 7868.5626000000
 7876.0784000000 2530.9430598287 2834.0255819873 2887.4786453171 0.2021463737 6132329.3734831437 0.1844316405 3843982.9915793589 1622656.6916805184 0.0007497740 5654.4672901634 6164.5823233803 8309.6482938706 4331.7057613205 0.9000000000 0.0461134106 1292.3594032951 0.0000000000 1534.0091642991 0.7826969223 0.7179292794 28.8190115321 28.8190115321 28.8190115321 0.0076106286 156503.4642729348 0.0068882720 109066.0144174627 52678.6379373055 0.0001398600 0.1805864131 0.1809414704 0.0000000000 2130.5282163105 0.0000000000 0.0012976810 19.0035739932 0.0000000000 28.7453589815 7876.0784000000
 7883.5942000000 2510.3895490813 2693.7672252005 2905.9842706832 0.1893122503 5745780.8840771522 0.1664426420 3417514.8938509380 1464551.9136665994 0.0003763744 5539.3336396602 6022.4515830335 8318.0742557434 4335.8394348817 0.9000000000 0.0517114837 1670.1585870653 0.0000000000 1456.5539449906 0.7639220678 0.7026406356 28.8188945816 28.8188945816 28.8188945816 0.0076111883 156503.2393191979 0.0067871011 108468.0291574646 52071.0759879952 0.0001391805 0.1796261880 0.1799831197 0.0000000000 2119.6253012295 0.0000000000 0.0012971400 18.9355266867 0.0000000000 28.7445748188 7883.5942000000
 7891.1100000000 2569.7501014764 2948.4970119025 2998.5250159626 0.1957884664 5803692.4502986334 0.1729357460 3607652.3794336319 1537188.4618957133 0.0007514185 5553.3097978624 6038.6542056064 8326.4188040600 4339.9731084428 0.9000000000 0.0530419557 1585.7641343026 0.0000000000 1477.1714818957 0.7652477542 0.7037425404 28.8187271873 28.8187271873 28.8187271873 0.0076114625 156502.9173373701 0.0067622815 114303.4882154376 54833.8048956795 0.0001416061 0.1819787123 0.1823310279 0.0000000000 2151.1569777460 0.0000000000 0.0012969634 18.8704353540 0.0000000000 28.7434524198 7891.1100000000
 7898.6258000000 2552.5130235566 2977.6579912166 2912.9634762829 0.1973728003 6036791.9629347753 0.1724258828 3838748.3867143574 1635601.3743634021 0.0003504812 5528.6156966384 6032.7854891717 8334.7384944065 4344.1067820039 0.9000000000 0.0522396113 1574.1104827877 0.0000000000 1480.4334159283 0.7637765913 0.6999465270 28.8186902827 28.8186902827 28.8186902827 0.0076109637 156502.8463516458 0.0068851525 116083.1042976448 55704.3479550855 0.0001426426 0.1832987522 0.1836485511 0.0000000000 2166.7364554974 0.0000000000 0.0012973451 18.8424027256 0.0000000000 28.7432049685 7898.6258000000
 7906.1416000000 2556.9346484043 2678.5360506408 2728.0744332422 0.2051046953 6251739.7013540762 0.1871804070 4032689.2373706573 1698334.2094300978 0.0002594834 5664.3515141254 6183.1230138592 8343.1192085561 4348.2404555650 0.9000000000 0.0469554513 1276.6676397168 0.0000000000 1539.8952831060 0.7820658074 0.7164495402 28.8188444494 28.8188444494 28.8188444494 0.0076105307 156503.1428901624 0.0069318943 112668.7235222491 54494.2231551205 0.0001415239 0.1823503069 0.1827019376 0.0000000000 2153.1615602937 0.0000000000 0.0012978127 18.9442161629 0.0000000000 28.7442386817 7906.1416000000
 7913.6574000000 2504.7031887276 2898.6567460813 2745.2285282970 0.1987180695 6156236.2926647523 0.1801455039 3782003.3197653317 1602276.7955121340 0.0008516681 5667.3280597436 6180.8963832186 8351.5761382630 4352.3741291261 0.9000000000 0.0460582482 1357.2837253697 0.0000000000 1519.0127570051 0.7810416942 0.7161452377 28.8197842541 28.8197842541 28.8197842541 0.0076104090 156504.9506325698 0.0070871766 110610.6060447515 53269.6054386273 0.0001407813 0.1819393381 0.1822917765 0.0000000000 2145.5119752790 0.0000000000 0.0012981098 18.8489298258 0.0000000000 28.7505391250 7913.6574000000
