~Version ---------------------------------------------------
VERS.   2.0 : CWLS log ASCII Standard -VERSION 2.0
WRAP.    NO : One line per depth step
DLM . SPACE : Column Data Section Delimiter
~Well ------------------------------------------------------
STRT.ft               5683.82875 : START DEPTH
STOP.ft        7698.577649999999 : STOP DEPTH
STEP.ft       15.128450000000157 : STEP
NULL.                   -9999.25 : NULL VALUE
COMP.                            : COMPANY
WELL.                     bypass : WELL
FLD .                            : FIELD
LOC .                            : LOCATION
PROV.                            : PROVINCE
CNTY.                            : COUNTY
STAT.                            : STATE
CTRY.                            : COUNTRY
SRVC.                            : SERVICE COMPANY
DATE. 2019-07-30 20:43:20.519169 : DATE
UWI .                            : UNIQUE WELL ID
API .                            : API NUMBER
~Curve Information -----------------------------------------
Depth              .ft          : 
KICh               .psi*in^1/2  : 
KICvup             .psi*in^1/2  : 
KICvdown           .psi*in^1/2  : 
nuh                .            : 
Eh                 .psi         : 
nuv                .            : 
Ev                 .psi         : 
Gv                 .psi         : 
Cl                 .ft/min^1/2  : 
Sigma_h            .psi         : 
SigmaH             .psi         : 
SigmaV             .psi         : 
Pore Pressure      .psi         : 
Biot               .            : 
Porosity           .            : 
Permeability       .nD          : 
SoPhi              .            : 
TensileStrength    .psi         : 
Grad_SigmaH        .psi/ft      : 
Grad_Sigma_h       .psi/ft      : 
Std_KICh           .psi*in^1/2  : 
Std_KICvup         .psi*in^1/2  : 
Std_KICvdown       .psi*in^1/2  : 
Std_nuh            .            : 
Std_Eh             .psi         : 
Std_nuv            .            : 
Std_Ev             .psi         : 
Std_Gv             .psi         : 
Std_Cl             .ft/min^1/2  : 
Std_Sigma_h        .psi         : 
Std_SigmaH         .psi         : 
Std_SigmaV         .psi         : 
Std_Pore Pressure  .psi         : 
Std_Biot           .            : 
Std_Porosity       .            : 
Std_Permeability   .nD          : 
Std_SoPhi          .            : 
Std_TensileStrength.psi         : 
Std_Depth          .ft          : 
~Params ----------------------------------------------------
~Other -----------------------------------------------------
Exported from homogenization method
~ASCII -----------------------------------------------------
 5683.8287500000 2719.7529671391 2920.0689772773 3003.6435596232 0.2175672565 6463099.0036096321 0.2165270256 5706270.9623077903 2344494.3960899520 0.0004638995 3457.9374426705 3988.7581401674 5855.4940423619 2387.1027830262 0.9000000000 0.0495404560 947.4371038360 0.0000000000 1669.1631009800 0.7017731032 0.6083817080 20.2372745540 20.2372745540 20.2372745540 0.0161459852 110394.3610460808 0.0160600259 112025.7159208806 55373.9331591756 0.0001282397 0.2431303285 0.2428730629 0.0000000000 2574.0965964389 0.0000000000 0.0018298483 12.8846937298 0.0000000000 19.3618358594 5683.8287500000
 5698.9572000000 2760.0920492679 3084.5992025822 3220.7032902675 0.2077550478 6014158.6698063212 0.2010398482 5304262.4619403677 2205041.0032613082 0.0004808026 3354.4435194803 3852.4053107329 5872.1077577404 2393.4565329026 0.9000000000 0.0578890184 1309.1660229008 0.0000000000 1601.0670375868 0.6759842504 0.5886065471 20.6024351873 20.6024351873 20.6024351873 0.0164241183 112318.3578984675 0.0159966149 109349.5626386214 53157.5878539676 0.0001496879 0.2588715631 0.2586356430 0.0000000000 2511.6980244523 0.0000000000 0.0018610541 13.1238748971 0.0000000000 19.8265923690 5698.9572000000
 5713.0715500000 2754.3258799836 3633.5618870210 3187.5594450292 0.2080460724 6186777.0146306353 0.2009400135 5346192.5435177153 2222500.1567289871 0.0004823935 3388.6061444754 3900.7370272286 5887.3963389508 2399.3856579497 0.9000000000 0.0573098661 1295.5828139272 0.0000000000 1599.1539830698 0.6827740547 0.5931321033 20.9530848378 20.9530848378 20.9530848378 0.0167136039 114279.5841453368 0.0166167610 116642.0740791822 57644.2038512318 0.0001547455 0.2675205872 0.2672841125 0.0000000000 2595.9908630243 0.0000000000 0.0018939540 13.3443158566 0.0000000000 20.0798636682 5713.0715500000
 5727.1859000000 2814.4792022419 3639.0641132864 4270.9811460612 0.2014398498 5943337.6371088978 0.1977435161 5413504.0871692915 2259377.1655577072 0.0004859097 3305.7276821078 3800.4122589513 5902.7100246224 2405.3132962081 0.9000000000 0.0637364928 1562.3298372531 0.0000000000 1579.9156337745 0.6635741052 0.5771992982 20.9216718872 20.9216718872 20.9216718872 0.0167165829 114219.4746570104 0.0164255354 115234.2446144121 57947.0964207679 0.0001539380 0.2659120947 0.2656738111 0.0000000000 2581.0056700740 0.0000000000 0.0018924398 13.2724820556 0.0000000000 19.8587365032 5727.1859000000
 5741.3003000000 2894.4906563769 3272.2774943027 3239.7112368413 0.2120429183 5831913.4458645862 0.1934612036 5251559.1532286815 2192175.6746345903 0.0004896311 3321.3987690485 3802.5627078497 5917.7012204879 2411.2409547696 0.9000000000 0.0656027127 1565.1779816954 0.0000000000 1582.5472200022 0.6623173339 0.5785098489 20.9533333443 20.9533333443 20.9533333443 0.0167168499 114280.0767436096 0.0161953787 116376.1462940321 56298.4563691717 0.0001529480 0.2638560270 0.2636160924 0.0000000000 2562.0473087199 0.0000000000 0.0018933378 13.3003133261 0.0000000000 20.0810180060 5741.3003000000
 5755.4147000000 2797.7995496109 4853.4870784312 3385.7743054702 0.2244654142 6226227.4788669022 0.2219268525 5783375.4320589602 2365728.4321826957 0.0004688918 3480.2327606154 3988.7181295539 5932.9181749973 2417.1686133311 0.9000000000 0.0524823352 1040.2524586208 0.0000000000 1667.2718753983 0.6930374851 0.6046884442 20.5603594970 20.5603594970 20.5603594970 0.0164205672 112237.7856416132 0.0164230274 119995.8961819490 59078.3162103325 0.0001315069 0.2489181594 0.2486581521 0.0000000000 2636.9327258822 0.0000000000 0.0018609270 13.0726149464 0.0000000000 19.5325459127 5755.4147000000
 5769.5290500000 2795.3676652073 3174.5937597962 3394.7219846134 0.2329034028 6581190.0786972074 0.2314973781 6189134.6621965766 2510871.0401297505 0.0004610523 3551.9177974046 4085.7138809860 5948.5461959227 2423.0975344155 0.9000000000 0.0487216103 865.1774482581 0.0000000000 1702.6904303783 0.7081537931 0.6156339220 20.9373555821 20.9373555821 20.9373555821 0.0167122665 114249.4646621678 0.0166237898 119187.0426240820 58400.0617865127 0.0001331289 0.2521338877 0.2518680504 0.0000000000 2670.4424660441 0.0000000000 0.0018938827 13.3233545748 0.0000000000 19.9699034538 5769.5290500000
 5783.6434000000 2830.8566915497 3697.5931777094 3398.2455645338 0.2208755886 6312184.2508588666 0.2157142925 5921733.9710887838 2432576.7849291060 0.0004734668 3447.6374237390 3964.6585116867 5964.0395592898 2429.0255908859 0.9000000000 0.0562773233 1173.1729093297 0.0000000000 1656.3563932770 0.6854949791 0.5961013128 20.8904365994 20.8904365994 20.8904365994 0.0167130915 114159.7242608946 0.0166656815 115144.5192940346 59808.0485506181 0.0001006205 0.2440514067 0.2437558972 0.0000000000 2674.3585170316 0.0000000000 0.0018922705 13.2626340087 0.0000000000 19.6381546243 5783.6434000000
 5797.7578000000 3039.5094672395 4678.6822972376 5430.5029139943 0.2331510623 6620756.9403319964 0.2231662087 6464564.7560398448 2640545.4748685076 0.0004812487 3483.5815621822 4020.4790391267 5979.3599034895 2434.9532494474 0.9000000000 0.0616354259 1464.7886127689 0.0000000000 1721.2871152659 0.6934541210 0.6008497910 20.8676789578 20.8676789578 20.8676789578 0.0167189432 114116.2218913230 0.0167189432 114116.2218913164 57642.3984861702 0.0001546258 0.2677469781 0.2675098316 0.0000000000 2596.8528905764 0.0000000000 0.0018908472 13.3246052341 0.0000000000 19.4762967970 5797.7578000000
 5811.8722000000 3144.1315468424 3713.7820324882 3275.8563795391 0.1869008149 5114145.9033145970 0.1840021624 5070134.5065272003 2140403.0250788755 0.0005360007 3162.5721670645 3593.4544985264 5993.8639986311 2440.8809080088 0.9000000000 0.0863051730 3287.4478357373 0.0000000000 1596.5190976662 0.6182955122 0.5441572110 20.8672056312 20.8672056312 20.8672056312 0.0167156848 114115.3184948184 0.0167156848 114115.3184948118 59290.5698619578 0.0001550501 0.2683133880 0.2680769115 0.0000000000 2602.9147475516 0.0000000000 0.0018916283 13.3941508291 0.0000000000 19.4728772680 5811.8722000000
 5825.9865500000 2843.9255799502 4338.7664136996 4172.1550131840 0.2705775670 8181890.1715705972 0.2699583223 8170750.0587192159 3216556.1305381744 0.0004181903 3851.8230350184 4495.7735016630 6008.9111456221 2446.8091966304 0.9000000000 0.0355563122 386.2187742466 0.0000000000 1870.5600464847 0.7716759150 0.6611451987 20.5212116814 20.5212116814 20.5212116814 0.0164199559 112162.9390451517 0.0164199559 113203.9913344238 60196.8443252447 0.0000990707 0.2402900004 0.2400003167 0.0000000000 2633.1478042598 0.0000000000 0.0018601239 13.0287511687 0.0000000000 19.2546365314 5825.9865500000
 5840.1009000000 2813.3266346429 3937.5319468873 4189.5176412858 0.2444465139 7121416.9582189573 0.2347365636 6400278.2579938062 2585568.7227934492 0.0004598970 3712.1753681993 4284.4311364233 6024.8716900212 2452.7378855637 0.9000000000 0.0458251082 784.9951074864 0.0000000000 1730.9572733848 0.7336227935 0.6356354850 20.9467611806 20.9467611806 20.9467611806 0.0167140525 114267.4673004988 0.0164424279 119351.7192305489 57644.1886829432 0.0001543575 0.2663831460 0.2661455928 0.0000000000 2586.3329870530 0.0000000000 0.0018936977 13.3231011129 0.0000000000 20.0359350077 5840.1009000000
 5854.2153000000 2818.2406939779 5200.3583085003 3803.9484743666 0.2201413832 6470702.3633792186 0.2138545417 6029734.1147109633 2482676.0447804206 0.0004754047 3488.9045577956 4019.2285392968 6040.2938067926 2458.6655441251 0.9000000000 0.0564849902 1230.8141904179 0.0000000000 1634.6738851071 0.6865529082 0.5959645109 20.9456456066 20.9456456066 20.9456456066 0.0167119306 114265.3413299027 0.0165733199 116017.0685103878 57097.0265151901 0.0001325882 0.2513010191 0.2510343677 0.0000000000 2660.8960855423 0.0000000000 0.0018942871 13.3407615837 0.0000000000 20.0277714583 5854.2153000000
 5868.3297000000 2773.9876441422 3980.6113548323 3597.6724816730 0.2264226122 6633270.5529462462 0.2218647874 5790405.9494923204 2367894.0053141075 0.0004797646 3637.3156689799 4178.1790293678 6055.8290993822 2464.5932026866 0.9000000000 0.0507480937 997.1079780419 0.0000000000 1659.0457324876 0.7119877790 0.6198212873 20.9503824738 20.9503824738 20.9503824738 0.0167166231 114274.4267130156 0.0161520403 119058.9949041655 57366.2576986841 0.0001532935 0.2641025582 0.2638628393 0.0000000000 2565.5149147967 0.0000000000 0.0018935043 13.3166710731 0.0000000000 20.0603700826 5868.3297000000
