~Version ---------------------------------------------------
VERS.   2.0 : CWLS log ASCII Standard -VERSION 2.0
WRAP.    NO : One line per depth step
DLM . SPACE : Column Data Section Delimiter
~Well ------------------------------------------------------
STRT.ft               5857.54595 : START DEPTH
STOP.ft       7958.7521000000015 : STOP DEPTH
STEP.ft       14.211900000000242 : STEP
NULL.                   -9999.25 : NULL VALUE
COMP.                            : COMPANY
WELL.                     bypass : WELL
FLD .                            : FIELD
LOC .                            : LOCATION
PROV.                            : PROVINCE
CNTY.                            : COUNTY
STAT.                            : STATE
CTRY.                            : COUNTRY
SRVC.                            : SERVICE COMPANY
DATE. 2019-07-30 20:43:36.147719 : DATE
UWI .                            : UNIQUE WELL ID
API .                            : API NUMBER
~Curve Information -----------------------------------------
Depth              .ft          : 
KICh               .psi*in^1/2  : 
KICvup             .psi*in^1/2  : 
KICvdown           .psi*in^1/2  : 
nuh                .            : 
Eh                 .psi         : 
nuv                .            : 
Ev                 .psi         : 
Gv                 .psi         : 
Cl                 .ft/min^1/2  : 
Sigma_h            .psi         : 
SigmaH             .psi         : 
SigmaV             .psi         : 
Pore Pressure      .psi         : 
Biot               .            : 
Porosity           .            : 
Permeability       .nD          : 
SoPhi              .            : 
TensileStrength    .psi         : 
Grad_SigmaH        .psi/ft      : 
Grad_Sigma_h       .psi/ft      : 
Std_KICh           .psi*in^1/2  : 
Std_KICvup         .psi*in^1/2  : 
Std_KICvdown       .psi*in^1/2  : 
Std_nuh            .            : 
Std_Eh             .psi         : 
Std_nuv            .            : 
Std_Ev             .psi         : 
Std_Gv             .psi         : 
Std_Cl             .ft/min^1/2  : 
Std_Sigma_h        .psi         : 
Std_SigmaH         .psi         : 
Std_SigmaV         .psi         : 
Std_Pore Pressure  .psi         : 
Std_Biot           .            : 
Std_Porosity       .            : 
Std_Permeability   .nD          : 
Std_SoPhi          .            : 
Std_TensileStrength.psi         : 
Std_Depth          .ft          : 
~Params ----------------------------------------------------
~Other -----------------------------------------------------
Exported from homogenization method
~ASCII -----------------------------------------------------
# ...
 6893.3741000000 2674.7930900342 3764.7366400069 3970.7815018241 0.2115884994 6070104.3419774566 0.1953551293 4287758.8989517977 1791748.8066417521 0.0006462266 4430.2379996482 4931.2417930172 7194.3236680663 3032.9745267529 0.9000000000 0.0510439047 1220.4117839565 0.0000000000 1579.4979414419 0.7153596659 0.6426806286 22.7834963734 22.7834963734 22.7834963734 0.0060176304 123726.9816245100 0.0056821877 103114.8644601507 49015.4523875233 0.0001180882 0.1507217159 0.1509875967 0.0000000000 1786.4238974472 0.0000000000 0.0010252100 14.6663176065 0.0000000000 22.7256527487 6893.3741000000
 6905.5623500000 2686.8246577363 3970.7598468939 3423.4247345365 0.2161760416 6446853.4824635051 0.2015179266 4695835.7939710971 1952263.0920215838 0.0005057085 4459.6283167410 4989.7204466465 7207.7999830456 3038.3368186833 0.9000000000 0.0499125272 1142.3835122326 0.0000000000 1598.9126130296 0.7225654036 0.6458023389 22.3229235876 22.3229235876 22.3229235876 0.0058955932 121226.7029264588 0.0056751915 111073.0747818173 52577.7711740523 0.0000848610 0.1418083481 0.1420604585 0.0000000000 1667.5297489596 0.0000000000 0.0010048144 14.3173294594 0.0000000000 22.2648071088 6905.5623500000
 6917.7506000000 2705.6828411693 3483.1130943927 3907.2154824672 0.2186046008 6362432.1617401354 0.2034369086 4745310.8637862485 1968688.9874569776 0.0008372009 4449.9502468393 4972.0582511421 7221.3312327158 3043.7010379312 0.9000000000 0.0503405235 1133.2868052572 0.0000000000 1605.1212133096 0.7187391594 0.6432654925 22.7832703572 22.7832703572 22.7832703572 0.0060175109 123726.5468822705 0.0057039577 110926.9959308275 52507.6218903680 0.0001217681 0.1544587685 0.1547182285 0.0000000000 1835.4496733801 0.0000000000 0.0010252981 14.6429905928 0.0000000000 22.7241373296 6917.7506000000
 6929.9388000000 2653.5128002458 3023.2501587119 3329.2730867594 0.1981278981 6118545.8862101361 0.1809057238 4243883.5493926043 1796313.0536574309 0.0007729202 4330.9347124420 4841.6102334525 7234.7784096135 3049.0625848730 0.9000000000 0.0569456870 1521.5312675571 0.0000000000 1507.2219994325 0.6986512252 0.6249600231 22.3229697397 22.3229697397 22.3229697397 0.0058964480 121226.7917001083 0.0055413429 110861.9663513090 52891.7344286812 0.0001205189 0.1525020047 0.1527542702 0.0000000000 1814.0975178366 0.0000000000 0.0010042802 14.3189879764 0.0000000000 22.2651165501 6929.9388000000
 6942.1270500000 2732.4084024611 3652.5581410077 3423.7135340327 0.2195687943 7051130.2691720240 0.2069591822 5414603.7321721530 2241831.5010068198 0.0008068231 4465.3851075032 5043.5509561201 7248.1315714416 3054.4259732148 0.9000000000 0.0515599879 1139.2071847121 0.0000000000 1607.4349895220 0.7265137788 0.6432301045 22.7831904553 22.7831904553 22.7831904553 0.0060173325 123726.3931915487 0.0057598668 116367.6864130465 55728.1997209076 0.0000875122 0.1459149611 0.1461701834 0.0000000000 1717.3508309026 0.0000000000 0.0010253582 14.6219476831 0.0000000000 22.7236015761 6942.1270500000
 6954.3153000000 2687.2318326790 3012.2508611494 3154.5221277773 0.2118524894 6891721.7767093554 0.1984148240 5019826.2477862053 2092891.9038364696 0.0008402197 4464.6843863062 5033.3775099955 7261.6202997112 3059.7890960513 0.9000000000 0.0519049346 1221.2781229936 0.0000000000 1579.2638230074 0.7237775817 0.6420020079 22.7832426645 22.7832426645 22.7832426645 0.0060170140 123726.4936163499 0.0058616570 118093.9824475133 60498.0771555150 0.0000892434 0.1486527159 0.1489032553 0.0000000000 1750.1677954182 0.0000000000 0.0010256803 14.5349308748 0.0000000000 22.7239516238 6954.3153000000
 6966.5035000000 2837.6269728772 3608.3212030171 3442.8621537875 0.2595888555 8319076.0958999954 0.2497623862 7734988.5075759441 3087704.4166520545 0.0006337253 4628.7970034182 5289.2566494200 7275.2013727581 3065.1506429931 0.9000000000 0.0420532970 637.4229034198 0.0000000000 1766.7587716517 0.7592412247 0.6644361843 22.3228322206 22.3228322206 22.3228322206 0.0058957730 121226.5271830491 0.0057071676 121297.0468097153 60361.6282025729 0.0000883374 0.1466614080 0.1469051840 0.0000000000 1728.9698646307 0.0000000000 0.0010047208 14.2417635251 0.0000000000 22.2641944646 6966.5035000000
 6978.6917500000 2693.9255694947 4029.6923677787 3680.6166970207 0.2122984962 6779702.4259568574 0.1966480408 4945459.3800393920 2064712.6707205274 0.0005415997 4462.9453762344 5022.1890317753 7288.7418943576 3070.5151277463 0.9000000000 0.0526016072 1257.8345935470 0.0000000000 1574.2864119451 0.7196462047 0.6395103174 22.7833187137 22.7833187137 22.7833187137 0.0060173641 123726.6398969539 0.0057218050 110646.5154530226 53027.1368667066 0.0001220518 0.1548634670 0.1551222551 0.0000000000 1840.0568960704 0.0000000000 0.0010254907 14.6401056429 0.0000000000 22.7244615291 6978.6917500000
 6990.8800000000 2730.0930727750 3871.6812719087 4158.1206192776 0.2295421378 7179175.4972465103 0.2068331252 5400696.6749347365 2229658.4062550627 0.0007159138 4560.2320981002 5144.1222533650 7302.2805558059 3075.8771541714 0.9000000000 0.0477539401 1024.4497760469 0.0000000000 1640.1006291345 0.7358332933 0.6523115971 22.7832309936 22.7832309936 22.7832309936 0.0060167864 123726.4711710536 0.0059640504 150008.1335745986 72267.4055181006 0.0000720978 0.1659762572 0.1661427503 0.0000000000 2067.4065130269 0.0000000000 0.0010260285 14.4499510643 0.0000000000 22.7238732609 6990.8800000000
 7003.0682500000 2833.1137798596 4348.1444749649 3674.1351161153 0.2649938411 8396179.8381567989 0.2597802003 7881839.9731533378 3125309.5088647888 0.0007156742 4722.8108868642 5386.5437498353 7315.9368592133 3081.2393620586 0.9000000000 0.0385414126 540.9707088433 0.0000000000 1794.7679836045 0.7691691067 0.6743916692 22.3228217009 22.3228217009 22.3228217009 0.0058952038 121226.5069488450 0.0058580213 140711.6035282210 68223.2343872605 0.0000700318 0.1615429211 0.1617071395 0.0000000000 2010.6720336213 0.0000000000 0.0010053142 14.1546680310 0.0000000000 22.2641239223 7003.0682500000
 7015.2565000000 2788.2280709761 3304.4030903450 3495.9523498828 0.2444076467 7710835.8484243313 0.2363954514 6592779.3765434008 2662592.8532807864 0.0007550277 4643.9277996791 5263.5668600108 7329.6823203275 3086.6036653497 0.9000000000 0.0441324293 762.6748276235 0.0000000000 1714.0100427184 0.7503028378 0.6619754815 22.7831551764 22.7831551764 22.7831551764 0.0060168369 123726.3253345041 0.0059738698 144063.2354614944 68261.2464218288 0.0000948094 0.1558761062 0.1561150577 0.0000000000 1844.5537311764 0.0000000000 0.0010258372 14.4729054116 0.0000000000 22.7233649772 7015.2565000000
 7027.4447000000 2848.4040216383 4875.4678873840 4428.1815085313 0.2737715337 8398911.8198162131 0.2643126942 7792765.9710754808 3076988.2173038600 0.0009438666 4820.3480248502 5479.7215150953 7343.3650590840 3091.9652122915 0.9000000000 0.0365888016 491.0807026153 0.0000000000 1820.9490486263 0.7797601759 0.6859318331 22.3228960201 22.3228960201 22.3228960201 0.0058951962 121226.6499005894 0.0058611484 132430.9615385588 66248.0457168572 0.0000693892 0.1604345293 0.1605998818 0.0000000000 1995.0777693026 0.0000000000 0.0010055289 14.1226613941 0.0000000000 22.2646222655 7027.4447000000
 7039.6329500000 2800.1317550280 3980.3150602627 4183.1260643040 0.2472366875 7619023.5740282284 0.2366428320 6491963.3697714554 2619074.9016989488 0.0007358518 4674.2538097879 5285.1261205906 7357.1491630137 3097.5302378511 0.9000000000 0.0437328643 755.2357587570 0.0000000000 1721.2241569348 0.7507672855 0.6639911261 22.7832035924 22.7832035924 22.7832035924 0.0060166823 123726.4184611785 0.0059945981 139156.4154219077 68569.6858729150 0.0000711282 0.1642870651 0.1644552707 0.0000000000 2043.7699156927 0.0000000000 0.0010261883 14.4252047757 0.0000000000 22.7236896476 7039.6329500000
 7051.8212000000 2807.8333671255 4407.9427289187 5343.6680019828 0.2477228484 7209720.3079348812 0.2044011488 5357458.3517913166 2205028.0817148704 0.0004041495 4684.1840191550 5262.0142894972 7370.8530789103 3149.2363388180 0.9000000000 0.0468584618 979.9774897283 0.0000000000 1679.0221915265 0.7461922446 0.6642516715 22.7837697159 22.7837697159 22.7837697159 0.0060175558 123727.5074147579 0.0057976498 124166.6347580530 59146.0312767658 0.0000893720 0.1483888424 0.1486398165 0.0000000000 1749.2781778601 0.0000000000 0.0010254189 14.5343455831 0.0000000000 22.7274849934 7051.8212000000
