~Version ---------------------------------------------------
VERS.   2.0 : CWLS log ASCII Standard -VERSION 2.0
WRAP.    NO : One line per depth step
DLM . SPACE : Column Data Section Delimiter
~Well ------------------------------------------------------
STRT.ft               6011.19455 : START DEPTH
STOP.ft                8162.3221 : STOP DEPTH
STEP.ft       14.389100000000326 : STEP
NULL.                   -9999.25 : NULL VALUE
COMP.                            : COMPANY
WELL.                     bypass : WELL
FLD .                            : FIELD
LOC .                            : LOCATION
PROV.                            : PROVINCE
CNTY.                            : COUNTY
STAT.                            : STATE
CTRY.                            : COUNTRY
SRVC.                            : SERVICE COMPANY
DATE. 2019-07-30 20:43:20.875901 : DATE
UWI .                            : UNIQUE WELL ID
API .                            : API NUMBER
~Curve Information -----------------------------------------
Depth              .ft          : 
KICh               .psi*in^1/2  : 
KICvup             .psi*in^1/2  : 
KICvdown           .psi*in^1/2  : 
nuh                .            : 
Eh                 .psi         : 
nuv                .            : 
Ev                 .psi         : 
Gv                 .psi         : 
Cl                 .ft/min^1/2  : 
Sigma_h            .psi         : 
SigmaH             .psi         : 
SigmaV             .psi         : 
Pore Pressure      .psi         : 
Biot               .            : 
Porosity           .            : 
Permeability       .nD          : 
SoPhi              .            : 
TensileStrength    .psi         : 
Grad_SigmaH        .psi/ft      : 
Grad_Sigma_h       .psi/ft      : 
Std_KICh           .psi*in^1/2  : 
Std_KICvup         .psi*in^1/2  : 
Std_KICvdown       .psi*in^1/2  : 
Std_nuh            .            : 
Std_Eh             .psi         : 
Std_nuv            .            : 
Std_Ev             .psi         : 
Std_Gv             .psi         : 
Std_Cl             .ft/min^1/2  : 
Std_Sigma_h        .psi         : 
Std_SigmaH         .psi         : 
Std_SigmaV         .psi         : 
Std_Pore Pressure  .psi         : 
Std_Biot           .            : 
Std_Porosity       .            : 
Std_Permeability   .nD          : 
Std_SoPhi          .            : 
Std_TensileStrength.psi         : 
Std_Depth          .ft          : 
~Params ----------------------------------------------------
~Other -----------------------------------------------------
Exported from homogenization method
~ASCII -----------------------------------------------------
# ...
 7936.0126000000 2558.7321789290 4021.4588282424 3811.5808477428 0.1956761628 5526355.2012633858 0.1660097702 3234355.9198750025 1386349.7197954368 0.0003816108 5652.5535399569 6114.7485199488 8498.9218578127 4364.6694664645 0.9000000000 0.0534684298 1738.6169114875 0.0000000000 1445.7880093686 0.7705064027 0.7122662003 19.1079547755 19.1079547755 19.1079547755 0.0050553778 103886.1010541115 0.0044545327 70008.1763350086 33669.8562761716 0.0001008718 0.1198829318 0.1201408379 0.0000000000 1396.8823586473 0.0000000000 0.0008611661 12.5339249184 0.0000000000 18.8632975273 7936.0126000000
 7953.4210500000 2581.3919525584 3735.1300107019 4386.4707301774 0.2044657827 5864389.6426306553 0.1730879934 3464109.6054307329 1473951.9934499103 0.0009546064 5749.4356254569 6236.3228186715 8518.3038290059 4374.2438492690 0.9000000000 0.0499427746 1509.5703164761 0.0000000000 1489.5704666239 0.7841057049 0.7228883759 18.8282792537 18.8282792537 18.8282792537 0.0049827881 102382.1980058548 0.0043910029 69543.6042036623 33327.2234217323 0.0000995675 0.1182704001 0.1185242905 0.0000000000 1378.3550493624 0.0000000000 0.0008485798 12.2932620086 0.0000000000 18.5592029517 7953.4210500000
 7970.8295000000 2598.5790730792 3466.6140982239 3497.8510478932 0.2021172723 5730630.7379563553 0.1741670221 3475102.0637164498 1478820.6448468838 0.0003764671 5719.2189903561 6195.9304452281 8537.6659471790 4383.8182315721 0.9000000000 0.0525433401 1593.1049096046 0.0000000000 1479.5754719576 0.7773256780 0.7175186711 18.8241153176 18.8241153176 18.8241153176 0.0049830551 102374.1773842250 0.0043552433 70408.1977876672 33541.3055274288 0.0000997407 0.1183067169 0.1185604694 0.0000000000 1379.5369999895 0.0000000000 0.0008482919 12.2328409340 0.0000000000 18.5316486408 7970.8295000000
 7988.2379000000 2748.4497020733 5850.5939496430 4823.1822364455 0.2336844649 6293830.5053258222 0.1878964721 4134543.3154669213 1724155.2462862902 0.0004927781 5827.6963003812 6337.8616371814 8556.8510991820 4393.3935011259 0.9000000000 0.0491643392 1257.2152963853 0.0000000000 1587.9954887651 0.7933992098 0.7295346450 18.7419538088 18.7419538088 18.7419538088 0.0049823564 102216.7400172076 0.0047254615 86421.2445052426 44035.4156353783 0.0000770709 0.1162931574 0.1164979229 0.0000000000 1418.2800082922 0.0000000000 0.0008475616 12.0136889534 0.0000000000 17.9607610757 7988.2379000000
 8005.6463000000 2694.7031941934 5634.6683163657 6450.0664734843 0.2475643990 6855598.4431020441 0.1983048150 4464101.7321788296 1840247.6613465503 0.0005181432 6010.8205955091 6560.3391973927 8576.6225502429 4402.9683883930 0.9000000000 0.0399675551 968.1311766869 0.0000000000 1662.6933822536 0.8194640322 0.7508226532 18.8219369571 18.8219369571 18.8219369571 0.0049829356 102369.9845257066 0.0043938211 71125.0563006726 34082.7009211400 0.0001003122 0.1189473255 0.1191996909 0.0000000000 1387.1685827144 0.0000000000 0.0008483799 12.2040877634 0.0000000000 18.5171392017 8005.6463000000
 8023.0547000000 2641.3747721707 4302.1453594054 4106.3159287275 0.1994693122 5592640.4780015191 0.1697978223 3430018.4335466679 1465406.5821889516 0.0003744667 5686.8567050223 6153.1162767381 8595.9299163281 4412.5427433021 0.9000000000 0.0578319381 1743.9738453462 0.0000000000 1445.5941466290 0.7669293688 0.7088144002 19.1266630716 19.1266630716 19.1266630716 0.0050565853 103922.0872594326 0.0042937530 66510.7661575694 31775.6613759308 0.0000986188 0.1173870850 0.1176506620 0.0000000000 1366.9946761540 0.0000000000 0.0008607566 12.4277799750 0.0000000000 18.9887191999 8023.0547000000
 8040.4631500000 2703.0374549244 8513.0156177199 5786.7462922505 0.2252959681 5855212.9548844090 0.1518607518 3208052.8641987527 1375400.3336821524 0.0004848082 5777.2430783924 6255.1041917424 8615.0066001532 4422.1171259729 0.9000000000 0.0544980353 1720.7860209540 0.0000000000 1478.5464433654 0.7779532192 0.7185211810 18.8049492460 18.8049492460 18.8049492460 0.0049841677 102337.6399294778 0.0043702131 75192.9397233657 37222.7148270279 0.0001029962 0.1214658416 0.1217127441 0.0000000000 1419.6111750608 0.0000000000 0.0008477089 12.0273402372 0.0000000000 18.3921640479 8040.4631500000
 8057.8716000000 2746.2228677976 6546.1273138425 4566.0273664544 0.2284921147 5916779.9670261210 0.1732268109 3490651.2422139482 1471821.9031116287 0.0008708173 5899.3359761876 6380.9654385316 8634.1368142000 4431.6915084097 0.9000000000 0.0506376344 1335.1739604028 0.0000000000 1549.1689343369 0.7918921714 0.7321208712 18.7730392217 18.7730392217 18.7730392217 0.0049821862 102276.1758328599 0.0047306537 78802.5313311758 38018.4384501930 0.0000743540 0.1129616728 0.1131728059 0.0000000000 1373.9023535725 0.0000000000 0.0008482242 12.0218544995 0.0000000000 18.1812922689 8057.8716000000
 8075.2800000000 2655.0939031307 5066.8008913575 6211.0415133019 0.2108721314 5667684.6343347291 0.1752819700 3269670.1883763308 1386480.3273431296 0.0007390964 5915.0241447469 6383.0904654803 8653.7223032405 4441.2661129110 0.9000000000 0.0507473824 1427.7116441425 0.0000000000 1511.8337271719 0.7904481907 0.7324853311 18.7590850201 18.7590850201 18.7590850201 0.0049830484 102249.8079803606 0.0046004218 81952.5065335995 41184.3073723412 0.0000754995 0.1141730039 0.1143817279 0.0000000000 1391.3243830058 0.0000000000 0.0008473816 12.0548603403 0.0000000000 18.0715956471 8075.2800000000
 8092.6884000000 2953.1877729803 5729.3462240452 5577.4551023203 0.3004634703 8141191.3939695936 0.2942156775 7716951.0184945986 2971894.0485299202 0.0003537164 6345.6920196699 6971.7143248095 8673.2886969994 4450.8416652306 0.9000000000 0.0286512369 248.4688118701 0.0000000000 1958.6801739176 0.8614831043 0.7841265728 18.6471188978 18.6471188978 18.6471188978 0.0049820985 102035.2355153793 0.0049820985 102169.7293992800 52666.5988959769 0.0000562515 0.1391157203 0.1392421474 0.0000000000 1785.3563231167 0.0000000000 0.0008461079 11.8391785999 0.0000000000 17.2942551537 8092.6884000000
 8110.0968500000 2906.5742675163 5163.1916621575 4800.1336472366 0.2574704861 7094717.3299562847 0.2534984386 7040178.5392702036 2809489.2992951809 0.0002608959 5819.5744094532 6383.7798845255 8693.1022301157 4460.4160474768 0.9000000000 0.0426079124 553.2343967073 0.0000000000 1847.8600434466 0.7871397842 0.7175715059 18.7137651281 18.7137651281 18.7137651281 0.0049829879 102162.7598892220 0.0049040035 101166.5133503393 51595.1071111278 0.0000816976 0.1221217825 0.1223164921 0.0000000000 1494.7662793843 0.0000000000 0.0008466516 11.9010424447 0.0000000000 17.7638577889 8110.0968500000
 8127.5053000000 2736.0926197585 5989.4904725870 5209.3966158296 0.2289676694 6572603.1340661338 0.2107395247 5985946.7875569547 2471478.9536477821 0.0003249236 5589.2377887018 6124.0446268162 8712.2699910225 4469.9904303382 0.9000000000 0.0485208953 943.7283917473 0.0000000000 1702.3446138387 0.7534962329 0.6876941426 18.9427549186 18.9427549186 18.9427549186 0.0050548867 103569.5967939331 0.0050548867 105599.6025088205 55030.6421506614 0.0000573610 0.1417618095 0.1418896858 0.0000000000 1819.7465867267 0.0000000000 0.0008588491 12.0278242887 0.0000000000 17.7137473024 8127.5053000000
 8144.9137000000 2857.0544438622 5225.2878160270 5244.2556332860 0.2916018095 8288440.2681177910 0.2904600317 8271778.5024574650 3204855.0116945351 0.0003505281 6226.9536916721 6868.6716118136 8732.0649089857 4479.5647852474 0.9000000000 0.0268404859 215.2879033690 0.0000000000 1962.7817825061 0.8433080895 0.7645205242 18.6442181321 18.6442181321 18.6442181321 0.0049821043 102029.6968304038 0.0049821043 102029.6968304096 53871.3299157444 0.0000563620 0.1393714423 0.1394976177 0.0000000000 1788.6821231100 0.0000000000 0.0008460504 11.8387399065 0.0000000000 17.2733858165 8144.9137000000
 8162.3221000000 2857.0544438622 5225.2878160270 5244.2556332860 0.2916018095 8288440.2681177910 0.2904600317 8271778.5024574650 3204855.0116945351 0.0003505281 6226.9536916721 6868.6716118136 8732.0649089857 4479.5647852474 0.9000000000 0.0268404859 215.2879033690 0.0000000000 1962.7817825061 0.8415095028 0.7628899736 27.5767374047 27.5767374047 27.5767374047 0.0073687078 150906.9469399136 0.0073687078 150906.9469399222 78694.6906283088 0.0000832727 0.2059345111 0.2061213158 0.0000000000 2642.8979626005 0.0000000000 0.0012512136 17.5146684269 0.0000000000 25.5590173869 8162.3221000000
