~Version ---------------------------------------------------
VERS.   2.0 : CWLS log ASCII Standard -VERSION 2.0
WRAP.    NO : One line per depth step
DLM . SPACE : Column Data Section Delimiter
~Well ------------------------------------------------------
STRT.ft               6039.97275 : START DEPTH
STOP.ft               8231.95595 : STOP DEPTH
STEP.ft       14.389100000000326 : STEP
NULL.                   -9999.25 : NULL VALUE
COMP.                            : COMPANY
WELL.                     bypass : WELL
FLD .                            : FIELD
LOC .                            : LOCATION
PROV.                            : PROVINCE
CNTY.                            : COUNTY
STAT.                            : STATE
CTRY.                            : COUNTRY
SRVC.                            : SERVICE COMPANY
DATE. 2019-07-30 20:43:31.491401 : DATE
UWI .                            : UNIQUE WELL ID
API .                            : API NUMBER
~Curve Information -----------------------------------------
Depth              .ft          : 
KICh               .psi*in^1/2  : 
KICvup             .psi*in^1/2  : 
KICvdown           .psi*in^1/2  : 
nuh                .            : 
Eh                 .psi         : 
nuv                .            : 
Ev                 .psi         : 
Gv                 .psi         : 
Cl                 .ft/min^1/2  : 
Sigma_h            .psi         : 
SigmaH             .psi         : 
SigmaV             .psi         : 
Pore Pressure      .psi         : 
Biot               .            : 
Porosity           .            : 
Permeability       .nD          : 
SoPhi              .            : 
TensileStrength    .psi         : 
Grad_SigmaH        .psi/ft      : 
Grad_Sigma_h       .psi/ft      : 
Std_KICh           .psi*in^1/2  : 
Std_KICvup         .psi*in^1/2  : 
Std_KICvdown       .psi*in^1/2  : 
Std_nuh            .            : 
Std_Eh             .psi         : 
Std_nuv            .            : 
Std_Ev             .psi         : 
Std_Gv             .psi         : 
Std_Cl             .ft/min^1/2  : 
Std_Sigma_h        .psi         : 
Std_SigmaH         .psi         : 
Std_SigmaV         .psi         : 
Std_Pore Pressure  .psi         : 
Std_Biot           .            : 
Std_Porosity       .            : 
Std_Permeability   .nD          : 
Std_SoPhi          .            : 
Std_TensileStrength.psi         : 
Std_Depth          .ft          : 
~Params ----------------------------------------------------
~Other -----------------------------------------------------
Exported from homogenization method
~ASCII -----------------------------------------------------
# ...
 6869.6229500000 2701.9772492733 5264.1200493289 5980.2874444065 0.2245361310 6854145.7020545639 0.2151110894 5620294.0924270405 2301449.9555278593 0.0004664720 4378.8757020578 4938.6097538694 7144.1262683269 3022.6065953790 0.9000000000 0.0392151766 690.3408631914 0.0000000000 1671.2242299585 0.7189055047 0.6374259161 2.3351458435 2.3351458435 2.3351458435 0.0001887896 5979.7755149687 0.0001887366 5744.0245726149 2348.7475242986 0.0000045277 0.0068607644 0.0068770224 0.0000000000 79.1801161054 0.0000000000 0.0000336898 0.5625584565 0.0000000000 1.5256638079 6869.6229500000
 6886.8747000000 2749.7432894077 4307.3591890614 3748.3175150202 0.2266856364 7138640.4152178485 0.2226605276 6823649.3493374996 2788797.0370382108 0.0002975978 4234.1040803503 4816.0494625408 7163.3869256547 3030.1973670574 0.9000000000 0.0382120782 609.7399083667 0.0000000000 1795.7385441983 0.6993084196 0.6148077705 2.3483012833 2.3483012833 2.3483012833 0.0002010686 6391.5421200321 0.0002010419 6308.9026820927 2548.1981867488 0.0000024282 0.0070544268 0.0070671312 0.0000000000 87.6961959536 0.0000000000 0.0000283800 0.3943424600 0.0000000000 1.5301996652 6886.8747000000
 6904.1265000000 2781.7871164703 3303.6580361898 4052.0632264134 0.2328754230 7444990.4802532149 0.2320781365 7405514.2799138175 3005234.2415732960 0.0004933781 4270.3431675356 4874.2152491428 7182.7489860634 3037.7881628004 0.9000000000 0.0352878680 516.0568834452 0.0000000000 1835.8508586814 0.7059857969 0.6185204120 2.3541418489 2.3541418489 2.3541418489 0.0001894185 6082.0825077861 0.0001894185 6082.0313090239 2486.9935112967 0.0000028013 0.0081526718 0.0081626616 0.0000000000 101.5874184253 0.0000000000 0.0000333920 0.5463105022 0.0000000000 1.5728264669 6904.1265000000
 6921.3782500000 2781.5816652317 6548.6740921835 4830.5950071011 0.2353461691 7445857.3589051077 0.2313477230 7374024.3067723624 2994642.6200885405 0.0003821234 4289.3470462821 4892.0815303806 7202.0262449165 3045.3789325690 0.9000000000 0.0352332137 552.7169490491 0.0000000000 1829.3517313076 0.7068074239 0.6197244091 2.3227788584 2.3227788584 2.3227788584 0.0001924093 6007.7543784165 0.0001893913 5452.0601650665 2212.6118576355 0.0000044429 0.0067648348 0.0067814151 0.0000000000 77.9486418095 0.0000000000 0.0000329103 0.6464210991 0.0000000000 1.4937389245 6921.3782500000
 6938.6300000000 2715.6052777409 4383.8610833669 4393.1711062135 0.2230527348 6747495.6539136246 0.2051140521 5336708.9637877252 2206812.5295406822 0.0008168243 4399.3623851914 4951.0553303958 7221.3310225488 3052.9697026397 0.9000000000 0.0411101112 812.3659917330 0.0000000000 1687.1820119247 0.7135494082 0.6340390517 2.3362080574 2.3362080574 2.3362080574 0.0002027157 6301.1447867738 0.0002024082 5636.4520857753 2270.1262407239 0.0000024338 0.0071106317 0.0071227900 0.0000000000 88.2954398042 0.0000000000 0.0000282415 0.4405843383 0.0000000000 1.4532363328 6938.6300000000
 6955.8817500000 2806.0234048653 4613.5218198626 4621.5941856468 0.2488601076 7788331.8841679664 0.2384581202 7156604.1211059997 2879884.3839307358 0.0007273408 4511.0136469841 5134.6488993969 7240.7285625468 3060.5604724172 0.9000000000 0.0303477517 448.1605459797 0.0000000000 1797.1869351978 0.7381736901 0.6485178744 2.3826893130 2.3826893130 2.3826893130 0.0002133158 6744.7613263047 0.0002133163 6477.1467168975 2585.5852915330 0.0000022378 0.0065056349 0.0065209445 0.0000000000 80.6628345486 0.0000000000 0.0000241299 0.3135897394 0.0000000000 1.5180917640 6955.8817500000
 6973.1335000000 2801.9233055559 4377.8397384543 5381.8222121901 0.2440996630 7493170.7725408487 0.2277520208 6622907.5277109509 2688701.9957197583 0.0003896650 4489.4022238332 5091.6988882750 7260.2324683605 3068.1512424790 0.9000000000 0.0331069152 543.5760017285 0.0000000000 1769.1695106047 0.7301880694 0.6438141796 2.4019062511 2.4019062511 2.4019062511 0.0002048133 6522.2693713093 0.0002038969 6267.1043061419 2515.4432904442 0.0000025360 0.0073839694 0.0073966164 0.0000000000 91.8012164474 0.0000000000 0.0000277848 0.4542686963 0.0000000000 1.5762330502 6973.1335000000
 6990.3853000000 2805.9287857054 3567.4999692741 3761.8778167588 0.2437953158 7636217.2082573734 0.2348227644 6834916.5116665866 2756451.1612986876 0.0007383199 4531.3116327509 5145.2564764925 7279.6614529884 3075.7420343964 0.9000000000 0.0320378114 468.0625878575 0.0000000000 1787.5145720447 0.7360476219 0.6482205827 2.3598754503 2.3598754503 2.3598754503 0.0002005356 6295.2524536955 0.0002001838 5734.0340892200 2314.2320716827 0.0000025115 0.0073308543 0.0073426657 0.0000000000 91.1020202720 0.0000000000 0.0000291477 0.4627295301 0.0000000000 1.4918096381 6990.3853000000
 7007.6370500000 2807.8562041349 5058.3419717782 5116.8819198777 0.2521915341 7843568.7423010198 0.2426604746 7218847.3313305983 2897889.4852263676 0.0006640199 4581.4251826031 5207.8124826904 7299.0985840674 3083.3328041874 0.9000000000 0.0291633300 423.7614389069 0.0000000000 1770.9876598480 0.7431624163 0.6537760375 2.3821649990 2.3821649990 2.3821649990 0.0002222768 6994.8387565591 0.0002222773 6750.1512990761 2671.7716671736 0.0000021196 0.0061598686 0.0061772271 0.0000000000 76.2327192073 0.0000000000 0.0000207943 0.2512190376 0.0000000000 1.5050507050 7007.6370500000
 7024.8888000000 2823.4627593805 4313.3303573969 5311.9028246464 0.2665204713 8373912.6598138958 0.2626960313 8144392.9255119441 3222075.1243139245 0.0006830112 4692.7744857354 5353.9491646818 7318.7536785869 3090.9235742357 0.9000000000 0.0229819057 267.0805093080 0.0000000000 1786.9155821306 0.7621400590 0.6680211772 2.3868632290 2.3868632290 2.3868632290 0.0002224132 6975.4623206237 0.0002224035 6661.0458046732 2632.9397712117 0.0000021309 0.0062004897 0.0062176200 0.0000000000 76.7299756570 0.0000000000 0.0000208126 0.2707156724 0.0000000000 1.4914934084 7024.8888000000
 7042.1406000000 2815.1462179511 5091.8717585127 5167.9431391360 0.2709747701 8375474.1204916127 0.2608190119 7785469.3423028039 3079252.2481883718 0.0005810939 4787.4635066062 5446.4438669947 7338.4492821504 3103.4187222035 0.9000000000 0.0221365126 283.9274948145 0.0000000000 1743.2666250362 0.7734074305 0.6798307189 2.3996584566 2.3996584566 2.3996584566 0.0002281654 7175.3828897748 0.0002281150 7036.6650929102 2770.9685677450 0.0000020777 0.0060325886 0.0060512335 0.0000000000 74.6016344336 0.0000000000 0.0000185763 0.2206332289 0.0000000000 1.5028794098 7042.1406000000
 7059.3923500000 2828.1494007467 4308.5654923068 4360.3348811085 0.2639270877 8278953.0326451398 0.2601485562 8167681.4230349371 3240959.3121434920 0.0004319532 4747.7793032251 5402.7975486145 7358.1540118683 3250.4899007606 0.9000000000 0.0241030025 298.7007384950 0.0000000000 1783.1503377551 0.7653346465 0.6725478721 2.3853648026 2.3853648026 2.3853648026 0.0002188774 6915.2488009539 0.0002185112 6720.6883471092 2665.0502225138 0.0000022370 0.0065034748 0.0065195683 0.0000000000 80.6150629942 0.0000000000 0.0000222799 0.3189215415 0.0000000000 1.5244707538 7059.3923500000
 7076.6441000000 2787.5908424353 19701.0813207051 20912.3840460432 0.2598279053 8029526.4731262587 0.2439895956 7169992.5146872262 2865108.8318439252 0.0007724116 4969.6593634728 5607.0104206529 7377.8013658705 3562.9273316925 0.9000000000 0.0265024492 376.4749071853 0.0000000000 1748.5512487624 0.7923261848 0.7022621589 2.3606772149 2.3606772149 2.3606772149 0.0002216023 6762.0825703732 0.0002203757 5938.9169327806 2364.8179708058 0.0000021482 0.0062856903 0.0063014205 0.0000000000 77.7149187733 0.0000000000 0.0000238858 0.3088348750 0.0000000000 1.4065873871 7076.6441000000
 7092.8755000000 2590.9303542420 22508.3064843406 20233.8020982080 0.2547638455 7336791.0168915438 0.2418909893 5415895.4678286593 2174894.7776912027 0.0020090263 5380.4284318888 5965.1433201243 7396.2743989370 3827.2424935041 0.9000000000 0.0261322424 343.2674780792 0.0000000000 1345.5389008497 0.8410049380 0.7585680070 2.3488165325 2.3488165325 2.3488165325 0.0002424630 6984.8294655296 0.0002299234 5576.3067545305 2207.7238946387 0.0000018714 0.0055356638 0.0055542927 0.0000000000 67.9570292586 0.0000000000 0.0000188764 0.2470118780 0.0000000000 1.1807195755 7092.8755000000
