~Version ---------------------------------------------------
VERS.   2.0 : CWLS log ASCII Standard -VERSION 2.0
WRAP.    NO : One line per depth step
DLM . SPACE : Column Data Section Delimiter
~Well ------------------------------------------------------
STRT.ft               5569.94125 : START DEPTH
STOP.ft        8198.326850000001 : STOP DEPTH
STEP.ft        14.50250000000051 : STEP
NULL.                   -9999.25 : NULL VALUE
COMP.                            : COMPANY
WELL.                     bypass : WELL
FLD .                            : FIELD
LOC .                            : LOCATION
PROV.                            : PROVINCE
CNTY.                            : COUNTY
STAT.                            : STATE
CTRY.                            : COUNTRY
SRVC.                            : SERVICE COMPANY
DATE. 2019-07-30 20:43:31.496337 : DATE
UWI .                            : UNIQUE WELL ID
API .                            : API NUMBER
~Curve Information -----------------------------------------
Depth              .ft          : 
KICh               .psi*in^1/2  : 
KICvup             .psi*in^1/2  : 
KICvdown           .psi*in^1/2  : 
nuh                .            : 
Eh                 .psi         : 
nuv                .            : 
Ev                 .psi         : 
Gv                 .psi         : 
Cl                 .ft/min^1/2  : 
Sigma_h            .psi         : 
SigmaH             .psi         : 
SigmaV             .psi         : 
Pore Pressure      .psi         : 
Biot               .            : 
Porosity           .            : 
Permeability       .nD          : 
SoPhi              .            : 
TensileStrength    .psi         : 
Grad_SigmaH        .psi/ft      : 
Grad_Sigma_h       .psi/ft      : 
Std_KICh           .psi*in^1/2  : 
Std_KICvup         .psi*in^1/2  : 
Std_KICvdown       .psi*in^1/2  : 
Std_nuh            .            : 
Std_Eh             .psi         : 
Std_nuv            .            : 
Std_Ev             .psi         : 
Std_Gv             .psi         : 
Std_Cl             .ft/min^1/2  : 
Std_Sigma_h        .psi         : 
Std_SigmaH         .psi         : 
Std_SigmaV         .psi         : 
Std_Pore Pressure  .psi         : 
Std_Biot           .            : 
Std_Porosity       .            : 
Std_Permeability   .nD          : 
Std_SoPhi          .            : 
Std_TensileStrength.psi         : 
Std_Depth          .ft          : 
~Params ----------------------------------------------------
~Other -----------------------------------------------------
Exported from homogenization method
~ASCII -----------------------------------------------------
# ...
 6178.4100000000 2711.0977257122 3980.0546826593 3371.8387382280 0.2147931499 5841215.9166514175 0.2046068470 4658023.8024487039 1933037.8693944556 0.0005363435 3797.9557931489 4278.7961664395 6408.7278167050 2594.8272349002 0.9000000000 0.0526734291 1183.5481616057 0.0000000000 1599.4937535677 0.6925400170 0.6147141082 20.6043955370 20.6043955370 20.6043955370 0.0054738688 112322.1088780455 0.0052977299 103014.3559171063 48853.9860884029 0.0000839502 0.1342794250 0.1345280027 0.0000000000 1461.7876219138 0.0000000000 0.0009309539 13.1531695183 0.0000000000 19.8403953593 6178.4100000000
 6192.9233500000 2745.3792597354 3410.7836161250 3725.0714024429 0.2220180772 5929151.5466847764 0.2116289910 4921495.7408593455 2029162.4283800346 0.0005917931 3817.6704455614 4302.8638855886 6424.7390697931 2600.9228365017 0.9000000000 0.0517388492 1103.3816787542 0.0000000000 1625.8785979221 0.6948033493 0.6164569186 20.5980632997 20.5980632997 20.5980632997 0.0054738526 112309.9842877722 0.0052997477 106063.9318123472 50543.2496758786 0.0000849441 0.1355568150 0.1358029823 0.0000000000 1476.9885282991 0.0000000000 0.0009308640 13.1431061795 0.0000000000 19.7961002213 6192.9233500000
 6207.4739000000 2753.1386001309 4217.8059804526 3953.1486258538 0.2268536721 6398520.5986635797 0.2109411308 5188132.6715106135 2134348.9696752536 0.0003240570 3877.1257944617 4398.6648128688 6440.7803138566 2607.0341039773 0.9000000000 0.0499978225 1049.1614946074 0.0000000000 1637.4277820203 0.7086078627 0.6245899470 20.2506457980 20.2506457980 20.2506457980 0.0053816929 110419.9848603694 0.0052313152 104846.7531672882 51006.2681290725 0.0000841172 0.1341728810 0.1344132916 0.0000000000 1462.1943461751 0.0000000000 0.0009153232 12.9218660205 0.0000000000 19.4546177795 6207.4739000000
 6222.0617000000 2705.1132766631 3522.6873093653 4438.5155291252 0.2154995805 6158597.2825785773 0.2040087574 4812968.0180048328 1997105.5507112828 0.0006930903 3857.0068432727 4363.6789459429 6456.9703744990 2613.1607580307 0.9000000000 0.0517938140 1167.0719476501 0.0000000000 1599.6682559227 0.7013236378 0.6198920919 20.6157299719 20.6157299719 20.6157299719 0.0054738670 112343.8326400376 0.0052653857 99935.5425746903 48131.7436372947 0.0000833081 0.1334751845 0.1337253894 0.0000000000 1452.1611929282 0.0000000000 0.0009311380 13.1837067117 0.0000000000 19.9189392065 6222.0617000000
 6236.6494500000 2666.2108147860 3009.8019427344 2928.7094178497 0.2113816746 6320736.8982487498 0.2020871697 4768487.7505940897 1982994.2286678448 0.0006264971 3895.2191766051 4416.9983177822 6473.0848915732 2619.2873916382 0.9000000000 0.0505430206 1150.1155653316 0.0000000000 1594.0480794381 0.7082325780 0.6245692030 20.6213598256 20.6213598256 20.6213598256 0.0054738129 112354.6224852504 0.0052565474 97645.1728866883 47289.6566099241 0.0000827386 0.1327643579 0.1330159678 0.0000000000 1443.6149580443 0.0000000000 0.0009312528 13.2026703951 0.0000000000 19.9579658101 6236.6494500000
 6251.2372000000 2673.8317337545 3308.7476981225 3303.4242340445 0.2097193617 6261389.1597250458 0.2005804863 4846967.4645828633 2018111.3817716350 0.0006718707 3853.1509912047 4370.7412156865 6489.2202163373 2625.4144720931 0.9000000000 0.0522096669 1203.6374630891 0.0000000000 1586.5324435491 0.6991801904 0.6163821445 20.6388507401 20.6388507401 20.6388507401 0.0054740586 112388.1757359379 0.0051906154 92760.2085007405 45115.2804977621 0.0000813693 0.1309325385 0.1311878616 0.0000000000 1422.2561340826 0.0000000000 0.0009313833 13.2551066723 0.0000000000 20.0781560490 6251.2372000000
 6265.8250000000 2602.8813395458 2602.9138142311 3164.5539019475 0.1899383700 5957687.8464735737 0.1764559608 4089159.9518226720 1737076.1830305522 0.0006461817 3798.6753710275 4299.3473382988 6505.2836184116 2631.5419423765 0.9000000000 0.0563348978 1531.2380971010 0.0000000000 1501.6027754045 0.6861582215 0.6062530267 20.6403651202 20.6403651202 20.6403651202 0.0054741055 112391.0909484967 0.0052045686 93473.6154307439 45895.1626831703 0.0000817603 0.1314923007 0.1317465555 0.0000000000 1428.6261732888 0.0000000000 0.0009313925 13.2595986972 0.0000000000 20.0882181752 6265.8250000000
 6280.4128000000 2675.8340518894 3301.5884457528 3193.1442292392 0.2122709263 6633196.6305782571 0.1981935912 5022169.3762986986 2091181.1600343548 0.0006498870 3899.5906815534 4446.7618201640 6521.3294635336 2637.6685964299 0.9000000000 0.0512720382 1178.4776601008 0.0000000000 1592.7609567963 0.7080365514 0.6209131160 20.2710608022 20.2710608022 20.2710608022 0.0053816949 110459.0938516413 0.0052132162 97620.7586710639 47753.4549820223 0.0000820578 0.1315605792 0.1318059920 0.0000000000 1430.9671949699 0.0000000000 0.0009156518 12.9679065618 0.0000000000 19.5967470802 6280.4128000000
 6295.0005500000 2665.8223396783 3508.0806047778 3384.4339138286 0.2216486223 6791071.6475240141 0.2099152414 5150141.9386256766 2124629.3257297846 0.0006550669 4016.4593320417 4572.3533529190 6537.5334348277 2643.7952296112 0.9000000000 0.0458135177 963.2378183743 0.0000000000 1640.1034764000 0.7263467758 0.6380395522 20.5765490401 20.5765490401 20.5765490401 0.0054734575 112268.8550544422 0.0053706776 105154.3592142257 53939.9599990414 0.0000560820 0.1510628633 0.1511984195 0.0000000000 1780.7758852425 0.0000000000 0.0009308805 13.1194436246 0.0000000000 19.6432533607 6295.0005500000
 6309.5883000000 2862.3205024866 5045.4962737172 3926.0502916006 0.2822012947 8746746.8679297268 0.2520422402 7585695.9965690011 2998781.5679761739 0.0005566645 4341.1462664909 5023.3127020038 6553.9835373674 2649.9218627895 0.9000000000 0.0343161524 469.1163862118 0.0000000000 1845.9715824263 0.7961395361 0.6880236966 20.4980639387 20.4980639387 20.4980639387 0.0054732563 112118.6987054115 0.0054732563 112118.6987054122 63252.5935024482 0.0000567826 0.1526828564 0.1528164205 0.0000000000 1800.5365749848 0.0000000000 0.0009298394 13.0067571215 0.0000000000 19.0897112496 6309.5883000000
 6324.1761000000 2890.4821976777 3820.4008036959 4702.9932379580 0.2856202799 8990645.0573981069 0.2846160393 8974019.8902912401 3492640.6843997943 0.0005782684 4338.5344468709 5037.8579717159 6570.7113654186 2656.0485168428 0.9000000000 0.0332544362 337.9758568828 0.0000000000 1888.2706019763 0.7966030503 0.6860236619 20.5093689292 20.5093689292 20.5093689292 0.0054732779 112140.2943281353 0.0054732779 112140.2943281361 62330.9759024075 0.0000567301 0.1525559777 0.1526897328 0.0000000000 1799.0117777703 0.0000000000 0.0009299235 13.0156605583 0.0000000000 19.1706576413 6324.1761000000
 6338.7639000000 2888.7017459966 4376.0915593087 3416.8053047590 0.2864336305 8963967.3859391119 0.2857645769 8952937.5792841725 3481365.1109768595 0.0005039914 4356.2866004053 5053.0942065910 6587.3141528585 2662.1760029614 0.9000000000 0.0327932866 329.2660059255 0.0000000000 1890.5916030416 0.7971734373 0.6872454423 20.5105121499 20.5105121499 20.5105121499 0.0054732554 112142.4761269645 0.0054732554 112142.4761269653 62187.2591733547 0.0000567153 0.1525181504 0.1526519475 0.0000000000 1798.5566274682 0.0000000000 0.0009300055 13.0130132708 0.0000000000 19.1789225168 6338.7639000000
 6353.3517000000 2888.1665056540 5194.6896569373 3755.7296939802 0.2880540340 9141353.1568319518 0.2876234018 9133606.4007896148 3546344.7044479474 0.0005724694 4387.8805404692 5097.5831550665 6604.0038021213 2668.3030888825 0.9000000000 0.0321050317 314.8831149468 0.0000000000 1893.5910238466 0.8023455014 0.6906402711 20.5118842320 20.5118842320 20.5118842320 0.0054732916 112145.1119673372 0.0054620118 113135.6681035283 63061.0642603899 0.0000568290 0.1527682526 0.1529018397 0.0000000000 1801.7459468273 0.0000000000 0.0009299841 13.0195359238 0.0000000000 19.1881949452 6353.3517000000
 6367.9394500000 2800.2377186973 4587.4007075968 5350.5128232630 0.2453470619 7405582.2085297303 0.1962837088 5479609.9227328217 2262593.0288733691 0.0005820551 4081.3593654360 4676.0194754580 6620.5554026069 2674.4297218890 0.9000000000 0.0477444448 1035.4696458447 0.0000000000 1664.5556338432 0.7343065229 0.6409230800 20.2808224999 20.2808224999 20.2808224999 0.0053822392 110477.8608999023 0.0050411506 98218.5614520567 48173.8797306824 0.0000820631 0.1312344210 0.1314805386 0.0000000000 1428.9077330224 0.0000000000 0.0009154858 12.9917282975 0.0000000000 19.6624243825 6367.9394500000
