~Version ---------------------------------------------------
VERS.   2.0 : CWLS log ASCII Standard -VERSION 2.0
WRAP.    NO : One line per depth step
DLM . SPACE : Column Data Section Delimiter
~Well ------------------------------------------------------
STRT.ft               5857.54595 : START DEPTH
STOP.ft       7958.7521000000015 : STOP DEPTH
STEP.ft       14.211900000000242 : STEP
NULL.                   -9999.25 : NULL VALUE
COMP.                            : COMPANY
WELL.                     bypass : WELL
FLD .                            : FIELD
LOC .                            : LOCATION
PROV.                            : PROVINCE
CNTY.                            : COUNTY
STAT.                            : STATE
CTRY.                            : COUNTRY
SRVC.                            : SERVICE COMPANY
DATE. 2019-07-30 20:43:36.147719 : DATE
UWI .                            : UNIQUE WELL ID
API .                            : API NUMBER
~Curve Information -----------------------------------------
Depth              .ft          : 
KICh               .psi*in^1/2  : 
KICvup             .psi*in^1/2  : 
KICvdown           .psi*in^1/2  : 
nuh                .            : 
Eh                 .psi         : 
nuv                .            : 
Ev                 .psi         : 
Gv                 .psi         : 
Cl                 .ft/min^1/2  : 
Sigma_h            .psi         : 
SigmaH             .psi         : 
SigmaV             .psi         : 
Pore Pressure      .psi         : 
Biot               .            : 
Porosity           .            : 
Permeability       .nD          : 
SoPhi              .            : 
TensileStrength    .psi         : 
Grad_SigmaH        .psi/ft      : 
Grad_Sigma_h       .psi/ft      : 
Std_KICh           .psi*in^1/2  : 
Std_KICvup         .psi*in^1/2  : 
Std_KICvdown       .psi*in^1/2  : 
Std_nuh            .            : 
Std_Eh             .psi         : 
Std_nuv            .            : 
Std_Ev             .psi         : 
Std_Gv             .psi         : 
Std_Cl             .ft/min^1/2  : 
Std_Sigma_h        .psi         : 
Std_SigmaH         .psi         : 
Std_SigmaV         .psi         : 
Std_Pore Pressure  .psi         : 
Std_Biot           .            : 
Std_Porosity       .            : 
Std_Permeability   .nD          : 
Std_SoPhi          .            : 
Std_TensileStrength.psi         : 
Std_Depth          .ft          : 
~Params ----------------------------------------------------
~Other -----------------------------------------------------
Exported from homogenization method
~ASCII -----------------------------------------------------
# ...
 6266.0686500000 2738.8738092748 3938.1264549893 3309.6962392185 0.2253565932 6088850.8115753466 0.2233428739 4956799.9988172045 2026099.5946972002 0.0005355488 3973.3301787716 4470.2345774710 6491.5540616937 2631.6440950065 0.9000000000 0.0474802803 913.3958673360 0.0000000000 1666.1322239338 0.7134033837 0.6341025611 20.3780099795 20.3780099795 20.3780099795 0.0053817775 110664.4521639125 0.0053656918 112986.3539370216 52671.7447493274 0.0000802589 0.1333580547 0.1335814754 0.0000000000 1571.4391534645 0.0000000000 0.0009174216 12.9737376350 0.0000000000 20.3253107400 6266.0686500000
 6281.1277500000 2804.8661162992 3666.0043042206 4283.5300047774 0.2363260911 5974105.5067113163 0.2261244258 5208828.3995444980 2120414.7306478382 0.0005489943 3927.6491552098 4410.8635393051 6508.3271109625 2637.9689167907 0.9000000000 0.0487418224 929.7633195866 0.0000000000 1683.7880866971 0.7022406986 0.6253095481 20.3779275148 20.3779275148 20.3779275148 0.0053823109 110664.2935436669 0.0053103649 117614.4424934658 53640.7694446738 0.0000810119 0.1341600862 0.1343821573 0.0000000000 1583.0138560599 0.0000000000 0.0009169960 12.9764186275 0.0000000000 20.3247578056 6281.1277500000
 6296.1868500000 2795.7996660248 3909.1831801544 3896.3179779402 0.2324351749 5900465.6342450641 0.2283802444 5099366.0276162336 2074960.0736063228 0.0005059451 3951.9436623617 4430.7084488940 6524.9702645012 2644.2936466562 0.9000000000 0.0489978394 920.0663630093 0.0000000000 1680.0527148753 0.7037129860 0.6276725511 20.3778468801 20.3778468801 20.3778468801 0.0053819864 110664.1384434448 0.0053579962 120839.7506450946 54780.7605103450 0.0000817960 0.1352455212 0.1354658213 0.0000000000 1596.7707285895 0.0000000000 0.0009171822 12.9694058831 0.0000000000 20.3242171358 6296.1868500000
 6311.2459500000 2745.0076952770 3722.2461509812 3503.0941541224 0.2264968202 6144897.4859699700 0.2236599241 5041569.1400212329 2059626.7707833254 0.0005275430 3997.0491232650 4498.0612241438 6541.6897684533 2650.6183765217 0.9000000000 0.0476153319 913.5865392261 0.0000000000 1666.9947451436 0.7127057414 0.6333217173 20.3781215777 20.3781215777 20.3781215777 0.0053816414 110664.6668235693 0.0053833644 108446.1388040454 50855.0527164226 0.0000792396 0.1320762556 0.1323018459 0.0000000000 1554.4188454466 0.0000000000 0.0009174814 12.9923435122 0.0000000000 20.3260589830 6311.2459500000
 6326.3050000000 2769.2188518358 3061.3123577037 3495.2209676434 0.2375342736 6391912.9660901939 0.2358466951 5408662.6790376315 2187646.0685522696 0.0004909228 4075.5062492724 4592.0101637520 6558.5093711567 2656.9430854729 0.9000000000 0.0442641913 754.6132536028 0.0000000000 1713.6927046208 0.7258597497 0.6442158968 20.3778702160 20.3778702160 20.3778702160 0.0053818188 110664.1833295565 0.0053783097 124587.9568867548 57104.5090537543 0.0000829914 0.1369017478 0.1371193920 0.0000000000 1617.8048288135 0.0000000000 0.0009173534 12.9409432654 0.0000000000 20.3243736129 6326.3050000000
 6341.3640500000 2811.8881198223 3627.3728983944 3765.3233790907 0.2370309219 6002603.5745512815 0.2349224979 5289364.1450710297 2141295.4427353851 0.0005055153 4007.7377917253 4492.9805991923 6575.2883660427 2663.2677944131 0.9000000000 0.0478761774 851.9737875475 0.0000000000 1699.2929913383 0.7085195809 0.6319993238 20.3779427451 20.3779427451 20.3779427451 0.0053817433 110664.3228390167 0.0053868533 121006.0561956447 55518.0942841575 0.0000820676 0.1357004672 0.1359200378 0.0000000000 1602.0840499276 0.0000000000 0.0009174502 12.9412767887 0.0000000000 20.3248599252 6341.3640500000
 6356.4231500000 2791.4852496610 4057.7296286442 3497.7362545335 0.2442774239 6425751.1124374289 0.2411612414 5559241.9607747383 2237133.7136816122 0.0002234730 4114.8739691100 4631.2982800320 6592.1030068385 2669.5925242786 0.9000000000 0.0428062775 694.4838513708 0.0000000000 1736.7980792805 0.7286013172 0.6473568345 20.3779634823 20.3779634823 20.3779634823 0.0053815023 110664.3627263807 0.0053837886 120152.3571573669 57321.0548478649 0.0000825446 0.1365026157 0.1367209050 0.0000000000 1611.5102404087 0.0000000000 0.0009178162 12.9131920411 0.0000000000 20.3249989835 6356.4231500000
 6371.4822500000 2797.1263157998 4108.2032027636 4574.8220873765 0.2494736260 6748660.3282205584 0.2413751759 5797690.3112148633 2327898.0806211573 0.0004826095 4160.4093690044 4700.5296394640 6609.0768682458 2675.9172541442 0.9000000000 0.0414248355 662.0435090079 0.0000000000 1750.2565684999 0.7377450733 0.6529735477 20.3779287674 20.3779287674 20.3779287674 0.0053817146 110664.2959530141 0.0053887137 120250.2615707551 55395.9261135528 0.0000819492 0.1355682625 0.1357880475 0.0000000000 1600.2309059483 0.0000000000 0.0009174079 12.9489031838 0.0000000000 20.3247662009 6371.4822500000
 6386.5413500000 2810.8835962021 3360.5649509097 3238.4451406058 0.2406182800 6162016.5804253435 0.2382793664 5473935.1747675994 2209122.5508135036 0.0005061738 4059.1243188622 4555.8134842177 6625.9133431084 2682.2421309838 0.9000000000 0.0464591285 797.2404619036 0.0000000000 1712.6564727176 0.7133459622 0.6355747339 20.0466428418 20.0466428418 20.0466428418 0.0052941836 108864.9192931389 0.0052948422 115731.9810944504 53709.1968964832 0.0000800747 0.1326737431 0.1328910781 0.0000000000 1565.1135947075 0.0000000000 0.0009025249 12.7491242291 0.0000000000 19.9948273695 6386.5413500000
 6401.6004500000 2705.0321186484 3451.3025301134 3246.5488045651 0.2218583801 6296644.5555515271 0.2188757686 4820687.0218758974 1977309.8902668480 0.0005364446 4118.1496366957 4633.4830548750 6642.7172733398 2688.5675154670 0.9000000000 0.0463247264 908.1602353853 0.0000000000 1658.7142472051 0.7238007263 0.6433000105 20.3780544448 20.3780544448 20.3780544448 0.0053817839 110664.5376927659 0.0053466491 108801.1914138851 50642.5728975193 0.0000791768 0.1319037021 0.1321295822 0.0000000000 1552.7357832253 0.0000000000 0.0009173569 13.0039229835 0.0000000000 20.3256088830 6401.6004500000
 6416.6408500000 2773.7189355720 3843.6183979592 3479.6491972791 0.2364659387 6327615.5783165628 0.2348367325 5385915.9273280073 2180087.8474824112 0.0005841110 4113.8507169834 4625.6008089516 6659.4955752027 2694.8842421633 0.9000000000 0.0453168504 790.9798356817 0.0000000000 1704.4293143912 0.7208757537 0.6411221717 20.3778623612 20.3778623612 20.3778623612 0.0053816598 110664.1682210508 0.0053781215 122662.9918608447 56474.8557134987 0.0000825581 0.1363487906 0.1365673204 0.0000000000 1610.5098550699 0.0000000000 0.0009175268 12.9355484406 0.0000000000 20.3243209448 6416.6408500000
 6431.6625000000 2802.8099866187 3684.3262103554 3902.1816872328 0.2427547940 6152945.8963626446 0.2376423666 5441601.0615388872 2196123.3436682811 0.0002321190 4096.1880446566 4591.2934287798 6676.2880093852 2701.1933234982 0.9000000000 0.0453885508 779.7047071937 0.0000000000 1716.8238163302 0.7138579533 0.6368785745 20.3777812150 20.3777812150 20.3777812150 0.0053820643 110664.0121376540 0.0053499215 123140.8592506459 55250.8913163192 0.0000822031 0.1357192259 0.1359387554 0.0000000000 1603.2976287271 0.0000000000 0.0009171104 12.9689363076 0.0000000000 20.3237768240 6431.6625000000
 6446.6841500000 2798.7293750513 3948.8089318846 3816.7587128739 0.2340518390 5951041.1465135375 0.2303971275 5260640.6666178685 2137753.7813067874 0.0005632943 4032.4402860904 4514.6761985789 6692.9575234429 2707.5024056816 0.9000000000 0.0490805427 917.3935911215 0.0000000000 1680.0919219827 0.7003098172 0.6255061040 20.3779110913 20.3779110913 20.3779110913 0.0053818383 110664.2619529162 0.0053620791 115554.5667432505 53087.1606083423 0.0000806646 0.1338228230 0.1340454662 0.0000000000 1577.8811653691 0.0000000000 0.0009173092 12.9705506092 0.0000000000 20.3246476877 6446.6841500000
 6461.7058500000 2775.5098950483 3317.2305232274 3855.4937539125 0.2329754184 6076280.4229690554 0.2302968287 5118303.6863373602 2079975.7492560409 0.0002493729 4113.1260764855 4605.9404775236 6709.6684244603 2713.8115084127 0.9000000000 0.0472253440 865.7950848090 0.0000000000 1685.1691182722 0.7128056560 0.6365387364 20.3778643634 20.3778643634 20.3778643634 0.0053820460 110664.1720721154 0.0053508951 118010.9127521158 53474.2297801418 0.0000810483 0.1342479926 0.1344699254 0.0000000000 1583.8805349676 0.0000000000 0.0009171327 12.9719242789 0.0000000000 20.3243343705 6461.7058500000
