~Version ---------------------------------------------------
VERS.   2.0 : CWLS log ASCII Standard -VERSION 2.0
WRAP.    NO : One line per depth step
DLM . SPACE : Column Data Section Delimiter
~Well ------------------------------------------------------
STRT.ft       6025.5836500000005 : START DEPTH
STOP.ft               8231.95595 : STOP DEPTH
STEP.ft       14.389099999999416 : STEP
NULL.                   -9999.25 : NULL VALUE
COMP.                            : COMPANY
WELL.                     bypass : WELL
FLD .                            : FIELD
LOC .                            : LOCATION
PROV.                            : PROVINCE
CNTY.                            : COUNTY
STAT.                            : STATE
CTRY.                            : COUNTRY
SRVC.                            : SERVICE COMPANY
DATE. 2019-07-30 20:43:31.832888 : DATE
UWI .                            : UNIQUE WELL ID
API .                            : API NUMBER
~Curve Information -----------------------------------------
Depth              .ft          : 
KICh               .psi*in^1/2  : 
KICvup             .psi*in^1/2  : 
KICvdown           .psi*in^1/2  : 
nuh                .            : 
Eh                 .psi         : 
nuv                .            : 
Ev                 .psi         : 
Gv                 .psi         : 
Cl                 .ft/min^1/2  : 
Sigma_h            .psi         : 
SigmaH             .psi         : 
SigmaV             .psi         : 
Pore Pressure      .psi         : 
Biot               .            : 
Porosity           .            : 
Permeability       .nD          : 
SoPhi              .            : 
TensileStrength    .psi         : 
Grad_SigmaH        .psi/ft      : 
Grad_Sigma_h       .psi/ft      : 
Std_KICh           .psi*in^1/2  : 
Std_KICvup         .psi*in^1/2  : 
Std_KICvdown       .psi*in^1/2  : 
Std_nuh            .            : 
Std_Eh             .psi         : 
Std_nuv            .            : 
Std_Ev             .psi         : 
Std_Gv             .psi         : 
Std_Cl             .ft/min^1/2  : 
Std_Sigma_h        .psi         : 
Std_SigmaH         .psi         : 
Std_SigmaV         .psi         : 
Std_Pore Pressure  .psi         : 
Std_Biot           .            : 
Std_Porosity       .            : 
Std_Permeability   .nD          : 
Std_SoPhi          .            : 
Std_TensileStrength.psi         : 
Std_Depth          .ft          : 
~Params ----------------------------------------------------
~Other -----------------------------------------------------
Exported from homogenization method
~ASCII -----------------------------------------------------
# ...
 7953.4210500000 2397.9965617976 3198.0070950426 2976.5259286471 0.1825648916 4826885.7114406098 0.1517447751 2767358.3983878880 1200973.6160295454 0.0010251023 5464.8687793898 5873.0396751921 8374.4000500510 4374.3471549459 0.9000000000 0.0540641141 3106.8226370151 0.0000000000 1364.2775270152 0.7384293675 0.6871092006 9.3300782265 9.3300782265 9.3300782265 0.0059373225 59373.2250775967 0.0049411067 34049.4408376592 15683.6695839127 0.0001217063 0.1080322726 0.1080651771 0.0000000000 1220.7964310720 0.0000000000 0.0008481889 8.4818892968 0.0000000000 8.4818892968 7953.4210500000
 7970.8295000000 2404.8857031960 3488.2962412226 3135.6144145344 0.1874035631 5135628.6509734727 0.1565492360 2968144.9064464518 1281908.5998158057 0.0004311782 5528.0627084003 5960.5718241332 8393.8082971277 4383.9218980133 0.9000000000 0.0508769613 2829.5648966677 0.0000000000 1400.0405806029 0.7477981839 0.6935366901 9.3300782265 9.3300782265 9.3300782265 0.0059373225 59373.2250775967 0.0050065239 34004.5318798686 15688.9905882380 0.0001221197 0.1085638275 0.1085965709 0.0000000000 1226.1190380217 0.0000000000 0.0008481889 8.4818892968 0.0000000000 8.4818892968 7970.8295000000
 7988.2379000000 2371.6041836178 2537.2950457228 3576.0071046636 0.1758723288 4503902.3709416389 0.1393395871 2397405.1786956601 1050889.7581479282 0.0006286002 5452.2175672118 5835.2440455677 8413.2205061093 4393.4964827684 0.9000000000 0.0571883477 3540.8059348058 0.0000000000 1301.8577470377 0.7304795023 0.6825306952 9.2966968020 9.2966968020 9.2966968020 0.0059160798 59160.7978309949 0.0044766132 30436.7844611135 13974.9096376471 0.0001159580 0.1025470097 0.1025814261 0.0000000000 1160.3890785076 0.0000000000 0.0008451543 8.4515425473 0.0000000000 8.4515425473 7988.2379000000
 8005.6463000000 2464.0347951214 5139.0477135287 3604.8687771036 0.1799027239 4245805.3366208952 0.1240641176 2124256.4148854241 937941.8386761933 0.0006254719 5393.1773638797 5753.0210400281 8432.1159749772 4403.0710675234 0.9000000000 0.0635571897 3235.4386913534 0.0000000000 1251.5406535202 0.7186204367 0.6736717014 9.3300782265 9.3300782265 9.3300782265 0.0059373225 59373.2250775967 0.0050059666 35230.0965785003 16198.0813323667 0.0001229696 0.1090760101 0.1091085998 0.0000000000 1232.9184023614 0.0000000000 0.0008481889 8.4818892968 0.0000000000 8.4818892968 8005.6463000000
 8023.0547000000 2422.5845667357 2788.0522978039 3662.5954675527 0.1797599133 4667476.3392714253 0.1476289472 2694176.0940425005 1173001.5864065429 0.0004362852 5454.9587695336 5850.5881078926 8451.2689018856 4412.6456874268 0.9000000000 0.0581218167 3253.5006505697 0.0000000000 1336.7731457390 0.7292220141 0.6799104547 9.3300782265 9.3300782265 9.3300782265 0.0059373225 59373.2250775967 0.0049803569 34340.5115187078 15843.0993968418 0.0001221942 0.1084987739 0.1085315370 0.0000000000 1225.9319388563 0.0000000000 0.0008481889 8.4818892968 0.0000000000 8.4818892968 8023.0547000000
 8040.4631500000 2369.5040117018 2759.0673053604 3329.5537153385 0.1828950051 4952485.5116649922 0.1514746324 2746920.3329217443 1191927.4018772074 0.0006220125 5574.5949889128 5993.2699761559 8470.6231682718 4422.2203965017 0.9000000000 0.0511755021 3116.5151176268 0.0000000000 1371.6598333228 0.7453886504 0.6933176466 9.3300782265 9.3300782265 9.3300782265 0.0059373225 59373.2250775967 0.0046836191 31057.9659507258 14279.2565427069 0.0001179266 0.1046447035 0.1046786728 0.0000000000 1182.6357648478 0.0000000000 0.0008481889 8.4818892968 0.0000000000 8.4818892968 8040.4631500000
 8057.8716000000 2392.7125225605 4023.4252460424 3394.1704241519 0.1785189940 4456436.7103677411 0.1357271249 2301623.7698517987 1009931.3597008184 0.0010790651 5510.8312018245 5888.9699278858 8489.9395969607 4431.7950085878 0.9000000000 0.0573365201 3555.9006482000 0.0000000000 1290.3273695744 0.7308344213 0.6839065544 9.2966968020 9.2966968020 9.2966968020 0.0059160798 59160.7978309949 0.0049766884 33327.9570723372 15329.2770330598 0.0001211646 0.1078033866 0.1078361255 0.0000000000 1217.1563480895 0.0000000000 0.0008451543 8.4515425473 0.0000000000 8.4515425473 8057.8716000000
 8075.2800000000 2405.0567129006 2835.4386615743 3694.2114915018 0.1828700050 4489321.9580720058 0.1415325628 2337767.5970424116 1020130.8425157975 0.0008736615 5582.9486132664 5962.4765359583 8509.3591055246 4441.3695933429 0.9000000000 0.0542995645 3411.7277908144 0.0000000000 1325.4950698228 0.7383615845 0.6913628522 9.3300782265 9.3300782265 9.3300782265 0.0059373225 59373.2250775967 0.0046582275 31399.5010189181 14369.5221830986 0.0001179478 0.1045470658 0.1045810669 0.0000000000 1182.0153120345 0.0000000000 0.0008481889 8.4818892968 0.0000000000 8.4818892968 8075.2800000000
 8092.6884000000 2384.5707693692 3812.1131469670 3276.9654433652 0.1809520219 4563355.1529900646 0.1412548881 2398563.4366654130 1048409.1334656450 0.0006481925 5575.2499517146 5961.6632071397 8528.6343470064 4450.9442476046 0.9000000000 0.0546288667 3496.2823081767 0.0000000000 1316.1513399292 0.7366727733 0.6889243322 9.3300782265 9.3300782265 9.3300782265 0.0059373225 59373.2250775967 0.0048378390 31617.1242723657 14541.5299291078 0.0001192978 0.1061238780 0.1061573740 0.0000000000 1198.2622908586 0.0000000000 0.0008481889 8.4818892968 0.0000000000 8.4818892968 8092.6884000000
 8110.0968500000 2353.0119753047 3044.9479339705 3533.3801796123 0.1793831129 4656347.8658477794 0.1447529618 2465464.3052658769 1075301.7162509009 0.0005488859 5611.1416296713 6005.9537831681 8548.1011377343 4460.5189222937 0.9000000000 0.0521394021 3360.4025836180 0.0000000000 1343.6620852852 0.7405526585 0.6918711001 9.2966968020 9.2966968020 9.2966968020 0.0059160798 59160.7978309949 0.0049027619 32089.3429197983 14750.1112703463 0.0001198014 0.1066573081 0.1066903986 0.0000000000 1203.9328014464 0.0000000000 0.0008451543 8.4515425473 0.0000000000 8.4515425473 8110.0968500000
 8127.5053000000 2388.0662961935 2921.0220139811 3463.9562740193 0.1841924025 4729944.7440883704 0.1467487562 2497760.2527014343 1086329.2994441262 0.0006511817 5661.2942641370 6060.7179333213 8567.6042429847 4470.0935344072 0.9000000000 0.0515051314 3204.0163249567 0.0000000000 1356.7534474331 0.7457045809 0.6965598982 9.3300782265 9.3300782265 9.3300782265 0.0059373225 59373.2250775967 0.0049456125 32978.3362608007 15124.3160578329 0.0001209103 0.1075578951 0.1075909446 0.0000000000 1214.4593187764 0.0000000000 0.0008481889 8.4818892968 0.0000000000 8.4818892968 8127.5053000000
 8144.9137000000 2436.4843775523 3134.6647961011 3597.7761652139 0.1894960987 4798986.7870074175 0.1542763516 2638849.7202898525 1141260.3943714241 0.0009016273 5702.9228281740 6106.3698669730 8587.0902669247 4479.6681191623 0.9000000000 0.0516514703 2939.8794245376 0.0000000000 1384.7480272604 0.7497157234 0.7001821061 9.3300782265 9.3300782265 9.3300782265 0.0059373225 59373.2250775967 0.0050088732 33992.1454212416 15539.0878586377 0.0001220036 0.1084883823 0.1085211485 0.0000000000 1225.1421290846 0.0000000000 0.0008481889 8.4818892968 0.0000000000 8.4818892968 8144.9137000000
 8162.3221000000 2547.0984706505 3873.9933055046 3904.5306213712 0.2032517138 5475905.2895860579 0.1703917240 3325790.0652612280 1412038.8930469428 0.0007542680 5764.2900627303 6219.3823120691 8606.5085830255 4489.2428077825 0.9000000000 0.0479860647 2095.3704007350 0.0000000000 1508.7208862308 0.7619623725 0.7062071298 9.3300782265 9.3300782265 9.3300782265 0.0059373225 59373.2250775987 0.0054144969 39126.9495259733 18035.1901450173 0.0000819563 0.1013503015 0.1013694381 0.0000000000 1160.9169932202 0.0000000000 0.0008481889 8.4818892968 0.0000000000 8.4818892968 8162.3221000000
 8179.7305000000 2530.9800071431 3822.8047543719 3458.6691184068 0.2004830863 5252099.1760207592 0.1721470573 3195812.4206864564 1360455.4692600982 0.0004122944 5778.2870163991 6215.7858230038 8626.0363265340 4498.8174205771 0.9000000000 0.0492015352 2191.6772216701 0.0000000000 1482.3513925005 0.7599010533 0.7064153295 9.2966968020 9.2966968020 9.2966968020 0.0059160798 59160.7978309949 0.0052141118 35952.3358020012 16445.4987933983 0.0001245708 0.1108900693 0.1109218971 0.0000000000 1251.7803701277 0.0000000000 0.0008451543 8.4515425473 0.0000000000 8.4515425473 8179.7305000000
