~Version ---------------------------------------------------
VERS.   2.0 : CWLS log ASCII Standard -VERSION 2.0
WRAP.    NO : One line per depth step
DLM . SPACE : Column Data Section Delimiter
~Well ------------------------------------------------------
STRT.ft               6039.97275 : START DEPTH
STOP.ft               8231.95595 : STOP DEPTH
STEP.ft       14.389100000000326 : STEP
NULL.                   -9999.25 : NULL VALUE
COMP.                            : COMPANY
WELL.                     bypass : WELL
FLD .                            : FIELD
LOC .                            : LOCATION
PROV.                            : PROVINCE
CNTY.                            : COUNTY
STAT.                            : STATE
CTRY.                            : COUNTRY
SRVC.                            : SERVICE COMPANY
DATE. 2019-07-30 20:43:31.491401 : DATE
UWI .                            : UNIQUE WELL ID
API .                            : API NUMBER
~Curve Information -----------------------------------------
Depth              .ft          : 
KICh               .psi*in^1/2  : 
KICvup             .psi*in^1/2  : 
KICvdown           .psi*in^1/2  : 
nuh                .            : 
Eh                 .psi         : 
nuv                .            : 
Ev                 .psi         : 
Gv                 .psi         : 
Cl                 .ft/min^1/2  : 
Sigma_h            .psi         : 
SigmaH             .psi         : 
SigmaV             .psi         : 
Pore Pressure      .psi         : 
Biot               .            : 
Porosity           .            : 
Permeability       .nD          : 
SoPhi              .            : 
TensileStrength    .psi         : 
Grad_SigmaH        .psi/ft      : 
Grad_Sigma_h       .psi/ft      : 
Std_KICh           .psi*in^1/2  : 
Std_KICvup         .psi*in^1/2  : 
Std_KICvdown       .psi*in^1/2  : 
Std_nuh            .            : 
Std_Eh             .psi         : 
Std_nuv            .            : 
Std_Ev             .psi         : 
Std_Gv             .psi         : 
Std_Cl             .ft/min^1/2  : 
Std_Sigma_h        .psi         : 
Std_SigmaH         .psi         : 
Std_SigmaV         .psi         : 
Std_Pore Pressure  .psi         : 
Std_Biot           .            : 
Std_Porosity       .            : 
Std_Permeability   .nD          : 
Std_SoPhi          .            : 
Std_TensileStrength.psi         : 
Std_Depth          .ft          : 
~Params ----------------------------------------------------
~Other -----------------------------------------------------
Exported from homogenization method
~ASCII -----------------------------------------------------
# ...
 6442.9205500000 2668.4492464167 3620.5629875443 5395.8104026976 0.2302042827 6909518.7762572002 0.2217557360 5413632.7663727412 2208758.1142287543 0.0003272545 4159.1950379645 4720.8512501236 6667.0962721092 2706.0003773437 0.9000000000 0.0366609901 580.5262956878 0.0000000000 1582.9005333404 0.7327191471 0.6455449832 2.3893025859 2.3893025859 2.3893025859 0.0001920846 5753.6627462989 0.0001865997 4293.4407837848 1782.5588914305 0.0000043292 0.0066816359 0.0066968566 0.0000000000 76.7044626178 0.0000000000 0.0000404816 0.7937799863 0.0000000000 1.4479162999 6442.9205500000
 6457.9128000000 2642.8797787059 4413.6939448620 5223.7344098048 0.2051387101 6188777.3677731613 0.1985373412 4718507.3542341888 1968666.7825901599 0.0006546463 3963.5058368248 4477.0382058448 6683.7861041928 2712.2971206027 0.9000000000 0.0471789362 1049.7419139339 0.0000000000 1647.6672928790 0.6932639607 0.6137440934 2.3892850117 2.3892850117 2.3892850117 0.0001886116 5652.9444356735 0.0001815384 4237.3329217923 1765.7952922055 0.0000044486 0.0068620162 0.0068763263 0.0000000000 78.8615781695 0.0000000000 0.0000421254 0.9205989369 0.0000000000 1.4575252311 6457.9128000000
 6472.9050000000 2607.2012721575 4791.4699818852 4266.2105092454 0.2139216798 6329963.4757793741 0.2036601270 4616971.7316608708 1915609.8454511904 0.0003842384 4099.6092162828 4621.0566524103 6700.4104998860 2718.5938428983 0.9000000000 0.0438636981 906.2290929500 0.0000000000 1569.2095757160 0.7139076894 0.6333492020 2.3456942584 2.3456942584 2.3456942584 0.0001883890 5569.6757891509 0.0001812084 4017.6881354983 1670.1582684540 0.0000044520 0.0068851654 0.0068989548 0.0000000000 79.0973989230 0.0000000000 0.0000425274 1.0054401475 0.0000000000 1.4282750487 6472.9050000000
 6487.8972000000 2547.7643258375 3765.0164640741 3567.0110107445 0.2045667450 5906009.1514759790 0.1881735697 3956229.3493303549 1663630.4057975681 0.0006730878 4084.6174173250 4574.9189449242 6717.0653532304 2724.8905651939 0.9000000000 0.0477248533 1101.6967376876 0.0000000000 1496.7618204066 0.7051466452 0.6295749287 2.3754174202 2.3754174202 2.3754174202 0.0002021354 6012.0935917797 0.0001965819 4582.4594385947 1877.1664710007 0.0000042157 0.0065090215 0.0065260426 0.0000000000 74.6183918345 0.0000000000 0.0000363792 0.6645177251 0.0000000000 1.3992600555 6487.8972000000
 6502.8894500000 2737.7085537784 4848.0338066839 3723.4099704439 0.2523859194 7712031.7089863354 0.2379356711 6658524.1683117691 2673081.2313468661 0.0004485814 4242.0857161879 4857.8728780553 6733.8357798750 2731.1873086351 0.9000000000 0.0291847002 428.4860515758 0.0000000000 1695.0145526037 0.7470329790 0.6523385871 2.5633200381 2.5633200381 2.5633200381 0.0002435257 7683.4789935784 0.0002435257 7587.3241447200 2992.2221256921 0.0000022490 0.0065248909 0.0065446790 0.0000000000 80.7276551254 0.0000000000 0.0000203705 0.2401355825 0.0000000000 1.6290172298 6502.8894500000
 6517.8817000000 2736.9835583050 4554.3865036637 5936.7085543780 0.2442731381 7365606.8916570088 0.2189401996 6005175.9267802825 2441620.6618914767 0.0005283179 4178.4359182006 4770.3965308607 6750.8886060777 2737.4840518069 0.9000000000 0.0337467685 593.0510167796 0.0000000000 1699.6139893811 0.7318936965 0.6410726844 2.4001851808 2.4001851808 2.4001851808 0.0001878484 5628.8622034990 0.0001805687 4185.3452534815 1746.9251004598 0.0000044426 0.0068522812 0.0068664890 0.0000000000 78.7465477711 0.0000000000 0.0000429765 0.8941652217 0.0000000000 1.4729694174 6517.8817000000
 6532.8739000000 2638.9236498274 5388.5190155499 3488.8746505679 0.2102454844 6283602.1074801823 0.2002337784 4654704.6904241852 1938292.0394244955 0.0005327705 4078.7741666014 4597.9747906620 6767.5853214004 2743.7807916116 0.9000000000 0.0448519212 891.9396320220 0.0000000000 1599.4505460706 0.7038211453 0.6243460733 2.4611409157 2.4611409157 2.4611409157 0.0002072847 6385.4065857443 0.0002035737 5430.6396793573 2197.2787304764 0.0000046608 0.0071375128 0.0071552002 0.0000000000 82.0988556444 0.0000000000 0.0000350512 0.7865814013 0.0000000000 1.5604389731 6532.8739000000
 6547.8661000000 2771.8077570824 5699.1170473597 7208.7606404043 0.2409782812 7276536.7385604680 0.2155509865 6135828.4866690803 2515550.0836852835 0.0006966827 4112.4348669086 4698.7897490731 6784.3907064267 2750.0775237123 0.9000000000 0.0366000885 808.2401433285 0.0000000000 1776.6597793853 0.7176062670 0.6280572639 2.5102300506 2.5102300506 2.5102300506 0.0002184236 6837.1561757913 0.0002184099 6334.0336456150 2550.5271164621 0.0000026058 0.0076015476 0.0076149698 0.0000000000 94.4136273026 0.0000000000 0.0000298241 0.4600649474 0.0000000000 1.5808976959 6547.8661000000
 6562.8583000000 2710.9465729401 5893.3763030766 3817.3578388847 0.2392361021 7255507.0519287316 0.2260643498 6073221.4102769662 2461516.2226381041 0.0004499422 4198.6472881463 4784.1295089912 6801.2285423327 2756.3742460079 0.9000000000 0.0338397842 541.2628934179 0.0000000000 1648.8393544110 0.7289704105 0.6397589429 2.4055220880 2.4055220880 2.4055220880 0.0002048335 6184.1983904821 0.0002022137 4932.7660442537 2017.1582132680 0.0000042970 0.0066138250 0.0066316261 0.0000000000 75.8680864194 0.0000000000 0.0000349443 0.5972904762 0.0000000000 1.4429407310 6562.8583000000
 6577.8505500000 2633.3885282800 3991.0518681894 4238.5960530699 0.2199378718 6536319.9304985115 0.2074876324 4919286.8748438591 2034481.6944045040 0.0009512486 4168.3030562455 4704.0942700320 6818.0483451030 2762.6709892078 0.9000000000 0.0413471149 800.5178650809 0.0000000000 1578.1564748904 0.7151415549 0.6336877107 2.3944335556 2.3944335556 2.3944335556 0.0001902195 5701.8363934717 0.0001830239 4317.3173329686 1795.5991430036 0.0000044315 0.0068322398 0.0068468620 0.0000000000 78.5118083082 0.0000000000 0.0000414451 0.8868166374 0.0000000000 1.4599599086 6577.8505500000
 6592.8428000000 2639.0967091014 3840.1480302615 3688.6953694374 0.2050878523 6110801.2770414697 0.1902684551 4493260.7707119621 1885885.4428211609 0.0005696288 4036.4788544065 4543.5623226849 6834.7109802583 2768.9677326210 0.9000000000 0.0478930637 1154.5842835875 0.0000000000 1632.8424050773 0.6891658819 0.6122516457 2.4806133072 2.4806133072 2.4806133072 0.0002099254 6489.2333742645 0.0002035242 5682.9276958111 2294.6467723407 0.0000047343 0.0072305866 0.0072486357 0.0000000000 83.2409327029 0.0000000000 0.0000342786 0.7781716615 0.0000000000 1.5778444470 6592.8428000000
 6607.8350000000 2775.5852858851 5054.2013434200 4493.7020544226 0.2562063508 7771063.0719630467 0.2215575119 6380081.2015934279 2584933.7357508731 0.0006817935 4290.4309664381 4909.0445458780 6851.4950652121 2775.2644549166 0.9000000000 0.0297256479 525.6581199207 0.0000000000 1742.7855157348 0.7429127007 0.6492945067 2.4107888249 2.4107888249 2.4107888249 0.0002013804 6042.7292259603 0.0001915683 4867.1287842047 1984.3990281648 0.0000045149 0.0069406414 0.0069568113 0.0000000000 79.7888846062 0.0000000000 0.0000376533 0.8696135809 0.0000000000 1.4735470491 6607.8350000000
 6622.8272000000 2692.8414967212 4370.0502895426 3449.4421684258 0.2316127677 6884788.6692630816 0.1990877368 5273656.0697045922 2178915.3097822485 0.0003277318 4148.3655480793 4707.3714994572 6868.2847513620 2781.5611772121 0.9000000000 0.0383291806 779.8107612919 0.0000000000 1634.9108012433 0.7107797557 0.6263738163 2.4690951921 2.4690951921 2.4690951921 0.0002119473 6550.5395949776 0.0002112519 5883.8730363404 2383.1267600736 0.0000027464 0.0080271662 0.0080387840 0.0000000000 99.7921884545 0.0000000000 0.0000323699 0.5335666685 0.0000000000 1.5343893184 6622.8272000000
 6637.8194500000 2635.3391025585 4489.8192884277 4246.1509790033 0.2176634000 6479956.8858867111 0.2050138953 4879185.1060232520 2020462.9652736143 0.0006029597 4180.1408667337 4712.3040972088 6885.1177151355 2787.8579204992 0.9000000000 0.0424168245 852.7341447133 0.0000000000 1594.9334943538 0.7099174861 0.6297460933 2.3778275890 2.3778275890 2.3778275890 0.0001999194 5912.1978161641 0.0001920247 4401.5153042798 1812.5397261868 0.0000042080 0.0065043612 0.0065208056 0.0000000000 74.5709683090 0.0000000000 0.0000372526 0.7290820385 0.0000000000 1.3838982552 6637.8194500000
