~Version ---------------------------------------------------
VERS.   2.0 : CWLS log ASCII Standard -VERSION 2.0
WRAP.    NO : One line per depth step
DLM . SPACE : Column Data Section Delimiter
~Well ------------------------------------------------------
STRT.ft               5683.82875 : START DEPTH
STOP.ft        7698.577649999999 : STOP DEPTH
STEP.ft       15.128450000000157 : STEP
NULL.                   -9999.25 : NULL VALUE
COMP.                            : COMPANY
WELL.                     bypass : WELL
FLD .                            : FIELD
LOC .                            : LOCATION
PROV.                            : PROVINCE
CNTY.                            : COUNTY
STAT.                            : STATE
CTRY.                            : COUNTRY
SRVC.                            : SERVICE COMPANY
DATE. 2019-07-30 20:43:20.519169 : DATE
UWI .                            : UNIQUE WELL ID
API .                            : API NUMBER
~Curve Information -----------------------------------------
Depth              .ft          : 
KICh               .psi*in^1/2  : 
KICvup             .psi*in^1/2  : 
KICvdown           .psi*in^1/2  : 
nuh                .            : 
Eh                 .psi         : 
nuv                .            : 
Ev                 .psi         : 
Gv                 .psi         : 
Cl                 .ft/min^1/2  : 
Sigma_h            .psi         : 
SigmaH             .psi         : 
SigmaV             .psi         : 
Pore Pressure      .psi         : 
Biot               .            : 
Porosity           .            : 
Permeability       .nD          : 
SoPhi              .            : 
TensileStrength    .psi         : 
Grad_SigmaH        .psi/ft      : 
Grad_Sigma_h       .psi/ft      : 
Std_KICh           .psi*in^1/2  : 
Std_KICvup         .psi*in^1/2  : 
Std_KICvdown       .psi*in^1/2  : 
Std_nuh            .            : 
Std_Eh             .psi         : 
Std_nuv            .            : 
Std_Ev             .psi         : 
Std_Gv             .psi         : 
Std_Cl             .ft/min^1/2  : 
Std_Sigma_h        .psi         : 
Std_SigmaH         .psi         : 
Std_SigmaV         .psi         : 
Std_Pore Pressure  .psi         : 
Std_Biot           .            : 
Std_Porosity       .            : 
Std_Permeability   .nD          : 
Std_SoPhi          .            : 
Std_TensileStrength.psi         : 
Std_Depth          .ft          : 
~Params ----------------------------------------------------
~Other -----------------------------------------------------
Exported from homogenization method
~ASCII -----------------------------------------------------
# ...
 5882.4440500000 2876.7235656490 4161.8074472688 5061.4152577111 0.1901021286 4935260.3896533083 0.1680813673 4320864.2867063629 1846451.8256385201 0.0004955004 3232.7566358625 3647.4488098525 6071.0523465702 2470.5208588453 0.9000000000 0.0768598471 2070.3303898352 0.0000000000 1453.0850201357 0.6200566939 0.5495601162 20.6075714924 20.6075714924 20.6075714924 0.0164350182 112328.2140515276 0.0155078348 113061.4707926248 54334.0388505825 0.0001486406 0.2559043312 0.2556651159 0.0000000000 2486.3745053327 0.0000000000 0.0018598671 13.0844480826 0.0000000000 19.8617795616 5882.4440500000
 5896.5584000000 2834.0393711975 4012.8857153583 3787.2519179401 0.2160450676 6057244.8755265102 0.2007952316 5246236.4301440697 2181864.6442949953 0.0004887352 3506.7435291203 4004.8537584873 6085.8190637958 2476.4501802415 0.9000000000 0.0597641943 1345.6538931439 0.0000000000 1587.4594198874 0.6791849562 0.5947102176 20.9259831272 20.9259831272 20.9259831272 0.0167126529 114227.7121205243 0.0164739969 116944.5286546435 58550.8740229598 0.0001326321 0.2510742160 0.2508071663 0.0000000000 2659.7263488500 0.0000000000 0.0018934100 13.3080272608 0.0000000000 19.8895262990 5896.5584000000
 5910.6728000000 2859.8862140556 3944.7055862576 4217.2925179060 0.2293793987 6740012.9351738309 0.2253588599 6662407.0451388061 2717402.2254351615 0.0004661320 3541.3369913797 4089.5821419365 6101.2296867473 2482.3778388029 0.9000000000 0.0546752739 1074.2832967254 0.0000000000 1687.5481505206 0.6918979074 0.5991427899 20.2267983048 20.2267983048 20.2267983048 0.0161468573 110374.3020779342 0.0161574938 114052.4090147242 56596.5431468737 0.0001501425 0.2595801852 0.2593526171 0.0000000000 2518.8994604251 0.0000000000 0.0018292282 12.8682722525 0.0000000000 19.2885388525 5910.6728000000
 5925.5513500000 2742.9011230002 3059.7254186101 3188.2771785381 0.2115449860 5955344.0116754211 0.2111370405 5407142.8006291809 2232080.9179535117 0.0005231154 3515.3119427397 4006.8614997489 6117.4171267390 2488.6263702558 0.9000000000 0.0550675267 1172.5728942156 0.0000000000 1625.6442698761 0.6762006205 0.5932463893 19.9076069572 19.9076069572 19.9076069572 0.0158830046 108598.0874574948 0.0158777580 112426.7824585235 54951.7506310266 0.0001265733 0.2399354869 0.2396832252 0.0000000000 2540.3866570096 0.0000000000 0.0018001705 12.6802448931 0.0000000000 19.0430762457 5925.5513500000
 5941.1941000000 2739.5193308308 3135.5724016970 3271.5763497960 0.2228551625 6238205.1483316841 0.2222114371 5664127.3059276296 2316815.8443878130 0.0004713938 3616.6574694728 4126.7918941976 6134.6149929729 2495.1959858849 0.9000000000 0.0495557265 940.1986424005 0.0000000000 1672.7461207287 0.6946064755 0.6087425202 19.9040074506 19.9040074506 19.9040074506 0.0158824267 108591.1940078202 0.0158824267 112378.9932687849 55044.9682704188 0.0001265912 0.2399757698 0.2397235596 0.0000000000 2540.7891923051 0.0000000000 0.0018002875 12.6735797640 0.0000000000 19.0179444979 5941.1941000000
 5956.8368500000 2724.2130699535 2947.7675665796 3089.0712063553 0.2167742144 6071246.8979708012 0.2165214829 5466134.1857197620 2246365.2450841679 0.0002186244 3587.2863565162 4086.2488448966 6151.9263056638 2501.7671020987 0.9000000000 0.0511495228 1015.4046513089 0.0000000000 1653.5105837286 0.6859762904 0.6022132966 19.8986182926 19.8986182926 19.8986182926 0.0158826045 108580.8785802637 0.0158880781 115311.8925536594 56190.2782104313 0.0001270010 0.2405022830 0.2402505839 0.0000000000 2547.3305204632 0.0000000000 0.0018000381 12.6658734349 0.0000000000 18.9801246108 5956.8368500000
 5972.4795500000 2757.5022743606 4747.3395526879 3645.8331524859 0.2242909557 6286868.5606543673 0.2241154491 5893554.5127459550 2407024.2913368405 0.0004720013 3611.5753026713 4125.0862888767 6169.1785054177 2508.3364893529 0.9000000000 0.0499360110 932.5299674057 0.0000000000 1681.6492646732 0.6906823631 0.6047028328 19.5803469528 19.5803469528 19.5803469528 0.0156325208 106861.4811931076 0.0156221066 112706.5246922647 55304.7686508405 0.0001248964 0.2365440218 0.2362960758 0.0000000000 2505.3063302549 0.0000000000 0.0017715348 12.4584076347 0.0000000000 18.6469004261 5972.4795500000
 5988.1222500000 2772.2617026148 3765.1528370368 3878.1492958648 0.2229355490 6065033.7905772552 0.2200483756 5602911.8799122013 2295055.4132558168 0.0002232823 3608.2344448901 4104.1750359979 6186.4465612622 2514.9058766070 0.9000000000 0.0520642696 1027.5544256907 0.0000000000 1661.2701668426 0.6853859799 0.6025652607 19.9082675313 19.9082675313 19.9082675313 0.0158836259 108599.3545597824 0.0157829282 112629.8340675961 53879.8424225317 0.0001469472 0.2539908322 0.2537658646 0.0000000000 2464.8066050290 0.0000000000 0.0017999576 12.6818873379 0.0000000000 19.0476166228 5988.1222500000
 6003.7650000000 2818.1880713388 3484.7444146877 3890.9870486975 0.2090477747 5417918.5399660319 0.2040981806 5144344.7097821953 2135133.7455166331 0.0004170895 3456.8707499292 3904.9852623100 6203.5155662404 2521.4764438592 0.9000000000 0.0612325500 1418.4597645545 0.0000000000 1598.6604469836 0.6504227368 0.5757838206 19.9075364723 19.9075364723 19.9075364723 0.0158860308 108597.9541156342 0.0156574959 113270.1489743997 53949.3373874111 0.0001465787 0.2530990175 0.2528731234 0.0000000000 2456.9068485830 0.0000000000 0.0017994304 12.6507226393 0.0000000000 19.0425259752 6003.7650000000
 6019.4077500000 2783.7202709697 4188.6705744092 3926.9793310261 0.2105882817 5642154.6079232134 0.2045096700 5134336.3780918792 2130282.1268753745 0.0002293800 3522.6710108157 3988.7381860247 6220.3509394561 2528.0466084499 0.9000000000 0.0591456821 1347.7592422874 0.0000000000 1597.8928476239 0.6626462854 0.5852188715 19.6191652063 19.6191652063 19.6191652063 0.0156373230 106935.8453258570 0.0150191259 104364.1956785519 50129.0527892255 0.0001417117 0.2447513451 0.2445251406 0.0000000000 2375.6534858838 0.0000000000 0.0017714724 12.4735739796 0.0000000000 18.9171441804 6019.4077500000
 6035.0504500000 2763.4830041609 3978.6362475080 4030.2386587767 0.1879093944 5184027.0181431174 0.1724794020 4260719.7507847259 1816653.7149372082 0.0004956329 3404.3481423984 3840.7473360384 6237.1287970942 2534.6159957041 0.9000000000 0.0701700548 1903.6294326231 0.0000000000 1464.1250797985 0.6364068317 0.5640960536 19.9412817352 19.9412817352 19.9412817352 0.0158909172 108662.6238616653 0.0148214547 105434.9621219913 50508.8662891883 0.0001423810 0.2452527110 0.2450195568 0.0000000000 2382.4654349815 0.0000000000 0.0017995083 12.6354551261 0.0000000000 19.2766110754 6035.0504500000
 6050.6931500000 2834.3573944964 4450.9305387136 3574.6566436661 0.2206849430 6329450.2291019410 0.2042945173 5699451.9031773452 2360890.3900424661 0.0002370795 3588.7234209497 4107.2397068546 6253.7187362830 2541.1855776177 0.9000000000 0.0584670542 1290.5041825875 0.0000000000 1620.2232550076 0.6788048253 0.5931094723 19.8761586900 19.8761586900 19.8761586900 0.0158824461 108537.9002269852 0.0158824461 115980.9155990219 58841.0504154943 0.0000961344 0.2328960341 0.2326165279 0.0000000000 2553.2539233715 0.0000000000 0.0017994993 12.6299126729 0.0000000000 18.8220812437 6050.6931500000
 6066.3359000000 2776.9028527441 3779.3681849061 3771.2970165537 0.2309939295 6525480.4040614497 0.2273127221 6171199.8414727924 2510235.7798742112 0.0004885750 3695.5336892480 4225.6321931989 6270.9561490101 2547.7567071752 0.9000000000 0.0484156999 878.6647336128 0.0000000000 1698.3996050952 0.6965707575 0.6091871189 19.9019970731 19.9019970731 19.9019970731 0.0158827966 108587.3446493743 0.0158599666 114170.6531756376 55192.4246439927 0.0001266758 0.2399806941 0.2397284573 0.0000000000 2541.4325049099 0.0000000000 0.0018000684 12.6712530069 0.0000000000 19.0038818855 6066.3359000000
 6081.9786500000 2769.8868788140 3670.0091841430 3296.8737434320 0.2266982784 6225394.4513767213 0.2251534519 5751999.7187507851 2346312.9528463236 0.0004543207 3704.7738529348 4212.2657571080 6288.2238417018 2554.3261148012 0.9000000000 0.0502290713 953.5814460854 0.0000000000 1675.0545248330 0.6925814771 0.6091395689 19.5844797750 19.5844797750 19.5844797750 0.0156331825 106869.3913691142 0.0156137034 115971.0151622995 55887.3228919698 0.0001252179 0.2368886673 0.2366410720 0.0000000000 2509.9705363332 0.0000000000 0.0017714224 12.4626058556 0.0000000000 18.6759213220 6081.9786500000
