~Version ---------------------------------------------------
VERS.   2.0 : CWLS log ASCII Standard -VERSION 2.0
WRAP.    NO : One line per depth step
DLM . SPACE : Column Data Section Delimiter
~Well ------------------------------------------------------
STRT.ft               5569.94125 : START DEPTH
STOP.ft        8198.326850000001 : STOP DEPTH
STEP.ft        14.50250000000051 : STEP
NULL.                   -9999.25 : NULL VALUE
COMP.                            : COMPANY
WELL.                     bypass : WELL
FLD .                            : FIELD
LOC .                            : LOCATION
PROV.                            : PROVINCE
CNTY.                            : COUNTY
STAT.                            : STATE
CTRY.                            : COUNTRY
SRVC.                            : SERVICE COMPANY
DATE. 2019-07-30 20:43:31.496337 : DATE
UWI .                            : UNIQUE WELL ID
API .                            : API NUMBER
~Curve Information -----------------------------------------
Depth              .ft          : 
KICh               .psi*in^1/2  : 
KICvup             .psi*in^1/2  : 
KICvdown           .psi*in^1/2  : 
nuh                .            : 
Eh                 .psi         : 
nuv                .            : 
Ev                 .psi         : 
Gv                 .psi         : 
Cl                 .ft/min^1/2  : 
Sigma_h            .psi         : 
SigmaH             .psi         : 
SigmaV             .psi         : 
Pore Pressure      .psi         : 
Biot               .            : 
Porosity           .            : 
Permeability       .nD          : 
SoPhi              .            : 
TensileStrength    .psi         : 
Grad_SigmaH        .psi/ft      : 
Grad_Sigma_h       .psi/ft      : 
Std_KICh           .psi*in^1/2  : 
Std_KICvup         .psi*in^1/2  : 
Std_KICvdown       .psi*in^1/2  : 
Std_nuh            .            : 
Std_Eh             .psi         : 
Std_nuv            .            : 
Std_Ev             .psi         : 
Std_Gv             .psi         : 
Std_Cl             .ft/min^1/2  : 
Std_Sigma_h        .psi         : 
Std_SigmaH         .psi         : 
Std_SigmaV         .psi         : 
Std_Pore Pressure  .psi         : 
Std_Biot           .            : 
Std_Porosity       .            : 
Std_Permeability   .nD          : 
Std_SoPhi          .            : 
Std_TensileStrength.psi         : 
Std_Depth          .ft          : 
~Params ----------------------------------------------------
~Other -----------------------------------------------------
Exported from homogenization method
~ASCII -----------------------------------------------------
# ...
 7549.9030500000 2442.0921494446 5257.0692181807 5446.7009613994 0.1744458894 5223872.6941248197 0.1386122002 2893649.8189053643 1269938.2941785697 0.0002581405 5108.9099482277 5553.7046161861 7952.8930725285 4152.3087740618 0.9000000000 0.0580229985 2137.0038444025 0.0000000000 1339.7121998502 0.7355994613 0.6766855037 18.1242417270 18.1242417270 18.1242417270 0.0047838526 98362.4362037889 0.0039844439 61829.5410023522 30040.2964137401 0.0000958507 0.1164484834 0.1166842256 0.0000000000 1286.5965263726 0.0000000000 0.0008147967 12.0918074929 0.0000000000 18.1780251213 7549.9030500000
 7568.9945500000 2494.8117070897 5780.9251235881 4276.0720456793 0.1881698160 5716339.7525891485 0.1512060716 3208015.7451077430 1390154.0685271502 0.0004775217 5261.1739079805 5742.2785174168 7973.9184641855 4162.8094383626 0.9000000000 0.0514778317 1670.4324734493 0.0000000000 1423.5197025246 0.7586580330 0.6950954811 17.8321951674 17.8321951674 17.8321951674 0.0047197656 96981.3030021033 0.0043462156 69590.0036811699 33949.0717882933 0.0001000791 0.1211960033 0.1214161117 0.0000000000 1340.5260259121 0.0000000000 0.0008044749 11.6444779235 0.0000000000 17.5529299627 7568.9945500000
 7588.0860500000 2491.3030093720 3605.7533855946 3850.3661968854 0.2049505937 6343362.2490196126 0.1875078562 3990846.5941058532 1680360.6850134181 0.0002558269 5480.9881526514 6007.4298409623 7995.4768650667 4173.3102596705 0.9000000000 0.0425156915 1204.9903331211 0.0000000000 1549.2839273021 0.7916923716 0.7223149707 18.0662928341 18.0662928341 18.0662928341 0.0047814052 98250.9802231075 0.0044248598 68778.0047479447 33617.4038206200 0.0001005276 0.1220390742 0.1222634257 0.0000000000 1348.5175360030 0.0000000000 0.0008151286 11.7958958550 0.0000000000 17.7891638415 7588.0860500000
 7607.1775500000 2447.4154715085 3484.5546943658 3329.1082531399 0.2026066996 6449636.8428861815 0.1867062098 3928475.4319606842 1655178.5259816765 0.0002573740 5536.1583799219 6072.4631290310 8017.2604026154 4183.8103434775 0.9000000000 0.0397331015 1154.1399937465 0.0000000000 1556.0936111312 0.7982544234 0.7277545901 18.0726193840 18.0726193840 18.0726193840 0.0047814030 98263.1314767417 0.0044465684 67023.9450574813 32950.0646898149 0.0000997948 0.1214436600 0.1216691857 0.0000000000 1340.6530878322 0.0000000000 0.0008153447 11.8416600246 0.0000000000 17.8321472313 7607.1775500000
 7626.2690500000 2443.8410611873 3649.9079441534 3459.1577110753 0.2005351314 6375538.6897805873 0.1841249673 3844784.1549195726 1623390.9310330609 0.0004836662 5536.6240436032 6067.6821128992 8039.1106941622 4194.3104272844 0.9000000000 0.0403580149 1201.5868494788 0.0000000000 1546.2150785256 0.7956291698 0.7259937995 18.0630417283 18.0630417283 18.0630417283 0.0047814105 98244.7427911665 0.0044206123 69429.6940683860 33850.6569472865 0.0001008009 0.1222704589 0.1224943476 0.0000000000 1351.5109387455 0.0000000000 0.0008150252 11.7848173892 0.0000000000 17.7668498524 7626.2690500000
 7645.3606000000 2473.1291091149 3462.4921085771 3610.7414940766 0.2067414550 6459548.1701867683 0.1901573558 3979847.3629343486 1671649.2192829940 0.0002567101 5587.7301876157 6123.0186823797 8060.9095048304 4204.8105381424 0.9000000000 0.0396176674 1107.9835415902 0.0000000000 1569.5257258602 0.8008802989 0.7308654856 18.0665615648 18.0665615648 18.0665615648 0.0047813903 98251.4985475951 0.0044675742 67426.2686918273 33074.3654527375 0.0000999767 0.1216575988 0.1218826563 0.0000000000 1343.0232886652 0.0000000000 0.0008152616 11.7931521568 0.0000000000 17.7909189101 7645.3606000000
 7664.4521500000 2434.6779633435 3973.4769961753 4351.3857248798 0.2010605641 6413043.9193485016 0.1832795358 3831239.7702683457 1618991.5647888568 0.0002613567 5575.0369446007 6108.9853657858 8082.7705310006 4215.3106496347 0.9000000000 0.0398172430 1222.8991987584 0.0000000000 1546.2023653672 0.7970544073 0.7273888382 17.8558170566 17.8558170566 17.8558170566 0.0047198152 97026.6972458650 0.0042653063 64134.6387672245 31513.3972710791 0.0000972050 0.1183236746 0.1185494029 0.0000000000 1306.1663063137 0.0000000000 0.0008048930 11.9052490650 0.0000000000 17.7126491607 7664.4521500000
 7683.5436500000 2460.1335969721 3388.2611611261 3367.9201023512 0.1903387872 5907446.1673220275 0.1658651174 3458100.7830663281 1482575.1287001790 0.0004842646 5425.1085815296 5921.3913399353 8104.4579388596 4225.8120211874 0.9000000000 0.0478706477 1625.0317078005 0.0000000000 1462.4066857088 0.7706589055 0.7060685575 18.0922754979 18.0922754979 18.0922754979 0.0047856756 82782.2426686418 0.0041988741 57964.1242218356 28865.1021099780 0.0000941019 0.1148375293 0.1149812167 0.0000000000 1267.0069323514 0.0000000000 0.0008143715 11.9914306527 0.0000000000 17.9645639350 7683.5436500000
 7702.6351500000 2679.3056093183 5391.1277330135 6806.9990667485 0.1837802299 5553217.2087251982 0.1480490066 3100038.5869754367 1347135.0197997682 0.0002443085 5319.7504115228 5788.8592096406 8125.5533078589 4236.3121352434 0.9000000000 0.0537067346 1596.0377315312 0.0000000000 1431.1600435059 0.7515426989 0.6906403209 18.0712849041 18.0712849041 18.0712849041 0.0047814408 98260.5985882661 0.0044691240 68104.5563159676 33575.9805857660 0.0001005431 0.1222324235 0.1224564795 0.0000000000 1349.9071536712 0.0000000000 0.0008153980 11.9148864832 0.0000000000 17.8221103060 7702.6351500000
 7721.7266500000 2511.0107944445 3366.4383704921 5303.2103542390 0.2152808600 6578037.6391808838 0.2010085052 4190771.7855445850 1743831.6215726202 0.0004800375 5709.6340420629 6250.9111949869 8147.2233407530 4246.8122190504 0.9000000000 0.0379700230 947.8675236879 0.0000000000 1606.6407404372 0.8095224654 0.7394245226 18.0512751734 18.0512751734 18.0512751734 0.0047813926 98222.1658029189 0.0044867437 71828.5057944986 34920.5350179636 0.0001021924 0.1237478727 0.1239689549 0.0000000000 1368.7243569885 0.0000000000 0.0008149152 11.7148258076 0.0000000000 17.6861545262 7721.7266500000
 7740.8181500000 2582.3265809467 3191.6591811530 3815.6884949644 0.2153137729 6356519.3352679061 0.1985585368 4379419.5646824315 1825424.8916623855 0.0002385684 5568.0979405496 6091.1331827276 8168.9975369139 4257.3123028573 0.9000000000 0.0436726613 1078.6651328915 0.0000000000 1594.3900594032 0.7868849345 0.7193164641 18.0146755329 18.0146755329 18.0146755329 0.0047815950 98151.9375167539 0.0045579856 85162.6363861222 40823.5349218338 0.0000720391 0.1155740214 0.1157946086 0.0000000000 1256.7957353325 0.0000000000 0.0008137889 11.5369534932 0.0000000000 17.4352510289 7740.8181500000
 7759.9097000000 2668.8686099643 3501.9603852341 4184.1393388013 0.2230020198 6324039.3759814138 0.2083954024 4725933.7083393121 1953403.8885162943 0.0002308632 5550.4308168749 6067.5223076257 8190.4202877367 4267.8124135746 0.9000000000 0.0465335581 1027.2223249613 0.0000000000 1616.7968048473 0.7819063033 0.7152700265 17.7812222642 17.7812222642 17.7812222642 0.0047199389 96883.4998346421 0.0045027757 84843.5146001357 40631.1220068807 0.0000713251 0.1143583061 0.1145755100 0.0000000000 1243.8603821791 0.0000000000 0.0008032257 11.3850782079 0.0000000000 17.2033276639 7759.9097000000
 7779.0012500000 2629.5407324647 4158.3363820359 3231.1992173896 0.2191779715 6397157.3449189775 0.2049772401 4701373.2251930302 1949762.6535283327 0.0004450215 5555.6608805203 6080.3715867855 8211.7708158490 4278.3132022104 0.9000000000 0.0458157929 1051.8473913442 0.0000000000 1607.2094877978 0.7816391065 0.7141869119 18.0617751249 18.0617751249 18.0617751249 0.0047815209 98242.3294718520 0.0044164761 70995.7182329028 34554.6689588744 0.0001016371 0.1230434339 0.1232658999 0.0000000000 1361.1258941576 0.0000000000 0.0008149039 11.8122756545 0.0000000000 17.7576120548 7779.0012500000
 7798.0927500000 2462.1038789399 3871.0219061140 3510.3769648973 0.2041218539 6366835.3467485774 0.1858491941 3831475.6102490937 1615314.5824175142 0.0002666378 5692.6219353705 6221.3753440200 8233.4164207868 4288.8139270094 0.9000000000 0.0402096385 1189.4080922433 0.0000000000 1551.4405089181 0.7978073028 0.7300018245 18.0677921052 18.0677921052 18.0677921052 0.0047814735 98253.8632530225 0.0043608134 68164.1962588476 33080.3656014584 0.0000998579 0.1211965432 0.1214224673 0.0000000000 1339.3520675945 0.0000000000 0.0008150213 11.8090308825 0.0000000000 17.7992408612 7798.0927500000
