~Version ---------------------------------------------------
VERS.   2.0 : CWLS log ASCII Standard -VERSION 2.0
WRAP.    NO : One line per depth step
DLM . SPACE : Column Data Section Delimiter
~Well ------------------------------------------------------
STRT.ft                 5553.236 : START DEPTH
STOP.ft        7956.265999999999 : STOP DEPTH
STEP.ft        14.83744999999999 : STEP
NULL.                   -9999.25 : NULL VALUE
COMP.                            : COMPANY
WELL.                     bypass : WELL
FLD .                            : FIELD
LOC .                            : LOCATION
PROV.                            : PROVINCE
CNTY.                            : COUNTY
STAT.                            : STATE
CTRY.                            : COUNTRY
SRVC.                            : SERVICE COMPANY
DATE. 2019-07-30 20:43:21.016623 : DATE
UWI .                            : UNIQUE WELL ID
API .                            : API NUMBER
~Curve Information -----------------------------------------
Depth              .ft          : 
KICh               .psi*in^1/2  : 
KICvup             .psi*in^1/2  : 
KICvdown           .psi*in^1/2  : 
nuh                .            : 
Eh                 .psi         : 
nuv                .            : 
Ev                 .psi         : 
Gv                 .psi         : 
Cl                 .ft/min^1/2  : 
Sigma_h            .psi         : 
SigmaH             .psi         : 
SigmaV             .psi         : 
Pore Pressure      .psi         : 
Biot               .            : 
Porosity           .            : 
Permeability       .nD          : 
SoPhi              .            : 
TensileStrength    .psi         : 
Grad_SigmaH        .psi/ft      : 
Grad_Sigma_h       .psi/ft      : 
Std_KICh           .psi*in^1/2  : 
Std_KICvup         .psi*in^1/2  : 
Std_KICvdown       .psi*in^1/2  : 
Std_nuh            .            : 
Std_Eh             .psi         : 
Std_nuv            .            : 
Std_Ev             .psi         : 
Std_Gv             .psi         : 
Std_Cl             .ft/min^1/2  : 
Std_Sigma_h        .psi         : 
Std_SigmaH         .psi         : 
Std_SigmaV         .psi         : 
Std_Pore Pressure  .psi         : 
Std_Biot           .            : 
Std_Porosity       .            : 
Std_Permeability   .nD          : 
Std_SoPhi          .            : 
Std_TensileStrength.psi         : 
Std_Depth          .ft          : 
~Params ----------------------------------------------------
~Other -----------------------------------------------------
Exported from homogenization method
~ASCII -----------------------------------------------------
# ...
 6386.4641500000 2836.8256984176 3549.5733164009 4708.8794711761 0.2390264937 6694402.2045573574 0.2231455182 5618038.8513258584 2293195.0144412303 0.0006094760 4051.4909096137 4591.7862332964 6614.7166717750 2682.2099135554 0.9000000000 0.0510884879 1024.6939730345 0.0000000000 1652.5323982706 0.7189872401 0.6343871686 20.5950768061 20.5950768061 20.5950768061 0.0054739498 112304.2583232125 0.0051769666 106312.4577471446 50614.9127344788 0.0000939752 0.1368302454 0.1371441992 0.0000000000 1425.6298779497 0.0000000000 0.0009307551 13.1330135431 0.0000000000 19.7754768682 6386.4641500000
 6400.9358500000 2847.2663704899 4027.6444019663 3513.2998102099 0.2404596774 6573649.6633908758 0.2259644729 5647751.5073067909 2300591.2675939379 0.0006191412 4045.4746907121 4575.4112765881 6630.6455706291 2688.2880043119 0.9000000000 0.0510768765 1008.4841197272 0.0000000000 1663.3163973934 0.7148034887 0.6320130033 20.5764056935 20.5764056935 20.5764056935 0.0054739722 112268.5175788740 0.0052530390 111727.5637404175 53655.8963015262 0.0000635752 0.1267861653 0.1270021158 0.0000000000 1400.7405738764 0.0000000000 0.0009304891 13.0948632188 0.0000000000 19.6445149602 6400.9358500000
 6415.4075000000 2815.7055848846 3866.0015182320 4671.5710722737 0.2211928492 5913333.2452216167 0.1958455228 4593361.4389987355 1916608.9360738075 0.0006955208 3929.1218680566 4413.3478647101 6646.5192211037 2694.3660737583 0.9000000000 0.0591060111 1448.8354557183 0.0000000000 1551.5790244865 0.6879294674 0.6124508643 20.6538364070 20.6538364070 20.6538364070 0.0054775438 112416.9298716198 0.0046924304 92137.6247064049 43142.0762938817 0.0000875818 0.1283359957 0.1286714061 0.0000000000 1334.0582047467 0.0000000000 0.0009305661 13.1032093432 0.0000000000 20.1809116938 6415.4075000000
 6429.8791500000 2832.6182503295 4100.3631870823 3840.7928689686 0.1955303196 4639269.9941214398 0.1636363661 3449112.0492137857 1480784.6850161578 0.0005817596 3682.4713085234 4070.5225288252 6661.8581090926 2700.4441437426 0.9000000000 0.0754430758 2086.6741226775 0.0000000000 1387.2637641656 0.6330636135 0.5727123672 20.6329047560 20.6329047560 20.6329047560 0.0054759484 112376.7795494978 0.0049178743 96569.2752257074 45426.1836013665 0.0000896386 0.1311962423 0.1315241139 0.0000000000 1364.3468341899 0.0000000000 0.0009307322 13.1474715891 0.0000000000 20.0369461794 6429.8791500000
 6444.3508500000 2830.0851396847 4482.8786273459 3765.8708177217 0.2416890315 6406137.3542398009 0.2161860579 5242629.0072369454 2146172.4586374327 0.0006747182 4077.9378613591 4593.8590937926 6677.3652647360 2706.5222344991 0.9000000000 0.0500924870 1020.4565010991 0.0000000000 1662.8950377651 0.7128505571 0.6327926515 20.5316265672 20.5316265672 20.5316265672 0.0054733906 112182.8566138390 0.0054187742 112205.2536934493 56703.4348041303 0.0000641897 0.1281068609 0.1283201449 0.0000000000 1414.7629006863 0.0000000000 0.0009301381 13.0429438815 0.0000000000 19.3283847681 6444.3508500000
 6458.8225000000 2881.1249592911 3843.5505633053 4683.2689716156 0.2656526991 7245025.2664374597 0.2611908552 6962821.7282823492 2757420.1583414008 0.0005364670 4222.1123512534 4794.5462639471 6693.5797711325 2712.6003036983 0.9000000000 0.0410518955 560.8314260635 0.0000000000 1801.6625266951 0.7423251319 0.6536969163 20.5794408613 20.5794408613 20.5794408613 0.0054738794 112274.3672097063 0.0052423823 106131.8494830621 51608.7694873218 0.0000628537 0.1256779288 0.1258958155 0.0000000000 1387.1856092311 0.0000000000 0.0009305902 13.1100435685 0.0000000000 19.6643929331 6458.8225000000
 6473.2941500000 2805.2594276650 3370.0563780957 3696.7361883406 0.2200576021 5652108.1137248455 0.1995752632 4469393.3423602805 1861055.6936914052 0.0007029170 3956.9241003684 4420.1897776649 6709.5936816982 2718.6783739298 0.9000000000 0.0584072531 1415.5804830650 0.0000000000 1560.2293574930 0.6828346859 0.6112690091 20.2525876408 20.2525876408 20.2525876408 0.0053825281 110423.7047244934 0.0050133306 103583.1992833194 48501.5337037902 0.0000914991 0.1332434451 0.1335551293 0.0000000000 1388.1666863365 0.0000000000 0.0009149040 12.9027172911 0.0000000000 19.4681451077 6473.2941500000
 6488.1781500000 2878.8573057053 4241.7773109026 3532.4157053596 0.2380071840 5803546.8096129587 0.2193508818 5038111.4033336230 2060356.5124246296 0.0001914864 4015.9173500538 4484.6987016114 6725.7713317082 2724.9304075495 0.9000000000 0.0541520631 1134.5163593623 0.0000000000 1645.2650631648 0.6912107834 0.6189591681 20.2432964974 20.2432964974 20.2432964974 0.0053821125 110405.9124238916 0.0050820167 103804.1183566642 48794.4008643976 0.0000917593 0.1336996104 0.1340101206 0.0000000000 1392.6136982047 0.0000000000 0.0009149576 12.9017192227 0.0000000000 19.4032174231 6488.1781500000
 6503.4744000000 2805.8711759221 3961.7538086099 3539.4617278720 0.2260578269 5557534.8159550894 0.2080207098 4387465.9476561695 1815867.5076790492 0.0002929859 4049.2752968608 4502.5601823012 6742.5096550713 2731.3541047450 0.9000000000 0.0554960844 1276.7839503519 0.0000000000 1585.9715100606 0.6923314993 0.6226326188 19.9193709132 19.9193709132 19.9193709132 0.0052945634 108620.6203506000 0.0049632473 100498.0098011856 46664.8261427597 0.0000893235 0.1302963902 0.1306047979 0.0000000000 1356.5908860390 0.0000000000 0.0009001483 12.6993359909 0.0000000000 19.1250864719 6503.4744000000
 6518.7706000000 2860.8986852565 3377.6972205435 3887.9589990269 0.2277166247 5465884.3814208563 0.2136199341 4724825.2180143427 1946204.3809588868 0.0002713445 3969.6823752350 4414.8897033385 6759.2244182249 2737.7784844602 0.9000000000 0.0578941986 1296.3396561812 0.0000000000 1605.4165641360 0.6772580252 0.6089618149 19.9104846053 19.9104846053 19.9104846053 0.0052946952 108603.6017648593 0.0050252929 104743.5490532112 48706.4218046216 0.0000910751 0.1324719718 0.1327752037 0.0000000000 1380.6853357768 0.0000000000 0.0008999911 12.6735011394 0.0000000000 19.0630502013 6518.7706000000
 6534.0668500000 2842.7482461100 3686.3433259721 4055.5903944836 0.2374314815 5835450.4358821185 0.2217263930 4873979.8581810445 1992338.5679298344 0.0001973070 4115.6580627720 4587.2357236833 6775.9189848448 2744.2034508999 0.9000000000 0.0519653457 1067.8461546527 0.0000000000 1644.4178653157 0.7020490958 0.6298769445 20.2421076414 20.2421076414 20.2421076414 0.0053818898 110403.6321363729 0.0051137150 105084.5882292169 49310.8050639634 0.0000922786 0.1343664015 0.1346753648 0.0000000000 1399.8968349965 0.0000000000 0.0009150413 12.9032689685 0.0000000000 19.3950434055 6534.0668500000
 6549.3631000000 2789.2725559130 3855.1555628319 3696.2478474654 0.2305486208 5837415.2785525024 0.2116359323 4624665.4221653379 1905178.0926767678 0.0002755314 4116.5387189204 4590.9137399543 6792.7798538201 2750.6267359213 0.9000000000 0.0520080878 1134.1146822725 0.0000000000 1617.1061520009 0.7009710211 0.6285403109 19.9287809177 19.9287809177 19.9287809177 0.0052944319 108638.6513563915 0.0049547543 96479.2988152572 45047.9489198781 0.0000879467 0.1287062717 0.1290186138 0.0000000000 1338.4496154308 0.0000000000 0.0009003804 12.7218178290 0.0000000000 19.1904459595 6549.3631000000
 6564.6593500000 2836.8973565630 3706.3698805604 3778.5985119171 0.2360652518 5828739.3526153602 0.2203154296 4846997.1324691502 1984236.6719450809 0.0002654044 4128.1222302977 4599.6781893453 6809.6436851955 2757.0526645006 0.9000000000 0.0522437198 1086.7952041474 0.0000000000 1638.9555243210 0.7006727911 0.6288402810 20.2439961579 20.2439961579 20.2439961579 0.0053821851 110407.2357588646 0.0050793681 104429.7271213648 48719.0500425347 0.0000918230 0.1337333879 0.1340438271 0.0000000000 1393.1763720234 0.0000000000 0.0009149524 12.8902035306 0.0000000000 19.4086925991 6564.6593500000
 6579.9556000000 2823.6443045283 4303.5984310526 3663.6087310072 0.2287113753 5693731.0282236515 0.2106824235 4599232.0784846051 1898098.1257824721 0.0002118759 4091.9422925751 4555.3327309434 6826.3723803601 2763.4761035421 0.9000000000 0.0551849436 1243.0923299835 0.0000000000 1600.6719616524 0.6923044786 0.6218799246 19.9235623204 19.9235623204 19.9235623204 0.0052945629 108628.6614254779 0.0049655880 100138.7295192035 46925.1064967870 0.0000894146 0.1304532771 0.1307613717 0.0000000000 1358.1522760605 0.0000000000 0.0009002332 12.7077516493 0.0000000000 19.1538587931 6579.9556000000
