~Version ---------------------------------------------------
VERS.   2.0 : CWLS log ASCII Standard -VERSION 2.0
WRAP.    NO : One line per depth step
DLM . SPACE : Column Data Section Delimiter
~Well ------------------------------------------------------
STRT.ft               5857.54595 : START DEPTH
STOP.ft       7958.7521000000015 : STOP DEPTH
STEP.ft       14.211900000000242 : STEP
NULL.                   -9999.25 : NULL VALUE
COMP.                            : COMPANY
WELL.                     bypass : WELL
FLD .                            : FIELD
LOC .                            : LOCATION
PROV.                            : PROVINCE
CNTY.                            : COUNTY
STAT.                            : STATE
CTRY.                            : COUNTRY
SRVC.                            : SERVICE COMPANY
DATE. 2019-07-30 20:43:36.147719 : DATE
UWI .                            : UNIQUE WELL ID
API .                            : API NUMBER
~Curve Information -----------------------------------------
Depth              .ft          : 
KICh               .psi*in^1/2  : 
KICvup             .psi*in^1/2  : 
KICvdown           .psi*in^1/2  : 
nuh                .            : 
Eh                 .psi         : 
nuv                .            : 
Ev                 .psi         : 
Gv                 .psi         : 
Cl                 .ft/min^1/2  : 
Sigma_h            .psi         : 
SigmaH             .psi         : 
SigmaV             .psi         : 
Pore Pressure      .psi         : 
Biot               .            : 
Porosity           .            : 
Permeability       .nD          : 
SoPhi              .            : 
TensileStrength    .psi         : 
Grad_SigmaH        .psi/ft      : 
Grad_Sigma_h       .psi/ft      : 
Std_KICh           .psi*in^1/2  : 
Std_KICvup         .psi*in^1/2  : 
Std_KICvdown       .psi*in^1/2  : 
Std_nuh            .            : 
Std_Eh             .psi         : 
Std_nuv            .            : 
Std_Ev             .psi         : 
Std_Gv             .psi         : 
Std_Cl             .ft/min^1/2  : 
Std_Sigma_h        .psi         : 
Std_SigmaH         .psi         : 
Std_SigmaV         .psi         : 
Std_Pore Pressure  .psi         : 
Std_Biot           .            : 
Std_Porosity       .            : 
Std_Permeability   .nD          : 
Std_SoPhi          .            : 
Std_TensileStrength.psi         : 
Std_Depth          .ft          : 
~Params ----------------------------------------------------
~Other -----------------------------------------------------
Exported from homogenization method
~ASCII -----------------------------------------------------
# ...
 6696.6628000000 2789.7976834307 5288.1256651578 4516.3404186117 0.2387144024 6897994.6734513361 0.2045378331 5361031.0270718141 2210287.1050842823 0.0005506455 4241.7295992780 4798.5968367940 6973.8966257330 2812.4928261986 0.9000000000 0.0491210727 1060.3545283521 0.0000000000 1653.6573644135 0.7165653968 0.6334094647 20.0466904489 20.0466904489 20.0466904489 0.0052946668 108865.0108651632 0.0051310180 101249.6336289615 48206.4798566353 0.0000766620 0.1280125357 0.1282377571 0.0000000000 1505.6891798013 0.0000000000 0.0009022044 12.8204175311 0.0000000000 19.9951465765 6696.6628000000
 6712.4550000000 2764.2978291839 4606.3629959087 3855.1024224374 0.2417381213 6954480.4002431678 0.2234646596 5593830.1493625240 2276216.8701703143 0.0006252631 4347.8126001271 4907.8727513852 6991.4695388656 2819.1267026249 0.9000000000 0.0438115388 822.8485608052 0.0000000000 1702.1340483952 0.7311591290 0.6477231654 19.7307526264 19.7307526264 19.7307526264 0.0052104948 107150.0667348870 0.0052142567 125668.3144266680 60795.9915986263 0.0000619751 0.1429233330 0.1430683470 0.0000000000 1778.9807348060 0.0000000000 0.0008888940 12.4707473840 0.0000000000 19.6787529612 6712.4550000000
 6728.2472000000 2810.1206157022 3730.3123632851 3700.9139195859 0.2648116959 7609090.3904929366 0.2510612844 6648150.7483032839 2642426.3836148852 0.0005570421 4505.4937452027 5107.0924191743 7009.3283523709 2825.7582589852 0.9000000000 0.0370171884 526.0643446876 0.0000000000 1798.1835919686 0.7590524348 0.6696385569 20.0465473664 20.0465473664 20.0465473664 0.0052938425 108864.7356464032 0.0052934642 119180.6095431552 57505.6847128267 0.0000620918 0.1436162543 0.1437652235 0.0000000000 1785.6967633180 0.0000000000 0.0009032935 12.6826430441 0.0000000000 19.9941872055 6728.2472000000
 6744.0394500000 2762.4442766696 3317.1993317319 4315.7776569228 0.2582853150 7267886.7514350014 0.2469716701 6194745.9048358537 2476721.8714007223 0.0007444009 4499.6857197814 5077.2881653107 7027.3407397334 2832.3920121585 0.9000000000 0.0359750938 540.2835257337 0.0000000000 1784.0235083217 0.7528556443 0.6672092821 19.7308246290 19.7308246290 19.7308246290 0.0052109501 107150.2052311837 0.0050809649 109587.4185263726 51369.2656275514 0.0000777370 0.1289925440 0.1292090862 0.0000000000 1520.9264761429 0.0000000000 0.0008884164 12.5808549986 0.0000000000 19.6792357534 6744.0394500000
 6759.8317000000 2715.0548120286 4567.4456286522 4099.4043899510 0.2286374747 6457770.9830587385 0.2146111301 5008621.0988557497 2058272.3337240221 0.0006270109 4321.8783032500 4847.4825694622 7045.0768265197 2839.4956877039 0.9000000000 0.0464143233 959.3508555035 0.0000000000 1652.5506867535 0.7171010736 0.6393470274 19.7308106334 19.7308106334 19.7308106334 0.0052107515 107150.1783101353 0.0051356499 109458.8834227325 50958.1829954752 0.0000776505 0.1289416820 0.1291583150 0.0000000000 1519.8401510468 0.0000000000 0.0008885487 12.5733537700 0.0000000000 19.6791419291 6759.8317000000
 6775.6239000000 2722.8620166102 3672.3256724482 4404.8139264395 0.2291135447 6253866.5433413228 0.2193408598 4892698.5103170685 2003387.2447303438 0.0006528605 4360.3877123454 4869.1988445845 7062.8062817778 2864.5895503452 0.9000000000 0.0459902122 914.0227948449 0.0000000000 1661.8175668431 0.7186347584 0.6435403996 21.0930874432 21.0930874432 21.0930874432 0.0055705525 114548.2889445596 0.0054953327 116993.3454450761 54070.0370343864 0.0000828807 0.1376467222 0.1378786437 0.0000000000 1622.3403504768 0.0000000000 0.0009497606 13.4375256661 0.0000000000 21.0376437473 6775.6239000000
 6790.0050000000 2743.9321808916 3495.8862359545 3256.4234224465 0.2425290254 6698482.9299520412 0.2355231717 5547406.9781749081 2241787.3485853691 0.0001665207 4466.3260142778 5005.4267349238 7078.9094833486 2910.4633103674 0.9000000000 0.0415287674 707.0945976212 0.0000000000 1719.9131767035 0.7371757068 0.6577794883 21.8893488241 21.8893488241 21.8893488241 0.0057807807 118872.4109448831 0.0057022612 115295.6099263215 53639.5484359376 0.0000846038 0.1410289559 0.1412727240 0.0000000000 1659.8017005039 0.0000000000 0.0009855855 13.9679669811 0.0000000000 21.8319120940 6790.0050000000
 6802.9750000000 2703.0037822785 3205.3561254309 2969.5651852250 0.2226513452 6157409.3112174775 0.2155299924 4707550.7465924518 1935967.7082094357 0.0002817003 4412.3290898463 4915.9403062091 7093.4543022776 2956.0393962911 0.9000000000 0.0472377980 967.2537376970 0.0000000000 1640.3567894939 0.7226162534 0.6485881677 21.8893155527 21.8893155527 21.8893155527 0.0057807504 118872.3469477535 0.0057045547 120284.7733911038 55790.8939805322 0.0000857945 0.1425809653 0.1428220851 0.0000000000 1680.0586285600 0.0000000000 0.0009857316 13.9496126922 0.0000000000 21.8316889940 6802.9750000000
 6815.9450000000 2730.4973440540 3742.8050319495 3793.4597693954 0.2366088233 6527959.1581728449 0.2268725925 5217896.3541058395 2122783.9961493886 0.0001744303 4497.4483595463 5025.3403683229 7107.9903472944 2991.0136372774 0.9000000000 0.0432773662 800.6238421820 0.0000000000 1692.8587377677 0.7372918016 0.6598422316 21.8893551333 21.8893551333 21.8893551333 0.0057808099 118872.4230807387 0.0056938535 115067.1105056086 53415.3633339251 0.0000845063 0.1408791291 0.1411231553 0.0000000000 1657.9888326765 0.0000000000 0.0009855568 13.9738652824 0.0000000000 21.8319543924 6815.9450000000
 6828.9150000000 2714.8358373259 3239.7218749650 3558.3932081633 0.2258466372 6245442.7853262089 0.2171911798 4857565.0556468368 1993836.2974723759 0.0002700148 4446.5178315831 4955.9977775715 7122.5260581285 3004.6070585204 0.9000000000 0.0469461473 948.7165623404 0.0000000000 1648.3900519444 0.7257372185 0.6511309383 21.8893948475 21.8893948475 21.8893948475 0.0057809579 118872.4994702311 0.0056338962 107596.1143739596 50066.9428032203 0.0000827003 0.1384301468 0.1386784784 0.0000000000 1626.6503319440 0.0000000000 0.0009854060 14.0159002768 0.0000000000 21.8322206936 6828.9150000000
 6841.8850000000 2690.9131537774 3373.4013294745 3577.4687808838 0.2209287889 6177484.2581744278 0.2135583525 4658043.4973760964 1919038.8399507278 0.0001977023 4462.3746471834 4968.3406227983 7137.0026232629 3010.3194159627 0.9000000000 0.0471007476 983.9796218851 0.0000000000 1633.8869433337 0.7261654680 0.6522142139 21.8893332234 21.8893332234 21.8893332234 0.0057810794 118872.3809370585 0.0056244332 111447.8661679384 51599.6259549749 0.0000835221 0.1394663439 0.1397128295 0.0000000000 1640.3844887144 0.0000000000 0.0009852878 14.0044180829 0.0000000000 21.8318074854 6841.8850000000
 6854.8550000000 2729.0708337965 3270.2334571059 3312.3372538882 0.2197640076 5948284.8262842428 0.2102785844 4658374.5173760941 1924401.8377243106 0.0002849446 4378.6752702571 4866.3339312315 7151.4054217345 3016.0261824985 0.9000000000 0.0511725877 1110.3338572494 0.0000000000 1613.7068591153 0.7099105570 0.6387699332 21.8893209950 21.8893209950 21.8893209950 0.0057811861 118872.3574159706 0.0056225068 118882.3804689276 55100.7634807229 0.0000853467 0.1418538386 0.1420961797 0.0000000000 1671.4942473934 0.0000000000 0.0009852933 13.9745835928 0.0000000000 21.8317254853 6854.8550000000
 6867.8250000000 2726.3047206339 3544.7501338290 3488.0060362158 0.2281505601 6315721.3941831021 0.2162827612 4881227.7164360071 2003355.3023274988 0.0002755072 4483.6083706803 4997.8548807733 7165.7994585011 3021.7329490343 0.9000000000 0.0468013898 949.1529462606 0.0000000000 1653.6185794082 0.7277201852 0.6528425478 21.8893904364 21.8893904364 21.8893904364 0.0057810343 118872.4909860171 0.0056037215 109147.9825886935 50915.9481628841 0.0000830790 0.1388857765 0.1391332927 0.0000000000 1632.8578062456 0.0000000000 0.0009853175 14.0256463980 0.0000000000 21.8321911014 6867.8250000000
 6880.7950000000 2729.6874636715 3973.3263055333 3532.4418972575 0.2344089796 6636992.9343771711 0.2215954920 5290581.3858496714 2161410.1359020723 0.0001794650 4507.1804022960 5044.8460418250 7180.2698442938 3027.4397155701 0.9000000000 0.0449203972 873.1298360790 0.0000000000 1675.0314791260 0.7331777857 0.6550377394 22.3228882393 22.3228882393 22.3228882393 0.0058954216 121226.6349342097 0.0057401285 119959.1168615493 56120.3718568908 0.0000868995 0.1445386204 0.1447859813 0.0000000000 1702.6557849100 0.0000000000 0.0010050819 14.2621494390 0.0000000000 22.2645700952 6880.7950000000
