~Version ---------------------------------------------------
VERS.   2.0 : CWLS log ASCII Standard -VERSION 2.0
WRAP.    NO : One line per depth step
DLM . SPACE : Column Data Section Delimiter
~Well ------------------------------------------------------
STRT.ft               5857.54595 : START DEPTH
STOP.ft       7958.7521000000015 : STOP DEPTH
STEP.ft       14.211900000000242 : STEP
NULL.                   -9999.25 : NULL VALUE
COMP.                            : COMPANY
WELL.                     bypass : WELL
FLD .                            : FIELD
LOC .                            : LOCATION
PROV.                            : PROVINCE
CNTY.                            : COUNTY
STAT.                            : STATE
CTRY.                            : COUNTRY
SRVC.                            : SERVICE COMPANY
DATE. 2019-07-30 20:43:36.147719 : DATE
UWI .                            : UNIQUE WELL ID
API .                            : API NUMBER
~Curve Information -----------------------------------------
Depth              .ft          : 
KICh               .psi*in^1/2  : 
KICvup             .psi*in^1/2  : 
KICvdown           .psi*in^1/2  : 
nuh                .            : 
Eh                 .psi         : 
nuv                .            : 
Ev                 .psi         : 
Gv                 .psi         : 
Cl                 .ft/min^1/2  : 
Sigma_h            .psi         : 
SigmaH             .psi         : 
SigmaV             .psi         : 
Pore Pressure      .psi         : 
Biot               .            : 
Porosity           .            : 
Permeability       .nD          : 
SoPhi              .            : 
TensileStrength    .psi         : 
Grad_SigmaH        .psi/ft      : 
Grad_Sigma_h       .psi/ft      : 
Std_KICh           .psi*in^1/2  : 
Std_KICvup         .psi*in^1/2  : 
Std_KICvdown       .psi*in^1/2  : 
Std_nuh            .            : 
Std_Eh             .psi         : 
Std_nuv            .            : 
Std_Ev             .psi         : 
Std_Gv             .psi         : 
Std_Cl             .ft/min^1/2  : 
Std_Sigma_h        .psi         : 
Std_SigmaH         .psi         : 
Std_SigmaV         .psi         : 
Std_Pore Pressure  .psi         : 
Std_Biot           .            : 
Std_Porosity       .            : 
Std_Permeability   .nD          : 
Std_SoPhi          .            : 
Std_TensileStrength.psi         : 
Std_Depth          .ft          : 
~Params ----------------------------------------------------
~Other -----------------------------------------------------
Exported from homogenization method
~ASCII -----------------------------------------------------
 5857.5459500000 2733.4496614028 4479.0465509910 3813.4305960588 0.2351840950 6872787.5593813304 0.2225469004 5436265.9719271138 2216745.7603094284 0.0004832089 3790.7105518578 4347.1286264809 6034.6953321687 2460.0646615236 0.9000000000 0.0428596519 767.2808325419 0.0000000000 1716.2619885872 0.7421416176 0.6471499471 21.0936764546 21.0936764546 21.0936764546 0.0055704780 114549.4219146211 0.0055704780 117502.1338805933 57451.7213611472 0.0000840773 0.1395952770 0.1398239747 0.0000000000 1645.4403064894 0.0000000000 0.0009498882 13.3958700474 0.0000000000 21.0415928138 5857.5459500000
 5871.7578500000 2761.7350585808 3279.7436973683 3919.1070191990 0.2211686212 6303679.4490896575 0.2151249401 5133956.8501443472 2110595.8078085934 0.0005039252 3665.3031452272 4181.5037206038 6050.6064658000 2466.0332605540 0.9000000000 0.0509210134 1032.4658359746 0.0000000000 1650.0300567087 0.7121383115 0.6242258688 21.0935190247 21.0935190247 21.0935190247 0.0055714776 114549.1190897163 0.0055047259 112958.6117290675 52885.0151727633 0.0000821013 0.1366980602 0.1369315662 0.0000000000 1609.5661247300 0.0000000000 0.0009490214 13.4709139584 0.0000000000 21.0405375221 5871.7578500000
 5885.9697000000 2724.7631722013 3644.2774081936 3356.8343658773 0.2185836932 6352947.5920790061 0.2050262546 4968849.0996657163 2057033.5961387078 0.0005069947 3659.3125800383 4180.6512149910 6066.2315885590 2472.0019572601 0.9000000000 0.0509583753 1109.0394761530 0.0000000000 1625.7361797008 0.7102739953 0.6217008864 20.7265751140 20.7265751140 20.7265751140 0.0054741750 112556.6698037473 0.0053606031 108171.5661773478 52779.7235164581 0.0000805750 0.1342714682 0.1345010074 0.0000000000 1580.5294545938 0.0000000000 0.0009328983 13.2300212304 0.0000000000 20.6741036488 5885.9697000000
 5900.1815500000 2763.3574778140 3431.0889200881 3852.1366862550 0.2387996684 7034645.7049284000 0.2270252286 5937622.9833515296 2413787.3046666826 0.0004811048 3769.3852953542 4337.2451264735 6082.0484586117 2477.9717081286 0.9000000000 0.0445156423 800.1506585069 0.0000000000 1711.7026438655 0.7351036726 0.6388592052 21.0933411705 21.0933411705 21.0933411705 0.0055706230 114548.7769883452 0.0055655699 129205.2564888083 62386.6817196044 0.0000870312 0.1434678728 0.1436903997 0.0000000000 1695.8995868377 0.0000000000 0.0009497123 13.3807294721 0.0000000000 21.0393449850 5900.1815500000
 5914.3934500000 2854.6613549305 5005.0556093792 4250.3199745151 0.2620064754 7308418.1390814409 0.2493012149 6635726.4599612439 2648110.7947836886 0.0004630153 3878.2383866400 4457.3493723262 6097.9489351422 2483.9393980816 0.9000000000 0.0406889769 610.3015300588 0.0000000000 1792.2885500784 0.7536443779 0.6557288451 20.7263488190 20.7263488190 20.7263488190 0.0054733939 112556.2345247762 0.0054733939 121585.0514597165 60554.2010480782 0.0000642044 0.1485452935 0.1486992518 0.0000000000 1846.6958968684 0.0000000000 0.0009337087 13.0760063504 0.0000000000 20.6725863804 5914.3934500000
 5928.6053000000 2844.5056052397 3467.4300487198 4218.9051701772 0.2607842865 7175250.3344848715 0.2568420947 6674941.6918170210 2651534.8314450886 0.0004560472 3888.2818434150 4457.3919133272 6114.0239365449 2489.9100310710 0.9000000000 0.0386574967 505.9506521003 0.0000000000 1811.7281201787 0.7518449429 0.6558510217 21.0932942448 21.0932942448 21.0932942448 0.0055702791 114548.6867252688 0.0055702791 133196.4899104770 63509.6018481347 0.0000660123 0.1523062805 0.1524618014 0.0000000000 1895.4722651349 0.0000000000 0.0009500799 13.3357932178 0.0000000000 21.0390303965 5928.6053000000
 5942.8171500000 2788.1764456361 3205.3331964158 3894.1521850404 0.2485903350 7216331.3950610347 0.2447568716 6505849.7231914122 2607859.0294490289 0.0004676354 3840.6869790607 4418.6452727321 6130.0816746667 2495.8778456562 0.9000000000 0.0411807710 630.0433232861 0.0000000000 1758.5886274058 0.7435270447 0.6462737927 20.7262760435 20.7262760435 20.7262760435 0.0054734448 112556.0945412948 0.0054688380 135951.9858385837 65687.6938362523 0.0000655424 0.1509430459 0.1510945592 0.0000000000 1879.7888143588 0.0000000000 0.0009335487 13.1211194403 0.0000000000 20.6720984207 5942.8171500000
 5957.0290500000 2774.4738507640 2974.7540159253 3521.5446975396 0.2546127475 7602551.8076300398 0.2519681479 6825599.9699929124 2722090.3688202864 0.0004559931 3924.9902717550 4530.9582744614 6146.1399167508 2501.8473266275 0.9000000000 0.0370227762 502.6893317717 0.0000000000 1794.4627351600 0.7606070470 0.6588838562 21.0933724249 21.0933724249 21.0933724249 0.0055702946 114548.8371047262 0.0055702946 129353.9075181579 61753.3644991657 0.0000868319 0.1431480415 0.1433710742 0.0000000000 1692.0586703888 0.0000000000 0.0009500653 13.3682184946 0.0000000000 21.0395545881 5957.0290500000
 5971.2409500000 2805.7992959874 4621.3649384053 3611.3871885590 0.2589572754 7401897.0181617634 0.2509697826 6572555.6335782148 2620328.7505904892 0.0004605113 3951.9870854057 4539.9257837688 6162.2335427432 2507.8163346091 0.9000000000 0.0380376817 525.6452448336 0.0000000000 1797.5739964914 0.7602985413 0.6618368139 21.0932964968 21.0932964968 21.0932964968 0.0055703570 114548.6910594554 0.0055714081 121604.9767324173 60448.0141591551 0.0000651710 0.1508918103 0.1510487857 0.0000000000 1875.4159599481 0.0000000000 0.0009501365 13.3442284718 0.0000000000 21.0390454219 5971.2409500000
 5985.4528500000 2800.2643265278 4350.7300712979 4070.6247183770 0.2533200686 7157423.5377365611 0.2397259320 6111035.4733661162 2454349.7455168674 0.0004713407 3928.6759650843 4499.7530360808 6178.2875490666 2513.7846438996 0.9000000000 0.0402571263 636.1650624387 0.0000000000 1768.6835403418 0.7517815525 0.6563707147 20.7264022097 20.7264022097 20.7264022097 0.0054734943 112556.3372215720 0.0054749635 129309.9404918670 62877.7543911294 0.0000648947 0.1497868397 0.1499395210 0.0000000000 1863.8390227417 0.0000000000 0.0009335334 13.1233918977 0.0000000000 20.6729443638 5985.4528500000
 5999.6647000000 2811.2993631167 4561.1187477610 3757.9327674946 0.2585779975 8104914.1546901148 0.2528122272 7457681.6489513600 2967565.9320774395 0.0004586127 3947.4813692062 4591.4552961706 6194.3565679078 2519.7548025730 0.9000000000 0.0389182925 537.0337771859 0.0000000000 1792.1283884524 0.7652853161 0.6579503300 21.0931773122 21.0931773122 21.0931773122 0.0055702431 114548.4618063160 0.0055702431 126677.8806016957 65968.0994486034 0.0000660231 0.1525469673 0.1527022431 0.0000000000 1897.3010334190 0.0000000000 0.0009504765 13.3017205046 0.0000000000 21.0382463463 5999.6647000000
 6013.8765500000 2822.5468149035 4557.2823288268 6158.1827954210 0.2636311217 7925034.5774858035 0.2420369643 6778618.1980697485 2716603.2386165373 0.0004638347 4010.6180521337 4637.7816635208 6210.5369346975 2525.7224721367 0.9000000000 0.0387610431 619.0516696172 0.0000000000 1790.6252531833 0.7711800575 0.6668939774 20.7267249468 20.7267249468 20.7267249468 0.0054743867 112556.9580086671 0.0054206719 114734.3261331039 55220.3225516513 0.0000821054 0.1363434533 0.1365695056 0.0000000000 1607.0663190132 0.0000000000 0.0009326791 13.2140568753 0.0000000000 20.6751082177 6013.8765500000
 6028.0884500000 2796.4238481451 4645.2563514541 4191.4883347721 0.2348148831 7215217.3369378587 0.2211913576 5931064.0289285490 2420405.9164382340 0.0004958124 3846.1693414534 4430.4850502902 6226.3077762418 2531.6927173155 0.9000000000 0.0480268210 918.0414027371 0.0000000000 1688.8838048221 0.7349734641 0.6380412918 21.0932073885 21.0932073885 21.0932073885 0.0055702671 114548.5196602335 0.0055702671 124179.4442239713 64926.3874574398 0.0000657905 0.1521302170 0.1522859174 0.0000000000 1891.5711184343 0.0000000000 0.0009503951 13.3061060973 0.0000000000 21.0384479414 6028.0884500000
 6042.3003000000 2904.9833164925 4040.2099234408 4602.6818641634 0.3006816995 9243416.7939327545 0.2998409788 9221605.2249668296 3546149.2447146969 0.0004226299 4290.7276787081 5001.3870811943 6242.4297308302 2537.6609404820 0.9000000000 0.0284672672 242.8181901889 0.0000000000 1936.7244780041 0.8277289828 0.7101149340 21.0931768926 21.0931768926 21.0931768926 0.0055703582 114548.4610000166 0.0055727418 129142.3585865164 65740.1169987043 0.0000661385 0.1527233649 0.1528784587 0.0000000000 1899.9748485107 0.0000000000 0.0009502467 13.3315277847 0.0000000000 21.0382435082 6042.3003000000
