~Version ---------------------------------------------------
VERS.   2.0 : CWLS log ASCII Standard -VERSION 2.0
WRAP.    NO : One line per depth step
DLM . SPACE : Column Data Section Delimiter
~Well ------------------------------------------------------
STRT.ft               6011.19455 : START DEPTH
STOP.ft                8162.3221 : STOP DEPTH
STEP.ft       14.389100000000326 : STEP
NULL.                   -9999.25 : NULL VALUE
COMP.                            : COMPANY
WELL.                     bypass : WELL
FLD .                            : FIELD
LOC .                            : LOCATION
PROV.                            : PROVINCE
CNTY.                            : COUNTY
STAT.                            : STATE
CTRY.                            : COUNTRY
SRVC.                            : SERVICE COMPANY
DATE. 2019-07-30 20:43:20.875901 : DATE
UWI .                            : UNIQUE WELL ID
API .                            : API NUMBER
~Curve Information -----------------------------------------
Depth              .ft          : 
KICh               .psi*in^1/2  : 
KICvup             .psi*in^1/2  : 
KICvdown           .psi*in^1/2  : 
nuh                .            : 
Eh                 .psi         : 
nuv                .            : 
Ev                 .psi         : 
Gv                 .psi         : 
Cl                 .ft/min^1/2  : 
Sigma_h            .psi         : 
SigmaH             .psi         : 
SigmaV             .psi         : 
Pore Pressure      .psi         : 
Biot               .            : 
Porosity           .            : 
Permeability       .nD          : 
SoPhi              .            : 
TensileStrength    .psi         : 
Grad_SigmaH        .psi/ft      : 
Grad_Sigma_h       .psi/ft      : 
Std_KICh           .psi*in^1/2  : 
Std_KICvup         .psi*in^1/2  : 
Std_KICvdown       .psi*in^1/2  : 
Std_nuh            .            : 
Std_Eh             .psi         : 
Std_nuv            .            : 
Std_Ev             .psi         : 
Std_Gv             .psi         : 
Std_Cl             .ft/min^1/2  : 
Std_Sigma_h        .psi         : 
Std_SigmaH         .psi         : 
Std_SigmaV         .psi         : 
Std_Pore Pressure  .psi         : 
Std_Biot           .            : 
Std_Porosity       .            : 
Std_Permeability   .nD          : 
Std_SoPhi          .            : 
Std_TensileStrength.psi         : 
Std_Depth          .ft          : 
~Params ----------------------------------------------------
~Other -----------------------------------------------------
Exported from homogenization method
~ASCII -----------------------------------------------------
# ...
 6835.1194000000 2736.4704372076 4317.1162621142 4884.2459416818 0.2382142354 6935652.8145910921 0.2166273331 5363259.0446314057 2189651.4984271801 0.0008783841 4555.0285445630 5115.1620510423 7256.5111068865 3007.3432918304 0.9000000000 0.0443203514 875.0682795774 0.0000000000 1679.7627407893 0.7483646959 0.6664153584 19.0585061763 19.0585061763 19.0585061763 0.0050552352 103791.2485325365 0.0047383717 82891.5607597518 40613.1049497308 0.0000764441 0.1157518306 0.1159640509 0.0000000000 1409.8005227070 0.0000000000 0.0008604458 12.2845788808 0.0000000000 18.5231872708 6835.1194000000
 6852.3712000000 2751.5709661072 6760.8336129883 4927.2100485438 0.2576008503 7487298.8570050122 0.2058492389 5490916.9549816241 2257886.5667973445 0.0003494666 4645.1489279853 5240.5126203184 7275.8786179030 3014.9325496470 0.9000000000 0.0408243218 874.6755793425 0.0000000000 1713.4779187429 0.7647736043 0.6778892725 18.6945399057 18.6945399057 18.6945399057 0.0049822057 102125.8950495049 0.0049091099 100351.9570289482 52547.9816170218 0.0000563318 0.1393054887 0.1394320682 0.0000000000 1787.9802743673 0.0000000000 0.0008468400 11.8857794793 0.0000000000 17.6311436226 6852.3712000000
 6869.6229500000 2810.4836515530 4612.6436816530 5124.3866217928 0.2533631929 7492768.3750772588 0.2402829143 6337016.8641876979 2551316.2160214866 0.0005327632 4664.0644647637 5261.8774863804 7295.4000536317 3022.5248766209 0.9000000000 0.0425929434 732.9925218120 0.0000000000 1729.0468297444 0.7659630703 0.6789403871 19.0046450201 19.0046450201 19.0046450201 0.0050550308 103687.9482445615 0.0048875623 99150.3022393424 47879.8150182086 0.0000807261 0.1209539422 0.1211565059 0.0000000000 1479.0987826640 0.0000000000 0.0008597088 12.0907966329 0.0000000000 18.1522672970 6869.6229500000
 6886.8747000000 2711.2503888140 4137.2672204533 4050.1015866880 0.2388828378 7002241.1520399209 0.2284107809 5400120.3558815196 2197421.8251250265 0.0004371925 4689.7261979019 5254.9322801990 7314.7709687325 3030.1140748212 0.9000000000 0.0414816171 786.5171873573 0.0000000000 1684.5320164746 0.7630358485 0.6809658085 18.7662978353 18.7662978353 18.7662978353 0.0049821839 102263.2348812922 0.0048656286 89802.5502284982 43940.3714199480 0.0000777127 0.1172054141 0.1174088459 0.0000000000 1429.5239512847 0.0000000000 0.0008481537 11.9925792904 0.0000000000 18.1352941909 6886.8747000000
 6904.1265000000 2720.1801196709 4287.9671847768 5217.9051911586 0.2420285304 7304689.7646991648 0.2289921003 5975168.4009793578 2426904.9562112824 0.0006440741 4620.8207779491 5208.9465404468 7334.3227758514 3037.7064531237 0.9000000000 0.0415650709 768.2901076537 0.0000000000 1703.4710514140 0.7544685835 0.6692839098 19.0010280454 19.0010280454 19.0010280454 0.0050550161 103681.0425545260 0.0049270943 102733.0519261026 50709.6201831234 0.0000822812 0.1229678370 0.1231670530 0.0000000000 1505.2727223840 0.0000000000 0.0008596481 12.0956450384 0.0000000000 18.1262547807 6904.1265000000
 6921.3782500000 2770.8440441924 4093.1026152390 4754.3854016393 0.2325601255 6929176.5821580403 0.2196976179 5666745.8305537729 2321007.1369677833 0.0005531807 4525.8268570325 5088.0044286354 7353.6466320747 3045.2956589785 0.9000000000 0.0491990884 1018.3226537891 0.0000000000 1645.9553423776 0.7351143435 0.6538909873 18.7499419081 18.7499419081 18.7499419081 0.0049826480 102231.8960009128 0.0047792603 96732.9993180783 47051.1611355898 0.0000794381 0.1190463264 0.1192464368 0.0000000000 1455.7241290706 0.0000000000 0.0008474480 11.9550070307 0.0000000000 18.0216271044 6921.3782500000
 6938.6300000000 2745.0071968591 4948.6600229692 5102.5356009271 0.2446959489 7112889.6863260912 0.2229860309 5608619.9373539183 2289127.5685354164 0.0009382876 4664.4768131353 5235.9328134946 7372.8868608597 3052.8879706465 0.9000000000 0.0432103746 872.3628710079 0.0000000000 1686.0948475917 0.7546061418 0.6722475205 19.0135717765 19.0135717765 19.0135717765 0.0050552932 103705.0970500632 0.0048455532 98011.1998741524 48563.3375742029 0.0000808411 0.1211291813 0.1213315361 0.0000000000 1481.3076296113 0.0000000000 0.0008596831 12.1281702247 0.0000000000 18.2127049984 6938.6300000000
 6955.8817500000 2840.9492762741 6399.2723572313 5009.2242820845 0.2541129184 7325886.5592975710 0.2271394735 6157356.1262461487 2501441.5767424530 0.0009135210 4633.8272962733 5217.9761756824 7392.1764865514 3060.4772211434 0.9000000000 0.0458819841 889.0294553520 0.0000000000 1710.6725759174 0.7501530882 0.6661739608 18.6778773344 18.6778773344 18.6778773344 0.0049822832 102094.0337559412 0.0049160144 102219.5557511733 53246.0991017087 0.0000563770 0.1393548902 0.1394813082 0.0000000000 1788.8544118889 0.0000000000 0.0008465443 11.8609878995 0.0000000000 17.5129904188 6955.8817500000
 6973.1335000000 2849.1391164208 4545.9561300038 6642.7276423795 0.2726557115 7679686.6949307378 0.2408152384 6514628.4051999925 2611690.8645922528 0.0004776514 4802.4012231379 5405.8391070564 7411.6586909899 3068.0694881694 0.9000000000 0.0386089106 649.3159587427 0.0000000000 1791.0025143004 0.7752381490 0.6887005997 18.9962535869 18.9962535869 18.9962535869 0.0050551645 103671.9859883004 0.0048494238 95828.9901563799 48685.2351627541 0.0000805512 0.1208658217 0.1210684438 0.0000000000 1477.2576489980 0.0000000000 0.0008594476 12.1186271697 0.0000000000 18.0897774247 6973.1335000000
 6990.3853000000 2832.9302267173 4098.7128736650 4637.7414582614 0.2556587856 7327909.2096042391 0.2279310222 6048884.1901714411 2450119.2114772848 0.0009158716 4698.2744714562 5281.8652760470 7431.0187817273 3075.6588059217 0.9000000000 0.0440704505 808.3108198115 0.0000000000 1725.6431207401 0.7555900068 0.6721052231 18.7186462420 18.7186462420 18.7186462420 0.0049823882 102172.0108959310 0.0048443517 100165.2980775926 50135.4466662939 0.0000809659 0.1210670698 0.1212635388 0.0000000000 1481.7048498385 0.0000000000 0.0008470091 11.9214749508 0.0000000000 17.8013167956 6990.3853000000
 7007.6370500000 2889.0510470839 5365.3705057945 4771.7942205041 0.2688069453 7790999.3429646865 0.2648364782 7522677.7722973023 2971172.9798528044 0.0007720319 4754.5462643469 5368.5876180587 7450.2903079675 3083.2510270872 0.9000000000 0.0396801666 518.2129051063 0.0000000000 1819.8843623169 0.7661052620 0.6784806677 18.9473294562 18.9473294562 18.9473294562 0.0050548323 103578.3186537489 0.0050527954 106032.8208466009 55479.0006969380 0.0000574190 0.1418798763 0.1420076789 0.0000000000 1821.3648190212 0.0000000000 0.0008589501 12.0243266762 0.0000000000 17.7471342944 7007.6370500000
 7024.8888000000 2828.6035148648 4701.9621772299 5188.1651162902 0.2684048239 7581604.3712328412 0.2486948389 6568103.5736825615 2617770.8172633168 0.0008548131 4840.5890321546 5438.3165264524 7469.8774576479 3090.8403680775 0.9000000000 0.0375670621 561.5150822421 0.0000000000 1794.0829185633 0.7741498380 0.6890627268 18.6990435770 18.6990435770 18.6990435770 0.0049822051 102134.5250374558 0.0049048390 99028.8228282549 50516.7713214708 0.0000561372 0.1388982456 0.1390252271 0.0000000000 1782.4910606963 0.0000000000 0.0008469114 11.9016571539 0.0000000000 17.6624362311 7024.8888000000
 7042.1406000000 2855.2206392802 25531.8214813988 25289.6130648028 0.2696001326 7552387.2991771391 0.2470252477 6640714.6326287771 2652901.1249017296 0.0007305110 4818.7126567356 5413.5761184910 7489.4337402924 3102.8443614564 0.9000000000 0.0387076767 611.2121656911 0.0000000000 1802.4100808318 0.7687401354 0.6842681694 19.0326206928 19.0326206928 19.0326206928 0.0050557746 103741.6838207477 0.0047037470 88979.7235342148 43856.3743980749 0.0000779790 0.1174689782 0.1176778135 0.0000000000 1433.6078705372 0.0000000000 0.0008597694 12.1760875876 0.0000000000 18.3420540463 7042.1406000000
 7059.3923500000 2768.6669964470 4096.2644011858 3565.8750278753 0.2207794124 6016747.6451793583 0.1916136149 4451062.0908315647 1860007.9242601441 0.0006520929 4585.9565710114 5078.8177369331 7508.5444115207 3246.9969469826 0.9000000000 0.0554603328 1330.9076347438 0.0000000000 1561.9599724923 0.7194412047 0.6496248322 18.7593989768 18.7593989768 18.7593989768 0.0049824426 102250.0055200770 0.0047356803 90984.8711992847 43606.5389036483 0.0000775119 0.1166456484 0.1168499749 0.0000000000 1424.0301205413 0.0000000000 0.0008476480 11.9873319053 0.0000000000 18.0877244539 7059.3923500000
