~Version ---------------------------------------------------
VERS.   2.0 : CWLS log ASCII Standard -VERSION 2.0
WRAP.    NO : One line per depth step
DLM . SPACE : Column Data Section Delimiter
~Well ------------------------------------------------------
STRT.ft                 5533.575 : START DEPTH
STOP.ft        7763.808250000001 : STOP DEPTH
STEP.ft       14.590000000000146 : STEP
NULL.                   -9999.25 : NULL VALUE
COMP.                            : COMPANY
WELL.                     bypass : WELL
FLD .                            : FIELD
LOC .                            : LOCATION
PROV.                            : PROVINCE
CNTY.                            : COUNTY
STAT.                            : STATE
CTRY.                            : COUNTRY
SRVC.                            : SERVICE COMPANY
DATE. 2019-07-30 20:43:20.008820 : DATE
UWI .                            : UNIQUE WELL ID
API .                            : API NUMBER
~Curve Information -----------------------------------------
Depth              .ft          : 
KICh               .psi*in^1/2  : 
KICvup             .psi*in^1/2  : 
KICvdown           .psi*in^1/2  : 
nuh                .            : 
Eh                 .psi         : 
nuv                .            : 
Ev                 .psi         : 
Gv                 .psi         : 
Cl                 .ft/min^1/2  : 
Sigma_h            .psi         : 
SigmaH             .psi         : 
SigmaV             .psi         : 
Pore Pressure      .psi         : 
Biot               .            : 
Porosity           .            : 
Permeability       .nD          : 
SoPhi              .            : 
TensileStrength    .psi         : 
Grad_SigmaH        .psi/ft      : 
Grad_Sigma_h       .psi/ft      : 
Std_KICh           .psi*in^1/2  : 
Std_KICvup         .psi*in^1/2  : 
Std_KICvdown       .psi*in^1/2  : 
Std_nuh            .            : 
Std_Eh             .psi         : 
Std_nuv            .            : 
Std_Ev             .psi         : 
Std_Gv             .psi         : 
Std_Cl             .ft/min^1/2  : 
Std_Sigma_h        .psi         : 
Std_SigmaH         .psi         : 
Std_SigmaV         .psi         : 
Std_Pore Pressure  .psi         : 
Std_Biot           .            : 
Std_Porosity       .            : 
Std_Permeability   .nD          : 
Std_SoPhi          .            : 
Std_TensileStrength.psi         : 
Std_Depth          .ft          : 
~Params ----------------------------------------------------
~Other -----------------------------------------------------
Exported from homogenization method
~ASCII -----------------------------------------------------
# ...
 6766.8812500000 2641.5302922396 3212.4112417440 3285.6169147405 0.2172946415 6259141.6743907174 0.2055603115 4657543.2334960522 1931596.8503763406 0.0002063300 4297.7464620249 4811.9310695197 7076.3386459624 2846.1770884694 0.9000000000 0.0471883759 1062.6954225505 0.0000000000 1604.3126296980 0.7111002679 0.6351148045 20.6056602731 20.6056602731 20.6056602731 0.0054734600 112324.5455309120 0.0053172834 102701.3422773173 49365.4745649789 0.0000839701 0.1341240438 0.1343741816 0.0000000000 1477.7445968460 0.0000000000 0.0009313375 13.1581186960 0.0000000000 19.8487195138 6766.8812500000
 6781.0137500000 2683.4665485895 3950.0116290845 3669.5978841619 0.2344883915 6718438.2637259802 0.2243095061 5299103.8978137178 2162747.7856784714 0.0002509268 4430.4447654586 4974.6733147111 7092.1936135733 2879.8565859727 0.9000000000 0.0421897931 811.7345568225 0.0000000000 1678.1312998599 0.7336179365 0.6533602392 20.9810694327 20.9810694327 20.9810694327 0.0055703060 114333.2193572227 0.0053494441 98937.7509407463 47751.4013207414 0.0000838218 0.1343348293 0.1345936128 0.0000000000 1478.2346158007 0.0000000000 0.0009480547 13.4248329683 0.0000000000 20.2738067358 6781.0137500000
 6795.1462500000 2642.3436040435 3595.0194576104 3995.2794809021 0.2220629805 6386643.8096860554 0.2071470113 4656287.4902026746 1927135.5199282370 0.0002777349 4418.6160771679 4941.2277519704 7108.1228950233 2928.9327381966 0.9000000000 0.0451750926 1007.2881546860 0.0000000000 1619.0658433926 0.7271701844 0.6502606294 20.9915157293 20.9915157293 20.9915157293 0.0055703402 114353.2301334980 0.0053117438 95580.1221021984 46015.1665638081 0.0000827995 0.1329723781 0.1332339307 0.0000000000 1462.1167827944 0.0000000000 0.0009481750 13.4506422094 0.0000000000 20.3465741638 6795.1462500000
 6809.2787500000 2664.7771021657 3277.7770686815 3632.7420385908 0.2247118607 6423136.6083244551 0.2114650338 4811544.6066388190 1984911.5063348731 0.0001939388 4448.7004638502 4973.1615076415 7123.9751834070 2975.2411939861 0.9000000000 0.0453364373 978.5390933709 0.0000000000 1628.7870773397 0.7303507009 0.6533291744 20.9892608363 20.9892608363 20.9892608363 0.0055705796 114348.9060071976 0.0052683290 98799.7447701757 47308.3107502302 0.0000835629 0.1338233473 0.1340832055 0.0000000000 1473.0586821652 0.0000000000 0.0009479014 13.4451468473 0.0000000000 20.3310297132 6809.2787500000
 6823.4112500000 2660.7239646418 3247.3081195733 3301.3988877660 0.2157723044 6201036.6930839960 0.2001138013 4607436.1919273697 1918625.7211743866 0.0002803960 4365.7045434702 4875.7537254476 7139.7329386167 3001.0434830768 0.9000000000 0.0498464561 1174.6903886612 0.0000000000 1584.1625303392 0.7145624889 0.6398126074 20.6323949208 20.6323949208 20.6323949208 0.0054736188 112375.7926983742 0.0051486332 94180.8469435480 45331.8232497557 0.0000813633 0.1305306950 0.1307880175 0.0000000000 1435.8886669091 0.0000000000 0.0009315938 13.2470547285 0.0000000000 20.0337469513 6823.4112500000
 6837.5437500000 2673.4507163765 3853.7619222196 3747.7143782907 0.2251335284 6537630.3233777033 0.2078362947 4905258.8065446336 2028181.3704410447 0.0002111806 4452.6773830458 4986.3033243793 7155.4697345241 3008.4097505749 0.9000000000 0.0465142397 1031.7992452897 0.0000000000 1621.2971563928 0.7292535897 0.6512100757 21.7845059738 21.7845059738 21.7845059738 0.0057808299 118671.1008493190 0.0054467502 102171.7348484596 49497.2387790398 0.0000868171 0.1390143074 0.1392837410 0.0000000000 1530.3222889827 0.0000000000 0.0009837824 13.9813770478 0.0000000000 21.1175260398 6837.5437500000
 6850.8185500000 2643.6270747813 3895.3530153209 4077.7353851490 0.2174992968 6541161.4902220285 0.1932005400 4622462.5747665605 1931902.7951429116 0.0006906321 4419.5607414109 4956.8227757483 7170.3052500193 3014.2496289794 0.9000000000 0.0484597440 1191.4435186148 0.0000000000 1581.6935660947 0.7235373028 0.6451142603 22.2078249919 22.2078249919 22.2078249919 0.0058952479 121005.7770823672 0.0055955596 107245.3276854587 52740.8952515464 0.0000897668 0.1434659187 0.1437373494 0.0000000000 1580.4625664766 0.0000000000 0.0010032159 14.2577801822 0.0000000000 21.4779553313 6850.8185500000
 6863.2356000000 2721.9626999765 3745.5754615993 4274.0319653885 0.2410275836 7244143.7898129150 0.2142157189 5522566.0055752890 2265727.5714161787 0.0007897678 4556.7604342212 5140.4818506716 7184.2113011324 3019.7138767818 0.9000000000 0.0434513530 896.2388429532 0.0000000000 1675.1722482052 0.7489881086 0.6639376381 22.2105552650 22.2105552650 22.2105552650 0.0058954062 121011.0408114248 0.0055111031 102550.6240221986 50943.7680632514 0.0000884265 0.1416380681 0.1419130220 0.0000000000 1559.0695333359 0.0000000000 0.0010031117 14.2788584982 0.0000000000 21.4957623185 6863.2356000000
 6875.6526500000 2640.8859910834 3763.7442201345 3383.0947001435 0.2119120511 6415349.3397996835 0.1907817223 4495951.7466872204 1886221.2661196103 0.0007462865 4410.9720173379 4940.3296826768 7198.0760405213 3025.1776144188 0.9000000000 0.0508429493 1295.9120629457 0.0000000000 1553.4552648880 0.7185251981 0.6415350283 22.2186383033 22.2186383033 22.2186383033 0.0058953022 121026.4545399029 0.0055476141 103358.0049219533 50449.0253075227 0.0000884281 0.1416492976 0.1419243280 0.0000000000 1559.1124458501 0.0000000000 0.0010033197 14.2635909467 0.0000000000 21.5545301018 6875.6526500000
 6888.0697000000 2654.6810811061 3377.4491406132 3743.2853576623 0.2201078780 7230017.6329177134 0.2027688211 5238352.0755760456 2175706.7657336434 0.0005185522 4504.0124798215 5096.5844780278 7211.9280396047 3030.6408729967 0.9000000000 0.0473479930 1101.5783085411 0.0000000000 1598.3611004369 0.7399147657 0.6538860197 22.6390296292 22.6390296292 22.6390296292 0.0060166398 123449.7095262327 0.0058375098 123343.4425693229 62186.7811209227 0.0000690031 0.1528763773 0.1530605464 0.0000000000 1809.4184136110 0.0000000000 0.0010235557 14.4490111758 0.0000000000 21.7372680633 6888.0697000000
 6900.4867500000 2770.5543792305 3643.4269743070 3340.4538220006 0.2408346929 8128669.4640682898 0.2341463763 7128884.1906343242 2886562.3906321488 0.0007175614 4520.5357328656 5175.6326213241 7225.8154957102 3036.1041310773 0.9000000000 0.0449809391 795.0870348358 0.0000000000 1701.9644130507 0.7500387739 0.6551038929 22.1512999240 22.1512999240 22.1512999240 0.0058950716 120897.4239264026 0.0058206693 127468.7988483187 64951.6669844457 0.0000684017 0.1512752527 0.1514536746 0.0000000000 1791.4254578964 0.0000000000 0.0010023623 14.0888572240 0.0000000000 21.0867534433 6900.4867500000
 6912.9038500000 2734.3932350642 3533.7155213916 3910.9766088769 0.2357043871 7898257.5073481426 0.2154893498 6340598.1222220371 2601413.7036856147 0.0006799703 4515.7489457589 5154.9194131915 7239.7076485802 3041.5674115534 0.9000000000 0.0460805974 941.2725494762 0.0000000000 1664.1392127688 0.7456952281 0.6532347395 22.2086969421 22.2086969421 22.2086969421 0.0058953092 121007.4216270120 0.0055538139 109706.1095797881 55091.1291806085 0.0000908934 0.1449120329 0.1451807679 0.0000000000 1597.9394884366 0.0000000000 0.0010031080 14.2540732091 0.0000000000 21.4848999287 6912.9038500000
 6925.3209000000 2701.3262052475 3071.3067738856 3124.8458997940 0.2289336098 7608743.7287602201 0.2132819997 5912781.1894235779 2433467.7468133895 0.0007780660 4531.9100876477 5151.0439178266 7253.5528857218 3047.0306692438 0.9000000000 0.0465521281 980.6385725017 0.0000000000 1637.9480714243 0.7437985896 0.6543971251 22.1973287109 22.1973287109 22.1973287109 0.0058952495 120985.6396683715 0.0056074761 110798.5864679483 56021.2708880952 0.0000913979 0.1456767747 0.1459439732 0.0000000000 1606.5008709620 0.0000000000 0.0010029946 14.2136227385 0.0000000000 21.4058551075 6925.3209000000
 6937.7379500000 2695.9799572326 4017.1367511245 4190.3914121093 0.2290689643 7487347.7054783441 0.2023291267 5522631.6974410433 2289541.7741723871 0.0007267740 4536.6091480132 5145.7977226875 7267.4244506622 3052.4948760983 0.9000000000 0.0474097217 1088.7376474805 0.0000000000 1620.9196137133 0.7417111687 0.6539032147 22.2287326010 22.2287326010 22.2287326010 0.0058957520 121045.9423175045 0.0054159910 100081.1136811390 50886.0347481693 0.0000880722 0.1411153887 0.1413915629 0.0000000000 1553.2354922091 0.0000000000 0.0010032001 14.3324572151 0.0000000000 21.6196490246 6937.7379500000
