~Version ---------------------------------------------------
VERS.   2.0 : CWLS log ASCII Standard -VERSION 2.0
WRAP.    NO : One line per depth step
DLM . SPACE : Column Data Section Delimiter
~Well ------------------------------------------------------
STRT.ft                 5553.236 : START DEPTH
STOP.ft        7956.265999999999 : STOP DEPTH
STEP.ft        14.83744999999999 : STEP
NULL.                   -9999.25 : NULL VALUE
COMP.                            : COMPANY
WELL.                     bypass : WELL
FLD .                            : FIELD
LOC .                            : LOCATION
PROV.                            : PROVINCE
CNTY.                            : COUNTY
STAT.                            : STATE
CTRY.                            : COUNTRY
SRVC.                            : SERVICE COMPANY
DATE. 2019-07-30 20:43:21.016623 : DATE
UWI .                            : UNIQUE WELL ID
API .                            : API NUMBER
~Curve Information -----------------------------------------
Depth              .ft          : 
KICh               .psi*in^1/2  : 
KICvup             .psi*in^1/2  : 
KICvdown           .psi*in^1/2  : 
nuh                .            : 
Eh                 .psi         : 
nuv                .            : 
Ev                 .psi         : 
Gv                 .psi         : 
Cl                 .ft/min^1/2  : 
Sigma_h            .psi         : 
SigmaH             .psi         : 
SigmaV             .psi         : 
Pore Pressure      .psi         : 
Biot               .            : 
Porosity           .            : 
Permeability       .nD          : 
SoPhi              .            : 
TensileStrength    .psi         : 
Grad_SigmaH        .psi/ft      : 
Grad_Sigma_h       .psi/ft      : 
Std_KICh           .psi*in^1/2  : 
Std_KICvup         .psi*in^1/2  : 
Std_KICvdown       .psi*in^1/2  : 
Std_nuh            .            : 
Std_Eh             .psi         : 
Std_nuv            .            : 
Std_Ev             .psi         : 
Std_Gv             .psi         : 
Std_Cl             .ft/min^1/2  : 
Std_Sigma_h        .psi         : 
Std_SigmaH         .psi         : 
Std_SigmaV         .psi         : 
Std_Pore Pressure  .psi         : 
Std_Biot           .            : 
Std_Porosity       .            : 
Std_Permeability   .nD          : 
Std_SoPhi          .            : 
Std_TensileStrength.psi         : 
Std_Depth          .ft          : 
~Params ----------------------------------------------------
~Other -----------------------------------------------------
Exported from homogenization method
~ASCII -----------------------------------------------------
# ...
 5746.5228500000 2854.4820593092 3945.4328613013 3234.0958500026 0.2125086076 5693252.4136247560 0.1819936507 4407671.5164438048 1855991.2294150584 0.0004993543 3419.9983872975 3889.5416448125 5927.9639759193 2413.4344383655 0.9000000000 0.0667005616 1763.5160276506 0.0000000000 1497.5081834585 0.6768513319 0.5951422237 21.3315021673 21.3315021673 21.3315021673 0.0056760619 116365.0811039981 0.0053539565 109682.8744133936 55520.4611005774 0.0000987637 0.1437073924 0.1440282221 0.0000000000 1497.7864162475 0.0000000000 0.0009637088 13.6728569450 0.0000000000 20.4029876569 5746.5228500000
 5760.2497000000 3135.3800677426 4025.3068789101 4452.3099957175 0.2067818162 5308943.0405206280 0.1532628497 4142125.9425758831 1771383.8606124129 0.0004759619 3224.3321962503 3664.2578704090 5942.3592490356 2419.1998714923 0.9000000000 0.0827556559 2068.2320299285 0.0000000000 1441.6077662833 0.6361283037 0.5597556294 21.3361261550 21.3361261550 21.3361261550 0.0056795438 116374.0630283929 0.0051510606 110658.5507425957 55973.8420937118 0.0000988200 0.1433768179 0.1436983487 0.0000000000 1495.9732425711 0.0000000000 0.0009633908 13.6905316878 0.0000000000 20.4308646714 5760.2497000000
 5773.9765500000 2963.5711930448 3736.3872311924 3816.0710816548 0.2586008406 7565712.8976763589 0.2581447466 7553007.8802965004 2999082.0550128571 0.0004322959 3708.5438247957 4309.6647404684 5956.7906427213 2424.9653137999 0.9000000000 0.0485742887 734.9740927772 0.0000000000 1787.2400097200 0.7463945693 0.6422859173 20.2037818731 20.2037818731 20.2037818731 0.0053821406 110330.2840396251 0.0052459191 112476.7158490107 54800.4120703357 0.0000630343 0.1256156973 0.1258261138 0.0000000000 1388.0780272499 0.0000000000 0.0009143562 12.8362822139 0.0000000000 19.1256254957 5773.9765500000
 5788.9047500000 2905.9624569567 3188.7678544437 3433.5391467861 0.2257877713 5146004.5335071264 0.2104495606 4678746.7526995130 1930327.3540170579 0.0005383908 3442.1313953011 3861.9434259126 5973.0799828037 2431.2344731703 0.9000000000 0.0618644266 1439.6910342618 0.0000000000 1594.5181949749 0.6671285144 0.5946084007 19.2952281865 19.2952281865 19.2952281865 0.0051323003 105256.4020905296 0.0048187867 105601.5826428460 48375.4659710014 0.0000894291 0.1295712066 0.1298623952 0.0000000000 1352.3854130440 0.0000000000 0.0008720108 12.2639795948 0.0000000000 18.4590327451 5788.9047500000
 5805.0343000000 2923.4242854101 3806.9556204225 3733.2301186497 0.2359986275 5344462.7510195328 0.2201865547 4864336.9537461884 1991862.9233138328 0.0005147096 3529.8744160015 3962.2747951185 5990.4261102889 2438.0097368193 0.9000000000 0.0585558906 1278.5287925093 0.0000000000 1626.3984262333 0.6825583778 0.6080712419 19.5906518632 19.5906518632 19.5906518632 0.0052119134 106881.2120212276 0.0048992007 107737.8791285139 49384.8785802306 0.0000910193 0.1318292668 0.1321243623 0.0000000000 1376.1291020573 0.0000000000 0.0008854811 12.4460358282 0.0000000000 18.7189995405 5805.0343000000
 5821.1638500000 2923.8641117012 3467.5966205067 3481.3115839947 0.2215904335 4715436.7160712183 0.2036201210 4243126.2742597777 1761708.8756673923 0.0002601885 3417.0272354795 3803.0352285704 6007.7852391333 2444.7841075049 0.9000000000 0.0658702951 1638.6732306320 0.0000000000 1557.8662028498 0.6533118336 0.5870006967 19.5946172200 19.5946172200 19.5946172200 0.0052127567 106888.8001145344 0.0048823941 108863.5166399175 49786.5660414153 0.0000913928 0.1322239622 0.1325182071 0.0000000000 1380.8124858235 0.0000000000 0.0008852950 12.4256691219 0.0000000000 18.7469002986 5821.1638500000
 5837.2934000000 2922.0056682027 3461.3762547918 3726.3673088094 0.2063536497 4494515.1473445250 0.1931085868 4267427.0443456573 1788027.2336391241 0.0004962584 3281.7788753392 3654.3491534359 6024.8243439514 2451.5580815395 0.9000000000 0.0722153579 1936.1515586564 0.0000000000 1524.3942660575 0.6260348595 0.5622089983 19.6058661744 19.6058661744 19.6058661744 0.0052143719 106910.3478440061 0.0048745755 106682.5747013161 49212.4262102077 0.0000907517 0.1315041981 0.1318001530 0.0000000000 1372.5024106045 0.0000000000 0.0008851106 12.3974645964 0.0000000000 18.8252758392 5837.2934000000
 5853.4229500000 2941.3759854677 4152.4515349826 3717.8883279305 0.2007665430 4197113.5827527298 0.1867059444 4033448.3362056189 1698826.1888664602 0.0002479234 3231.1147858641 3580.6509723322 6041.5740440412 2458.3320557984 0.9000000000 0.0761651120 2122.1026198425 0.0000000000 1498.6082407395 0.6117191604 0.5520043252 19.2874543436 19.2874543436 19.2874543436 0.0051332689 105241.5169275542 0.0048987377 110163.6606067674 50741.3296449532 0.0000914930 0.1321768591 0.1324621920 0.0000000000 1381.0622620683 0.0000000000 0.0008716923 12.2184880450 0.0000000000 18.4046607280 5853.4229500000
 5869.5525000000 2934.3897383059 4413.6135862923 4494.4746867045 0.2246671533 4840336.1227435134 0.2027015029 4313238.6906954879 1790185.0897198049 0.0004970069 3459.7000971687 3854.9369670185 6058.6153562179 2465.1075563560 0.9000000000 0.0649297909 1604.1873602685 0.0000000000 1566.1017408325 0.6567684618 0.5894316640 19.6064888954 19.6064888954 19.6064888954 0.0052131483 106911.5432214547 0.0047987083 103769.8379092974 47474.6128970427 0.0000892836 0.1295908289 0.1298911871 0.0000000000 1351.7053838352 0.0000000000 0.0008853495 12.4227817726 0.0000000000 18.8295247972 5869.5525000000
 5885.6820500000 2928.1149321434 3860.8523235783 3452.6296122708 0.2101282953 4409172.1494586011 0.1959599859 4137835.8669211739 1729594.5343539340 0.0002540199 3339.6633078056 3704.0190679682 6075.6232249999 2471.8816901330 0.9000000000 0.0709483977 1877.6375179781 0.0000000000 1530.8500161832 0.6293270748 0.5674216309 19.5956940172 19.5956940172 19.5956940172 0.0052126188 106890.8627219976 0.0049137186 108281.4242324405 49767.4305827027 0.0000913433 0.1322558234 0.1325500157 0.0000000000 1380.7486362901 0.0000000000 0.0008853362 12.4294825915 0.0000000000 18.7544036410 5885.6820500000
 5901.8116000000 2885.4100654186 3630.6179473812 3863.8907702258 0.2127955391 4935567.5809384435 0.1946756569 4328171.7581093246 1810571.8819084109 0.0004613296 3429.8554329668 3836.8133596485 6092.6943817828 2478.6556641206 0.9000000000 0.0675901313 1730.4683897508 0.0000000000 1528.7869624496 0.6501077330 0.5811529858 19.6367069058 19.6367069058 19.6367069058 0.0052138583 106969.4739229726 0.0046377625 97282.5587074879 45483.4102722004 0.0000871024 0.1268370630 0.1271443215 0.0000000000 1321.4689061003 0.0000000000 0.0008856257 12.4391323657 0.0000000000 19.0384494927 5901.8116000000
 5917.9411500000 2883.3459463720 3800.6559441483 3903.4525398870 0.2049879216 5233243.1195351295 0.1753631772 4209410.1293157451 1785520.0489864468 0.0002700940 3410.8712589750 3845.1696470174 6109.7235183016 2485.4297152423 0.9000000000 0.0728921633 1959.5653730142 0.0000000000 1452.4621551009 0.6497478683 0.5763611318 19.2984020149 19.2984020149 19.2984020149 0.0051334811 105262.5241293965 0.0048127344 104242.2648817127 50432.7695873540 0.0000901989 0.1307296099 0.1310182327 0.0000000000 1364.4130656247 0.0000000000 0.0008718175 12.2320672392 0.0000000000 18.4796597396 5917.9411500000
 5934.0707000000 2902.3524410971 4157.0457511243 3501.2255375945 0.2338159921 6035805.9189683087 0.2260194790 5693897.3855758477 2318526.2405581046 0.0005163184 3606.7987843472 4095.9970081969 6126.8468450919 2492.2052990775 0.9000000000 0.0566703438 1169.6896489674 0.0000000000 1657.3911960755 0.6902507933 0.6078118996 19.5879102238 19.5879102238 19.5879102238 0.0052117881 106875.9603419243 0.0049977519 110298.3203685895 50955.1231878641 0.0000924121 0.1337065620 0.1339974910 0.0000000000 1396.2697770430 0.0000000000 0.0008854872 12.4480448022 0.0000000000 18.6998980455 5934.0707000000
 5950.2002500000 2931.4090791531 4281.8029775777 3920.5558321754 0.2171387432 4648924.7991730124 0.2012304249 4291671.5587624833 1785187.0160437319 0.0004895415 3439.5656139579 3821.5208203887 6144.2167369749 2498.9792727611 0.9000000000 0.0678862744 1730.1730513997 0.0000000000 1551.3724187785 0.6422507915 0.5780587996 19.5858051609 19.5858051609 19.5858051609 0.0052121887 106871.9398960869 0.0049529335 109940.1365983187 50618.1909357598 0.0000920806 0.1332020138 0.1334940037 0.0000000000 1391.0915488931 0.0000000000 0.0008853693 12.4251579342 0.0000000000 18.6848091891 5950.2002500000
