~Version ---------------------------------------------------
VERS.   2.0 : CWLS log ASCII Standard -VERSION 2.0
WRAP.    NO : One line per depth step
DLM . SPACE : Column Data Section Delimiter
~Well ------------------------------------------------------
STRT.ft               6185.69585 : START DEPTH
STOP.ft        7989.874549999998 : STOP DEPTH
STEP.ft       13.981649999999718 : STEP
NULL.                   -9999.25 : NULL VALUE
COMP.                            : COMPANY
WELL.                     bypass : WELL
FLD .                            : FIELD
LOC .                            : LOCATION
PROV.                            : PROVINCE
CNTY.                            : COUNTY
STAT.                            : STATE
CTRY.                            : COUNTRY
SRVC.                            : SERVICE COMPANY
DATE. 2019-07-30 20:43:31.349442 : DATE
UWI .                            : UNIQUE WELL ID
API .                            : API NUMBER
~Curve Information -----------------------------------------
Depth              .ft          : 
KICh               .psi*in^1/2  : 
KICvup             .psi*in^1/2  : 
KICvdown           .psi*in^1/2  : 
nuh                .            : 
Eh                 .psi         : 
nuv                .            : 
Ev                 .psi         : 
Gv                 .psi         : 
Cl                 .ft/min^1/2  : 
Sigma_h            .psi         : 
SigmaH             .psi         : 
SigmaV             .psi         : 
Pore Pressure      .psi         : 
Biot               .            : 
Porosity           .            : 
Permeability       .nD          : 
SoPhi              .            : 
TensileStrength    .psi         : 
Grad_SigmaH        .psi/ft      : 
Grad_Sigma_h       .psi/ft      : 
Std_KICh           .psi*in^1/2  : 
Std_KICvup         .psi*in^1/2  : 
Std_KICvdown       .psi*in^1/2  : 
Std_nuh            .            : 
Std_Eh             .psi         : 
Std_nuv            .            : 
Std_Ev             .psi         : 
Std_Gv             .psi         : 
Std_Cl             .ft/min^1/2  : 
Std_Sigma_h        .psi         : 
Std_SigmaH         .psi         : 
Std_SigmaV         .psi         : 
Std_Pore Pressure  .psi         : 
Std_Biot           .            : 
Std_Porosity       .            : 
Std_Permeability   .nD          : 
Std_SoPhi          .            : 
Std_TensileStrength.psi         : 
Std_Depth          .ft          : 
~Params ----------------------------------------------------
~Other -----------------------------------------------------
Exported from homogenization method
~ASCII -----------------------------------------------------
# ...
 7216.7689500000 2878.3168534301 4053.2565692473 4297.1704314261 0.2963441940 9004852.3049272299 0.2954262758 8990305.5527131874 3469761.3179833861 0.0000743667 5527.1455877623 6221.7799562124 7525.3434446514 3969.0852659636 0.9000000000 0.0277666648 231.1273628686 0.0000000000 1951.0005733559 0.8621281905 0.7658753697 19.2141726555 19.2141726555 19.2141726555 0.0051308466 105101.4079843673 0.0051308466 105101.4079843673 57829.0372165851 0.0000546312 0.1454509140 0.1455814049 0.0000000000 1734.5814906977 0.0000000000 0.0008716420 12.1941717644 0.0000000000 17.8844609712 7216.7689500000
 7233.2486500000 2847.0863783123 3953.8852620472 4368.2376539222 0.2880858674 8688814.7398003228 0.2868311818 8669705.2413552850 3368553.2798973192 0.0001378030 5453.9101887992 6128.4626359285 7544.3504351233 3978.1492791131 0.9000000000 0.0291811013 270.8522729073 0.0000000000 1919.3285656023 0.8472628182 0.7540056277 19.2253091619 19.2253091619 19.2253091619 0.0051308418 105122.6737478687 0.0051308418 105122.6737478687 57269.4154128749 0.0000546007 0.1453766594 0.1455072968 0.0000000000 1733.6805140563 0.0000000000 0.0008718648 12.1962909548 0.0000000000 17.9645119312 7233.2486500000
 7249.7283500000 2820.6149407408 3884.7394582047 3928.0811694963 0.2843018332 8544261.8240080327 0.2826836396 8404382.4970903657 3274364.6168852630 0.0003588498 5448.8969824339 6114.1815442732 7563.3098196310 3987.2132472072 0.9000000000 0.0290996545 281.1145997051 0.0000000000 1903.6421024649 0.8433669855 0.7516001593 19.2273863482 19.2273863482 19.2273863482 0.0051308370 105126.6460751475 0.0051308370 105939.8794477937 56870.4179347548 0.0000545909 0.1453322982 0.1454629904 0.0000000000 1733.2485062333 0.0000000000 0.0008718948 12.1979575321 0.0000000000 17.9792235555 7249.7283500000
 7266.2080500000 2826.9712690431 3591.0747463444 3909.3227251949 0.2833270985 8415155.0518814959 0.2831025485 8411623.9408291951 3277771.4366930737 0.0001527538 5430.9753196729 6086.7048730828 7582.2806147749 3996.2770684539 0.9000000000 0.0296452651 280.5291275627 0.0000000000 1902.5392636130 0.8376728042 0.7474290968 19.2342725031 19.2342725031 19.2342725031 0.0051308375 105139.7964674244 0.0051308375 107412.5634326058 57309.6727194120 0.0000546850 0.1455263121 0.1456568795 0.0000000000 1735.8014245253 0.0000000000 0.0008720394 12.1988572282 0.0000000000 18.0286815618 7266.2080500000
 7282.6877500000 2753.6577810239 3078.8831159764 3391.8529810108 0.2677346611 8005019.7486545797 0.2664185950 7589977.4421084290 2994626.9954424761 0.0001561191 5369.2104279927 6000.6532680509 7601.2503719754 4005.3408897007 0.9000000000 0.0318574956 377.0631912758 0.0000000000 1836.0401074528 0.8239613552 0.7372567124 19.2516302985 19.2516302985 19.2516302985 0.0051308321 105172.9928031031 0.0051308321 108781.4708227001 56372.9987686800 0.0000546865 0.1455003380 0.1456310534 0.0000000000 1735.6690157840 0.0000000000 0.0008723335 12.2124979167 0.0000000000 18.1515307507 7282.6877500000
 7299.1674500000 2780.3336751932 3747.2577510456 3503.5486937990 0.2732346045 8077470.1506913723 0.2720371427 7827667.7749551265 3075746.5984846563 0.0001388474 5399.2937704810 6033.6992541459 7620.1734255175 4014.4047109474 0.9000000000 0.0311663184 342.7676221709 0.0000000000 1859.7211893330 0.8266284197 0.7397136464 19.2498700528 19.2498700528 19.2498700528 0.0051308429 105169.6173894879 0.0051308429 111350.3394204760 57606.7034577411 0.0000548619 0.1458618523 0.1459922311 0.0000000000 1740.4125130170 0.0000000000 0.0008723437 12.2073716432 0.0000000000 18.1394071861 7299.1674500000
 7315.6471500000 2790.1631970304 3425.4139143013 3355.2109746330 0.2796294857 8365147.8475997411 0.2792192958 8290155.6462988677 3240003.0015533492 0.0003177665 5446.3828359033 6100.0992390532 7639.1613440097 4023.4685321942 0.9000000000 0.0290124634 285.2399149223 0.0000000000 1891.6865183291 0.8338427365 0.7444840797 19.2262091794 19.2262091794 19.2262091794 0.0051308397 105124.3892788519 0.0051308397 105124.3892788518 56924.5709492631 0.0000545691 0.1452986237 0.1454293377 0.0000000000 1732.7319477818 0.0000000000 0.0008718803 12.1959843339 0.0000000000 17.9711000667 7315.6471500000
 7332.1268500000 2820.1931845343 3765.1792601019 4165.4441049196 0.2786420785 8283414.2489163801 0.2781400775 8275595.0172109948 3237160.4467607308 0.0001409095 5434.4019435380 6082.2309480658 7658.1141321730 4032.5323534409 0.9000000000 0.0310111856 308.8071995067 0.0000000000 1888.9241662817 0.8295316042 0.7411767492 19.2313160143 19.2313160143 19.2313160143 0.0051308276 105134.1452011081 0.0051308276 105134.1452011081 56443.3437234749 0.0000545380 0.1452234512 0.1453542697 0.0000000000 1731.8191805944 0.0000000000 0.0008719194 12.1995962206 0.0000000000 18.0076479959 7332.1268500000
 7348.6065500000 2816.3568246666 3057.4544949103 3236.6973218366 0.2758917556 8157103.5567244310 0.2757794905 8155209.6338728350 3196077.0682493513 0.0001432499 5419.8625224710 6059.1881957373 7677.0022692530 4041.5961746876 0.9000000000 0.0318393185 323.6085608706 0.0000000000 1879.1117965874 0.8245356660 0.7375360874 19.2375469887 19.2375469887 19.2375469887 0.0051308277 105146.0532248393 0.0051308277 105762.0487664507 56513.0397397238 0.0000545767 0.1453042066 0.1454349972 0.0000000000 1732.8829048108 0.0000000000 0.0008720334 12.2026175313 0.0000000000 18.0520666042 7348.6065500000
 7365.0862500000 2807.3584564373 3316.0095353697 3414.2110693036 0.2720301904 8012321.0874935966 0.2693240882 7826410.7524076141 3079543.8516086908 0.0003676221 5415.0440587921 6044.9285652826 7695.8794114682 4050.6599959344 0.9000000000 0.0330683300 371.7322578866 0.0000000000 1856.6711217672 0.8207546199 0.7352315879 19.2716766304 19.2716766304 19.2716766304 0.0051309713 105211.4731231078 0.0050097204 100673.1110598870 52698.3935031795 0.0000543457 0.1448110798 0.1449425582 0.0000000000 1726.8794638135 0.0000000000 0.0008725085 12.3353734442 0.0000000000 18.2884445813 7365.0862500000
 7381.5659500000 2740.6587799328 6329.4034966381 5081.2189350370 0.2731724012 8098920.8233138947 0.2423957967 6985931.1782389572 2802278.5811904646 0.0001550380 5463.0139140009 6099.1352134981 7714.6788607077 4059.7238171811 0.9000000000 0.0318084667 549.1391036821 0.0000000000 1823.4986311703 0.8262657619 0.7400887496 19.2573274383 19.2573274383 19.2573274383 0.0051309400 105184.0252589073 0.0050243045 100000.4083653408 52642.4113986787 0.0000542504 0.1445929615 0.1447245353 0.0000000000 1724.0656783794 0.0000000000 0.0008723010 12.3047168351 0.0000000000 18.1869972435 7381.5659500000
 7398.0456500000 2663.1522730509 5051.8974916071 7329.4897310879 0.2370560774 6734826.5687404899 0.1931818196 4779001.2456570566 1992648.2889192775 0.0001542348 5283.8394548912 5828.2631630639 7733.5833061638 4068.7876384279 0.9000000000 0.0448639030 1150.7483462807 0.0000000000 1626.7261239559 0.7878111921 0.7142209855 19.3802161741 19.3802161741 19.3802161741 0.0051316369 105419.4025429142 0.0045991312 82296.0738405255 39694.1015929491 0.0001025598 0.1337718432 0.1340052593 0.0000000000 1423.1910810218 0.0000000000 0.0008736210 12.5900061155 0.0000000000 19.0442746238 7398.0456500000
 7414.5253500000 2671.2118531767 6095.2973341679 4390.2457868728 0.2335223735 6648584.5107849883 0.1991585583 4948581.5829479238 2057911.9080592804 0.0004471978 5259.2940172213 5798.2858226003 7751.9096728140 4077.8514596746 0.9000000000 0.0458427063 1095.5002847790 0.0000000000 1630.5834626536 0.7820171284 0.7093230880 19.2748537886 19.2748537886 19.2748537886 0.0051309913 105217.4336696973 0.0051024056 106071.6048033692 53127.9350202332 0.0000543914 0.1448303009 0.1449617838 0.0000000000 1727.3126576978 0.0000000000 0.0008728347 12.2371651379 0.0000000000 18.3149340096 7414.5253500000
 7431.0050000000 2738.6365863976 4489.6930642659 4974.8531328421 0.2629883126 7636551.5802008891 0.2610672194 6873977.8407776272 2725582.1132397507 0.0001657714 5504.3915558040 6109.0330638931 7770.7005297896 4086.9152534042 0.9000000000 0.0318162308 445.6003219494 0.0000000000 1811.3099495894 0.8221005186 0.7407331250 19.6059525455 19.6059525455 19.6059525455 0.0052106804 106910.7039482674 0.0049936050 101917.1915073914 50222.1962989811 0.0000731364 0.1265853379 0.1267968051 0.0000000000 1379.2731806237 0.0000000000 0.0008863980 12.6517304237 0.0000000000 18.8193510811 7431.0050000000
