~Version ---------------------------------------------------
VERS.   2.0 : CWLS log ASCII Standard -VERSION 2.0
WRAP.    NO : One line per depth step
DLM . SPACE : Column Data Section Delimiter
~Well ------------------------------------------------------
STRT.ft               5337.35725 : START DEPTH
STOP.ft        7806.412649999999 : STOP DEPTH
STEP.ft       15.433500000000095 : STEP
NULL.                   -9999.25 : NULL VALUE
COMP.                            : COMPANY
WELL.                     bypass : WELL
FLD .                            : FIELD
LOC .                            : LOCATION
PROV.                            : PROVINCE
CNTY.                            : COUNTY
STAT.                            : STATE
CTRY.                            : COUNTRY
SRVC.                            : SERVICE COMPANY
DATE. 2019-07-30 20:43:33.131485 : DATE
UWI .                            : UNIQUE WELL ID
API .                            : API NUMBER
~Curve Information -----------------------------------------
Depth              .ft          : 
KICh               .psi*in^1/2  : 
KICvup             .psi*in^1/2  : 
KICvdown           .psi*in^1/2  : 
nuh                .            : 
Eh                 .psi         : 
nuv                .            : 
Ev                 .psi         : 
Gv                 .psi         : 
Cl                 .ft/min^1/2  : 
Sigma_h            .psi         : 
SigmaH             .psi         : 
SigmaV             .psi         : 
Pore Pressure      .psi         : 
Biot               .            : 
Porosity           .            : 
Permeability       .nD          : 
SoPhi              .            : 
TensileStrength    .psi         : 
Grad_SigmaH        .psi/ft      : 
Grad_Sigma_h       .psi/ft      : 
Std_KICh           .psi*in^1/2  : 
Std_KICvup         .psi*in^1/2  : 
Std_KICvdown       .psi*in^1/2  : 
Std_nuh            .            : 
Std_Eh             .psi         : 
Std_nuv            .            : 
Std_Ev             .psi         : 
Std_Gv             .psi         : 
Std_Cl             .ft/min^1/2  : 
Std_Sigma_h        .psi         : 
Std_SigmaH         .psi         : 
Std_SigmaV         .psi         : 
Std_Pore Pressure  .psi         : 
Std_Biot           .            : 
Std_Porosity       .            : 
Std_Permeability   .nD          : 
Std_SoPhi          .            : 
Std_TensileStrength.psi         : 
Std_Depth          .ft          : 
~Params ----------------------------------------------------
~Other -----------------------------------------------------
Exported from homogenization method
~ASCII -----------------------------------------------------
# ...
 6773.7844000000 2793.0279337668 5750.9443981026 4188.3133378117 0.2585180799 7415454.0261974689 0.2400193407 6259768.3178601889 2520417.4066333049 0.0006972573 4511.1430026680 5100.3640988525 7090.8999025718 2859.5600108233 0.9000000000 0.0404591180 703.1085509085 0.0000000000 1742.3680153995 0.7529563679 0.6659708571 20.5384814126 20.5384814126 20.5384814126 0.0054733179 112195.9437709052 0.0054712665 124035.8785146016 61980.6363507575 0.0000650395 0.1397640411 0.1399485857 0.0000000000 1669.7794557548 0.0000000000 0.0009303600 13.0387356012 0.0000000000 19.3777257275 6773.7844000000
 6788.2708500000 2845.4617472130 3523.2438053866 4339.0264420077 0.2588109028 7834927.8217274109 0.2578493037 7580270.6732582496 3012856.9568772363 0.0006234428 4446.8875319719 5069.2945832653 7107.2842579853 2904.2750365494 0.9000000000 0.0414087974 587.6421727674 0.0000000000 1780.5737776427 0.7467725869 0.6550839868 20.5315742401 20.5315742401 20.5315742401 0.0054733013 112182.7392327453 0.0054690978 122978.3864614913 62344.6577865753 0.0000650209 0.1397651195 0.1399496025 0.0000000000 1669.5865852311 0.0000000000 0.0009303009 13.0311872480 0.0000000000 19.3286462704 6788.2708500000
 6802.7573500000 2874.3108111186 5399.7176787412 5621.7962288149 0.2963551007 8464210.5328638963 0.2918528855 8194653.5848682113 3170508.5684539806 0.0005803707 4847.0131133465 5499.9368784486 7123.7345857851 2955.3724463692 0.9000000000 0.0284923034 290.9104622285 0.0000000000 1909.8058575208 0.8084864115 0.7125071297 20.5023885705 20.5023885705 20.5023885705 0.0054732922 112126.9713465330 0.0054732922 114951.2073599016 60678.4536772910 0.0000642538 0.1385375738 0.1387234316 0.0000000000 1652.9583067500 0.0000000000 0.0009299575 13.0099477937 0.0000000000 19.1202397362 6802.7573500000
 6817.2438500000 2804.8926982876 5271.6023106599 6242.8245057915 0.2731912650 7933417.5888493573 0.2574019354 7123486.0838017827 2829892.1453513256 0.0005618844 4682.0012416788 5305.1140297303 7140.4370574071 2993.2554436998 0.9000000000 0.0349443118 532.9333226213 0.0000000000 1810.8061432220 0.7781904456 0.6867879960 20.5509955407 20.5509955407 20.5509955407 0.0054734254 112219.9673643928 0.0053899066 110924.3766544137 56024.8647729724 0.0000634704 0.1370528675 0.1372411672 0.0000000000 1634.5541779314 0.0000000000 0.0009305555 13.0855172902 0.0000000000 19.4630081036 6817.2438500000
 6831.7303000000 2825.6273950029 5851.3972596778 5716.3968647735 0.2833626039 7842489.7446831660 0.2622144823 6843300.0009349016 2706432.3639213261 0.0006197839 4813.5925557878 5424.6817148981 7156.9558866306 3005.8514271317 0.9000000000 0.0326280495 492.7221884187 0.0000000000 1833.8689501754 0.7940421353 0.7045934696 20.5889953253 20.5889953253 20.5889953253 0.0054735582 112292.7200263062 0.0052872471 105144.1003635583 52121.7238788298 0.0000627435 0.1357232818 0.1359137637 0.0000000000 1617.8539301399 0.0000000000 0.0009310526 13.1615975965 0.0000000000 19.7291609739 6831.7303000000
 6846.2167500000 2726.8737586082 5731.3767843058 4574.6690838876 0.2407908606 7084336.3805652475 0.2230750600 6009049.9705422074 2454425.7487121765 0.0006483008 4437.9299502487 5008.8832515466 7173.3281668275 3012.2254588755 0.9000000000 0.0439643312 861.0565497342 0.0000000000 1696.0259856591 0.7316279099 0.6482310029 20.5544649918 20.5544649918 20.5544649918 0.0054733435 112226.5365704872 0.0054431205 114041.0348917810 55781.4626214626 0.0000635845 0.1372129405 0.1374010537 0.0000000000 1636.7783899984 0.0000000000 0.0009306959 13.0581769695 0.0000000000 19.4899558106 6846.2167500000
 6860.8331000000 2670.4291235458 22230.3672715509 23532.1798423126 0.2372476045 6661123.1730506774 0.2167920997 4966942.2625960028 2039040.3155517261 0.0009269958 4589.1544612353 5127.5368471575 7189.8893011205 3018.6571933108 0.9000000000 0.0414802659 879.5306720784 0.0000000000 1669.7986885135 0.7473635887 0.6688917212 20.3034707886 20.3034707886 20.3034707886 0.0053815651 110521.2533328098 0.0050545925 88228.5088549596 42895.7404711965 0.0000841419 0.1294413636 0.1297192461 0.0000000000 1386.0123186091 0.0000000000 0.0009163101 13.0956995206 0.0000000000 19.8199119943 6860.8331000000
 6875.5793000000 2589.9619913355 4133.8796420786 4887.0412295472 0.2058033192 6459789.5033431565 0.1935517316 4757614.8103043297 1991930.2344032282 0.0006117698 4345.0805464145 4880.8055191849 7206.4182789965 3025.1443094492 0.9000000000 0.0493327252 1224.2582882114 0.0000000000 1566.2455359114 0.7098755328 0.6319584659 20.6184488337 20.6184488337 20.6184488337 0.0054736489 112349.0748177507 0.0053106595 104381.0509387255 50942.1223087253 0.0000909007 0.1384689390 0.1387372987 0.0000000000 1488.1011113090 0.0000000000 0.0009314436 13.2026305124 0.0000000000 19.9367168059 6875.5793000000
 6890.3255000000 2631.9843319188 4525.4010643159 6594.9585188600 0.2143732964 6159794.2296129409 0.1762726410 4265990.9898700248 1810624.9087282703 0.0007590360 4322.8809370069 4830.1215233859 7222.8083108291 3031.6337917565 0.9000000000 0.0519282174 1280.1471028221 0.0000000000 1546.7467779569 0.7010004859 0.6273841398 20.2960198430 20.2960198430 20.2960198430 0.0053828699 110507.0777850453 0.0050307336 94205.6794114327 45530.8756170850 0.0000858990 0.1314656660 0.1317391434 0.0000000000 1410.3691121432 0.0000000000 0.0009157704 12.9312644654 0.0000000000 19.7648468918 6890.3255000000
 6905.0717000000 2636.1696330430 4244.0633618091 3619.7323201715 0.2266273848 6690102.0231374865 0.2143183136 5078010.5449603554 2089432.5389848463 0.0006651641 4538.8400272392 5084.2462448294 7239.2479870691 3038.1210212801 0.9000000000 0.0425322646 894.7973226952 0.0000000000 1648.7077624402 0.7363060756 0.6573197534 20.6418949985 20.6418949985 20.6418949985 0.0054736961 112394.0305929689 0.0051624506 94627.9716654925 45812.9452772224 0.0000871457 0.1335712717 0.1338497438 0.0000000000 1432.1855438021 0.0000000000 0.0009317525 13.2903286156 0.0000000000 20.0985762577 6905.0717000000
 6919.8179000000 2659.8770732661 5693.3291604964 5880.0019606871 0.2215331972 6564202.7867684709 0.2066105733 5050051.1511800578 2091965.7436437889 0.0008705646 4450.9362786789 4988.3103591957 7255.7679249045 3044.6103902022 0.9000000000 0.0472783228 1059.1152652755 0.0000000000 1617.1587912439 0.7208730679 0.6432158104 20.2356192619 20.2356192619 20.2356192619 0.0053814082 110391.1891259885 0.0053052449 108553.2547766736 52178.5924491638 0.0000620227 0.1340159181 0.1342023352 0.0000000000 1597.9777918002 0.0000000000 0.0009153379 12.8763426871 0.0000000000 19.3503449200 6919.8179000000
 6934.5640500000 2694.2663155867 4424.2450657336 5013.4775797856 0.2273596578 6593305.5978336241 0.2121744131 5220774.8011060767 2152659.5550442031 0.0006001344 4473.7205169661 5010.9147742442 7272.2771040414 3051.0977116661 0.9000000000 0.0472481048 1012.0188308968 0.0000000000 1635.8073252743 0.7225998258 0.6451336356 20.6665944905 20.6665944905 20.6665944905 0.0054746070 112441.4324811487 0.0049648430 89676.5491422559 43269.4210011217 0.0001155314 0.1468984828 0.1471626288 0.0000000000 1561.6782478402 0.0000000000 0.0009316375 13.3419851874 0.0000000000 20.2676346114 6934.5640500000
 6949.3102000000 2597.4351813855 4816.8002062641 3940.7733758073 0.1774437750 5124974.2429174604 0.1531116691 3478717.2883454398 1508582.7767044452 0.0006545914 4089.7363336148 4524.9990911125 7288.4407313212 3057.5869438906 0.9000000000 0.0667854765 2017.4894940068 0.0000000000 1377.9731796475 0.6511436331 0.5885096817 20.3440094725 20.3440094725 20.3440094725 0.0053845004 110599.0918183892 0.0046577618 85300.9421996533 41122.2528768030 0.0001114346 0.1416293009 0.1418943739 0.0000000000 1505.9467998080 0.0000000000 0.0009156020 13.0113342348 0.0000000000 20.0960996389 6949.3102000000
 6964.0564000000 2579.6571056445 3462.2593032614 3070.1060205941 0.1816262271 5520340.4529453628 0.1574737981 3744082.5779773840 1617117.5181411246 0.0008242677 4151.2800597070 4618.4616714660 7304.2104128355 3064.0744016764 0.9000000000 0.0637819388 1952.1669104841 0.0000000000 1399.9910382838 0.6631855640 0.5961008673 20.6912962296 20.6912962296 20.6912962296 0.0054752038 112488.8520738970 0.0047697827 84159.5428092382 40719.9383335499 0.0001121306 0.1429428601 0.1432145903 0.0000000000 1518.1971350547 0.0000000000 0.0009316545 13.3796167062 0.0000000000 20.4362736154 6964.0564000000
