~Version ---------------------------------------------------
VERS.   2.0 : CWLS log ASCII Standard -VERSION 2.0
WRAP.    NO : One line per depth step
DLM . SPACE : Column Data Section Delimiter
~Well ------------------------------------------------------
STRT.ft               6011.19455 : START DEPTH
STOP.ft                8162.3221 : STOP DEPTH
STEP.ft       14.389100000000326 : STEP
NULL.                   -9999.25 : NULL VALUE
COMP.                            : COMPANY
WELL.                     bypass : WELL
FLD .                            : FIELD
LOC .                            : LOCATION
PROV.                            : PROVINCE
CNTY.                            : COUNTY
STAT.                            : STATE
CTRY.                            : COUNTRY
SRVC.                            : SERVICE COMPANY
DATE. 2019-07-30 20:43:20.875901 : DATE
UWI .                            : UNIQUE WELL ID
API .                            : API NUMBER
~Curve Information -----------------------------------------
Depth              .ft          : 
KICh               .psi*in^1/2  : 
KICvup             .psi*in^1/2  : 
KICvdown           .psi*in^1/2  : 
nuh                .            : 
Eh                 .psi         : 
nuv                .            : 
Ev                 .psi         : 
Gv                 .psi         : 
Cl                 .ft/min^1/2  : 
Sigma_h            .psi         : 
SigmaH             .psi         : 
SigmaV             .psi         : 
Pore Pressure      .psi         : 
Biot               .            : 
Porosity           .            : 
Permeability       .nD          : 
SoPhi              .            : 
TensileStrength    .psi         : 
Grad_SigmaH        .psi/ft      : 
Grad_Sigma_h       .psi/ft      : 
Std_KICh           .psi*in^1/2  : 
Std_KICvup         .psi*in^1/2  : 
Std_KICvdown       .psi*in^1/2  : 
Std_nuh            .            : 
Std_Eh             .psi         : 
Std_nuv            .            : 
Std_Ev             .psi         : 
Std_Gv             .psi         : 
Std_Cl             .ft/min^1/2  : 
Std_Sigma_h        .psi         : 
Std_SigmaH         .psi         : 
Std_SigmaV         .psi         : 
Std_Pore Pressure  .psi         : 
Std_Biot           .            : 
Std_Porosity       .            : 
Std_Permeability   .nD          : 
Std_SoPhi          .            : 
Std_TensileStrength.psi         : 
Std_Depth          .ft          : 
~Params ----------------------------------------------------
~Other -----------------------------------------------------
Exported from homogenization method
~ASCII -----------------------------------------------------
# ...
 7718.5363500000 2748.6487457809 3358.3097942058 3565.6117608816 0.2366848369 6478423.0780238723 0.2269812819 4989823.9270717530 2032709.2835548609 0.0002518829 5696.1153160980 6219.9693235932 8257.9019020109 4245.0577418006 0.9000000000 0.0445802952 845.5100548486 0.0000000000 1672.0659055360 0.8058482906 0.7379786863 20.2482338715 20.2482338715 20.2482338715 0.0053814384 110415.3573285681 0.0052177852 97832.1166321327 46673.5375386187 0.0000835817 0.1259794509 0.1262000280 0.0000000000 1536.8928537668 0.0000000000 0.0009154908 12.9111595990 0.0000000000 19.4380829413 7718.5363500000
 7733.8454500000 2671.5816982712 4596.2245340691 3773.9215725372 0.2315007539 6515196.5492684199 0.2200317104 4611250.4389103511 1888448.1271273375 0.0004509004 5786.4780579339 6315.5233328708 8275.0943160007 4253.4764375437 0.9000000000 0.0412046773 834.7542622466 0.0000000000 1659.0985662283 0.8166084225 0.7482019256 19.9615102154 19.9615102154 19.9615102154 0.0052937626 108701.3968172131 0.0050340903 79527.9243531959 38347.6014405956 0.0000780199 0.1189085060 0.1191351126 0.0000000000 1444.4331731894 0.0000000000 0.0009017630 12.7948377917 0.0000000000 19.4167051109 7733.8454500000
 7749.1545500000 2583.8169398200 3515.5558049135 3832.8594537833 0.2196112730 6338830.1596786128 0.2033877438 4042656.8939659460 1679666.1329618439 0.0002822840 5803.2246727767 6322.9665200563 8292.5344928504 4261.8985624563 0.9000000000 0.0409860214 989.6906917791 0.0000000000 1603.6704352060 0.8159556606 0.7488848797 20.3286727123 20.3286727123 20.3286727123 0.0053815151 110569.6331870173 0.0048526380 76522.5240668802 36884.0262968049 0.0001086374 0.1290464161 0.1293178074 0.0000000000 1503.8972805358 0.0000000000 0.0009168145 13.2518488901 0.0000000000 19.9919525745 7749.1545500000
 7764.4636500000 2579.3380577278 2944.8821921460 2827.7844938881 0.2003843046 5856786.5062693460 0.1759105117 3626375.8393878280 1541809.3700804238 0.0003082965 5552.4751009225 6040.3843882941 8309.7394853641 4270.3172581994 0.9000000000 0.0519911373 1564.4764883043 0.0000000000 1480.9966506753 0.7779525619 0.7151137994 20.0023995719 20.0023995719 20.0023995719 0.0052943873 108779.8820751841 0.0046644191 76559.8433126836 36789.9229280190 0.0001072117 0.1269771648 0.1272441227 0.0000000000 1481.5334593310 0.0000000000 0.0009015896 13.0411483933 0.0000000000 19.6961493670 7764.4636500000
 7779.7727500000 2597.7918551297 3117.2981578471 3025.0899694412 0.2008757592 5817337.4365730397 0.1741207419 3606235.6079172632 1535287.8738807002 0.0003093586 5545.8122030135 6030.2367899830 8326.6952719699 4278.7372598650 0.9000000000 0.0536429343 1618.0991331408 0.0000000000 1470.7201037696 0.7751173439 0.7128501540 20.0038641980 20.0038641980 20.0038641980 0.0052946690 108782.7021633930 0.0046297347 77127.6486373859 36968.2843328170 0.0001073604 0.1270167170 0.1272836014 0.0000000000 1482.6241294749 0.0000000000 0.0009014514 13.0194444531 0.0000000000 19.7058754559 7779.7727500000
 7795.0818500000 2585.3335508807 3421.2042628609 3119.3571178113 0.1975543782 5789402.7428991636 0.1705130273 3648635.9944222155 1558165.4196249701 0.0004841423 5489.6929191697 5973.1283980269 8343.5861675104 4287.1580788551 0.9000000000 0.0550891944 1698.5667199806 0.0000000000 1455.1828541738 0.7662688491 0.7042508372 20.3330551530 20.3330551530 20.3330551530 0.0053818444 110578.0958089164 0.0047742310 80647.7067682730 39068.0905977548 0.0001108029 0.1308844626 0.1311520940 0.0000000000 1528.7349589018 0.0000000000 0.0009165710 13.3170562618 0.0000000000 20.0202375134 7795.0818500000
 7810.3909500000 2590.2472283062 4098.6653454922 3679.3886571963 0.2078262475 6201316.9477351950 0.1809098065 3987939.4504821734 1687516.0593753406 0.0003116359 5596.8267048771 6110.2546056692 8360.5707664953 4295.5767745981 0.9000000000 0.0502347182 1449.7964725107 0.0000000000 1512.9332180182 0.7823237844 0.7165872670 20.0080224614 20.0080224614 20.0080224614 0.0052943365 108790.6941028634 0.0046554247 76452.5723430244 36922.4080261757 0.0001073095 0.1270771829 0.1273440019 0.0000000000 1482.8022830822 0.0000000000 0.0009017230 13.0982900358 0.0000000000 19.7339594557 7810.3909500000
 7825.7000000000 2563.4958885282 4008.6082359646 3900.9573477952 0.1912299936 5595303.6775387283 0.1564635774 3233003.5606119488 1396737.3707735650 0.0005584951 5492.6121295172 5962.3202217745 8377.5489962309 4303.9980550656 0.9000000000 0.0577088940 1881.3657376437 0.0000000000 1398.8191602955 0.7618896996 0.7018684756 20.0280271309 20.0280271309 20.0280271309 0.0052956978 108829.1598994686 0.0044573537 73429.5346620632 35299.2990482447 0.0001052031 0.1246308298 0.1249030831 0.0000000000 1454.0806251423 0.0000000000 0.0009013741 13.0207112704 0.0000000000 19.8685159357 7825.7000000000
 7841.0090500000 2612.5727672501 3477.3447217533 3081.3997852302 0.1948014927 5681055.5023604454 0.1666222229 3607708.9488349920 1545712.9835473497 0.0003040216 5466.8295833318 5942.3107019230 8394.2655533776 4312.4175395680 0.9000000000 0.0589299648 1817.7172759723 0.0000000000 1430.8944937449 0.7578502542 0.6972099571 20.3372476273 20.3372476273 20.3372476273 0.0053824667 110586.1012905505 0.0046717683 79163.0980396096 37995.3007119302 0.0001094864 0.1293610076 0.1296318163 0.0000000000 1510.7832703896 0.0000000000 0.0009162267 13.2065427796 0.0000000000 20.0502622677 7841.0090500000
 7856.3181500000 2616.1426008599 3441.7853374516 3351.3344737996 0.2051929732 6139478.0984791229 0.1793221157 4066411.8231981918 1720954.5051352731 0.0002809060 5560.7426770053 6070.1613539182 8411.0534790983 4320.8367257056 0.9000000000 0.0529661566 1491.9526609844 0.0000000000 1505.1065149034 0.7726470896 0.7078051793 19.9981168329 19.9981168329 19.9981168329 0.0052942490 108771.6978273231 0.0047342309 80828.2696590875 39310.6060955286 0.0001099783 0.1297687845 0.1300299641 0.0000000000 1516.3477035280 0.0000000000 0.0009016272 13.0802397611 0.0000000000 19.6656866316 7856.3181500000
 7871.6272500000 2559.5371158465 3196.6391892834 3858.9944211313 0.1927976616 5607300.2370886207 0.1624737587 3282976.2122558556 1411033.5638223968 0.0003253115 5566.5320086131 6036.6285235198 8428.0426187217 4329.2583602237 0.9000000000 0.0552890887 1816.9968969360 0.0000000000 1424.5933048990 0.7668844486 0.7071640757 20.3848080844 20.3848080844 20.3848080844 0.0053841331 110677.5633975967 0.0043547412 67526.2144310824 32176.6516593238 0.0001029397 0.1225693247 0.1228556679 0.0000000000 1427.2459273481 0.0000000000 0.0009163724 13.2380799670 0.0000000000 20.3698104523 7871.6272500000
 7886.9363500000 2589.9897994732 4534.8247360443 3365.4374427964 0.1905743684 5251252.7106205085 0.1503564744 2965675.3932513893 1286979.3989480475 0.0005117919 5501.3550054486 5942.4238584415 8444.6929043956 4337.6770559667 0.9000000000 0.0609306253 1960.8245790918 0.0000000000 1367.3157851944 0.7534514791 0.6975275013 19.9970948117 19.9970948117 19.9970948117 0.0052941808 108769.6958570869 0.0047214156 77353.1909608964 37175.5658565611 0.0001077421 0.1276047897 0.1278703788 0.0000000000 1488.8344370933 0.0000000000 0.0009016643 13.0207888657 0.0000000000 19.6600267298 7886.9363500000
 7902.2454500000 2593.4961697236 3675.5500834420 4774.8902011651 0.2061525965 5906391.8862812277 0.1775203303 3609466.2275987356 1531720.7146477390 0.0003060538 5703.6481240892 6193.3367342386 8461.6783809367 4346.0975480270 0.9000000000 0.0505660931 1477.0799434337 0.0000000000 1497.2482880485 0.7837439084 0.7217756219 19.4077941190 19.4077941190 19.4077941190 0.0051320391 105472.3967344816 0.0043971163 69269.6985087323 33206.8337299634 0.0001011532 0.1202323945 0.1204974740 0.0000000000 1400.9217128026 0.0000000000 0.0008739562 12.7038444298 0.0000000000 19.2308395872 7902.2454500000
 7918.6042000000 2567.8685660994 3516.2145975385 3120.7792402986 0.1896236566 5378509.7596335448 0.1561710692 3103171.5811371286 1340820.9282925699 0.0005466299 5548.5372273678 6000.6558221506 8479.7064379911 4355.0951115553 0.9000000000 0.0582794071 1957.8097190649 0.0000000000 1391.2172857150 0.7577921147 0.7006963711 18.8457816373 18.8457816373 18.8457816373 0.0049830489 102415.8143417415 0.0042852021 67329.0569283765 32332.2861389558 0.0000983598 0.1169268738 0.1171838869 0.0000000000 1362.3504882694 0.0000000000 0.0008487178 12.3904264106 0.0000000000 18.6781336109 7918.6042000000
