~Version ---------------------------------------------------
VERS.   2.0 : CWLS log ASCII Standard -VERSION 2.0
WRAP.    NO : One line per depth step
DLM . SPACE : Column Data Section Delimiter
~Well ------------------------------------------------------
STRT.ft               5683.82875 : START DEPTH
STOP.ft        7698.577649999999 : STOP DEPTH
STEP.ft       15.128450000000157 : STEP
NULL.                   -9999.25 : NULL VALUE
COMP.                            : COMPANY
WELL.                     bypass : WELL
FLD .                            : FIELD
LOC .                            : LOCATION
PROV.                            : PROVINCE
CNTY.                            : COUNTY
STAT.                            : STATE
CTRY.                            : COUNTRY
SRVC.                            : SERVICE COMPANY
DATE. 2019-07-30 20:43:20.519169 : DATE
UWI .                            : UNIQUE WELL ID
API .                            : API NUMBER
~Curve Information -----------------------------------------
Depth              .ft          : 
KICh               .psi*in^1/2  : 
KICvup             .psi*in^1/2  : 
KICvdown           .psi*in^1/2  : 
nuh                .            : 
Eh                 .psi         : 
nuv                .            : 
Ev                 .psi         : 
Gv                 .psi         : 
Cl                 .ft/min^1/2  : 
Sigma_h            .psi         : 
SigmaH             .psi         : 
SigmaV             .psi         : 
Pore Pressure      .psi         : 
Biot               .            : 
Porosity           .            : 
Permeability       .nD          : 
SoPhi              .            : 
TensileStrength    .psi         : 
Grad_SigmaH        .psi/ft      : 
Grad_Sigma_h       .psi/ft      : 
Std_KICh           .psi*in^1/2  : 
Std_KICvup         .psi*in^1/2  : 
Std_KICvdown       .psi*in^1/2  : 
Std_nuh            .            : 
Std_Eh             .psi         : 
Std_nuv            .            : 
Std_Ev             .psi         : 
Std_Gv             .psi         : 
Std_Cl             .ft/min^1/2  : 
Std_Sigma_h        .psi         : 
Std_SigmaH         .psi         : 
Std_SigmaV         .psi         : 
Std_Pore Pressure  .psi         : 
Std_Biot           .            : 
Std_Porosity       .            : 
Std_Permeability   .nD          : 
Std_SoPhi          .            : 
Std_TensileStrength.psi         : 
Std_Depth          .ft          : 
~Params ----------------------------------------------------
~Other -----------------------------------------------------
Exported from homogenization method
~ASCII -----------------------------------------------------
# ...
 7507.7095500000 2632.4506489361 3480.5277045515 3766.5358933705 0.2385171815 7049936.7437657127 0.2265196349 5312314.9205032689 2164415.8483325127 0.0005561789 5536.8146092904 6106.0385852766 7876.4445234427 4129.1022708161 0.9000000000 0.0373998321 719.7199668752 0.0000000000 1690.4317951633 0.8133024519 0.7374838587 22.2292335548 22.2292335548 22.2292335548 0.0176850153 121046.7538115470 0.0165753113 97490.2080163155 46994.0662957334 0.0001345712 0.2556388025 0.2553456681 0.0000000000 2704.7906568752 0.0000000000 0.0020076587 14.2946485762 0.0000000000 21.6282188822 7507.7095500000
 7520.4341000000 2613.0241574761 2929.7009393545 2946.8684947314 0.2156357753 6337614.6834653448 0.1981957536 4402818.1542603578 1836820.1944758534 0.0002700859 5381.9278615372 5903.2694354015 7890.8326131358 4136.1018947550 0.9000000000 0.0467849884 1150.4497884111 0.0000000000 1574.1487366276 0.7849639206 0.7156405854 21.7943470562 21.7943470562 21.7943470562 0.0173416796 118689.9459158349 0.0162592512 95929.8043111369 46187.4771888010 0.0001319855 0.2507200219 0.2504326068 0.0000000000 2652.7630196531 0.0000000000 0.0019684630 13.9981190613 0.0000000000 21.1862988963 7520.4341000000
 7533.1586500000 2660.8242218889 3864.4145849233 3101.9161560307 0.2394062437 6874372.5870176097 0.2276746627 5143551.4035525369 2092834.3437143113 0.0001519984 5574.2204939888 6128.8709664918 7905.1749201157 4143.0986696923 0.9000000000 0.0383705988 723.3294975063 0.0000000000 1690.6748815097 0.8135858079 0.7399579317 22.1816612853 22.1816612853 22.1816612853 0.0176846192 120955.5513356416 0.0173798931 108599.3461185826 52440.9469953859 0.0001377138 0.2620919314 0.2618057525 0.0000000000 2770.9652459823 0.0000000000 0.0020066914 14.1085631146 0.0000000000 21.2993911750 7533.1586500000
 7545.8832000000 2696.7063121597 3466.6705347370 3848.8512033454 0.2470431779 7132113.5764877247 0.2414170608 5790582.1213957304 2329060.3983700043 0.0002247409 5575.2275750121 6147.1495182675 7919.7138625171 4150.0993938906 0.9000000000 0.0367657035 589.6402902948 0.0000000000 1737.9074866250 0.8146361871 0.7388436088 21.7291475349 21.7291475349 21.7291475349 0.0173412165 118565.0052831712 0.0172059490 114897.3196222306 55900.6181026551 0.0001037873 0.2519401668 0.2516323009 0.0000000000 2760.0300545117 0.0000000000 0.0019667992 13.8019971027 0.0000000000 20.7337053564 7545.8832000000
 7558.6077500000 2706.7204401080 3253.5611999365 3069.8249568971 0.2530608952 7221358.1373520391 0.2486191935 5839554.8680724623 2336589.6715119793 0.0005463542 5662.4571895110 6238.7546515889 7934.2332231164 4157.0957169240 0.9000000000 0.0347416479 526.1335712931 0.0000000000 1757.6675733285 0.8253840996 0.7491402355 22.1694596873 22.1694596873 22.1694596873 0.0176846232 120932.1868730219 0.0174620388 111622.7834016492 54263.6709080393 0.0001053915 0.2559789799 0.2556639030 0.0000000000 2803.7450090363 0.0000000000 0.0020063059 14.0865966716 0.0000000000 21.2140910156 7558.6077500000
 7571.3322500000 2674.3068819099 3352.8869731108 3445.9033996266 0.2444184016 7069591.0507548833 0.2379209395 5473008.1016161358 2209170.1845308873 0.0001482093 5640.2010620642 6208.3050889671 7948.8093921478 4164.0962169437 0.9000000000 0.0364989823 617.6854530794 0.0000000000 1720.6161088315 0.8199752545 0.7449416927 21.7272059858 21.7272059858 21.7272059858 0.0173414711 118561.3243075935 0.0171033729 112661.1583139779 55840.7521250434 0.0001362409 0.2587646203 0.2584857535 0.0000000000 2737.8281830664 0.0000000000 0.0019664191 13.8229198485 0.0000000000 20.7188085603 7571.3322500000
 7584.0568000000 2777.3484390047 3750.4303052627 3781.1900645570 0.2398964258 6836892.1781265046 0.2371508145 6435117.9443499250 2598394.8713298836 0.0001896405 5323.2472572337 5874.6555874510 7963.1906896047 4171.0931885875 0.9000000000 0.0439125769 685.2147053698 0.0000000000 1750.4642728938 0.7746059586 0.7018997085 22.1464024791 22.1464024791 22.1464024791 0.0176850111 120888.0525459510 0.0175586798 121132.8690990585 60276.7558631420 0.0001062152 0.2576069023 0.2572936778 0.0000000000 2823.0453377963 0.0000000000 0.0020046920 14.0798361583 0.0000000000 21.0522839617 7584.0568000000
 7596.7813500000 2725.2153481673 3723.7906896646 3481.2698661116 0.2410349737 6882307.7863860438 0.2358246760 5700825.7676429627 2304878.5065186704 0.0001433885 5518.3678275701 6072.9297804938 7977.4644466253 4178.0926158199 0.9000000000 0.0412676648 706.2645246301 0.0000000000 1711.3166478964 0.7994082626 0.7264086688 21.7421541005 21.7421541005 21.7421541005 0.0173412848 118589.9212579177 0.0171082292 112019.1317522086 54465.1980371561 0.0001360157 0.2584618231 0.2581827300 0.0000000000 2734.1262114067 0.0000000000 0.0019671253 13.8356824139 0.0000000000 20.8242819399 7596.7813500000
 7609.5059000000 2655.1868598194 3267.5419363937 3366.0545806217 0.2356271971 6908278.3545346102 0.2250664351 5268065.5409818338 2148140.5651502749 0.0005119908 5570.4206201303 6129.5114503293 7991.8911011692 4185.0906877230 0.9000000000 0.0394920714 752.5693665181 0.0000000000 1684.0010489555 0.8055071552 0.7320344702 22.1911259948 22.1911259948 22.1911259948 0.0176848125 120973.7118191204 0.0170943044 108857.5800131428 52645.8779445088 0.0001371465 0.2604922607 0.2602043703 0.0000000000 2756.1453601934 0.0000000000 0.0020065023 14.1700563693 0.0000000000 21.3642730571 7609.5059000000
 7622.2304500000 2696.4632781037 4038.2515711790 3595.5657914049 0.2415217254 6971554.6307620564 0.2337921347 5600988.3036372252 2267377.5646060877 0.0002273687 5575.9327968167 6137.4658322767 8006.3090665912 4192.0890146961 0.9000000000 0.0391197199 677.7968073118 0.0000000000 1713.2388700982 0.8052060184 0.7315355831 22.2050084707 22.2050084707 22.2050084707 0.0176847857 121000.3097572890 0.0172008296 102124.5565935410 49856.3712925456 0.0001366035 0.2601610052 0.2598728349 0.0000000000 2749.9149596978 0.0000000000 0.0020079278 14.1589036495 0.0000000000 21.4607996599 7622.2304500000
 7634.9550000000 2551.0868370459 3480.0182138739 4143.8189815029 0.2273072970 6860278.8274065927 0.2141791362 4579094.5822373368 1885492.5514330894 0.0001680750 5705.0372467742 6264.0071839873 8020.9143636262 4199.0881868585 0.9000000000 0.0357563432 796.3200334950 0.0000000000 1649.5734370999 0.8204379966 0.7472260474 21.7769057081 21.7769057081 21.7769057081 0.0173412196 118656.5660992819 0.0165721479 98573.6125163478 48212.3690022779 0.0001331088 0.2531313468 0.2528465897 0.0000000000 2677.1388153126 0.0000000000 0.0019684955 13.9623405612 0.0000000000 21.0637341128 7634.9550000000
 7647.6795500000 2678.1221115138 3301.6949167652 3440.6698670588 0.2411446456 6961586.9240799127 0.2275450848 5349841.4675804405 2172107.4676778251 0.0002357455 5621.9984461377 6182.8989784534 8035.4329641102 4206.0854135722 0.9000000000 0.0385907685 702.8671380770 0.0000000000 1704.8822469213 0.8084673185 0.7351247407 22.2102150420 22.2102150420 22.2102150420 0.0176846681 121010.2879021545 0.0169846150 102099.7145357320 49515.0614358470 0.0001360706 0.2588030803 0.2585134351 0.0000000000 2736.9383784012 0.0000000000 0.0020075312 14.2060353360 0.0000000000 21.4969221490 7647.6795500000
 7660.4041000000 2562.2222245635 3134.5731558113 3159.1607912588 0.2224874159 6731432.0906299502 0.2078031414 4601743.0097534647 1904401.2872749490 0.0006047195 5614.0833696953 6164.7174296608 8049.9281396094 4213.0856859941 0.9000000000 0.0395339716 911.6259070887 0.0000000000 1621.8786099561 0.8047509438 0.7328703938 21.8040672313 21.8040672313 21.8040672313 0.0173412359 118708.5937736922 0.0163590807 93438.2849708361 45369.7209978366 0.0001320107 0.2510869228 0.2508000138 0.0000000000 2655.4119132577 0.0000000000 0.0019695634 14.0215537229 0.0000000000 21.2530484563 7660.4041000000
 7673.1286500000 2586.5519719500 3101.4446720298 2840.7299240185 0.2289467478 6874212.9409062089 0.2165369099 4835314.3510340517 1986980.8697916134 0.0001653641 5667.5201233119 6226.8782039852 8064.4444723291 4220.0820091163 0.9000000000 0.0379655040 804.4829305568 0.0000000000 1652.3354607696 0.8115175032 0.7386191972 22.2193501076 22.2193501076 22.2193501076 0.0176846569 121027.7848474281 0.0168282698 98594.5140801502 47685.7686883225 0.0001352652 0.2572947569 0.2570034693 0.0000000000 2720.9303813221 0.0000000000 0.0020078443 14.2233460968 0.0000000000 21.5606199351 7673.1286500000
