~Version ---------------------------------------------------
VERS.   2.0 : CWLS log ASCII Standard -VERSION 2.0
WRAP.    NO : One line per depth step
DLM . SPACE : Column Data Section Delimiter
~Well ------------------------------------------------------
STRT.ft               5683.82875 : START DEPTH
STOP.ft        7698.577649999999 : STOP DEPTH
STEP.ft       15.128450000000157 : STEP
NULL.                   -9999.25 : NULL VALUE
COMP.                            : COMPANY
WELL.                     bypass : WELL
FLD .                            : FIELD
LOC .                            : LOCATION
PROV.                            : PROVINCE
CNTY.                            : COUNTY
STAT.                            : STATE
CTRY.                            : COUNTRY
SRVC.                            : SERVICE COMPANY
DATE. 2019-07-30 20:43:20.519169 : DATE
UWI .                            : UNIQUE WELL ID
API .                            : API NUMBER
~Curve Information -----------------------------------------
Depth              .ft          : 
KICh               .psi*in^1/2  : 
KICvup             .psi*in^1/2  : 
KICvdown           .psi*in^1/2  : 
nuh                .            : 
Eh                 .psi         : 
nuv                .            : 
Ev                 .psi         : 
Gv                 .psi         : 
Cl                 .ft/min^1/2  : 
Sigma_h            .psi         : 
SigmaH             .psi         : 
SigmaV             .psi         : 
Pore Pressure      .psi         : 
Biot               .            : 
Porosity           .            : 
Permeability       .nD          : 
SoPhi              .            : 
TensileStrength    .psi         : 
Grad_SigmaH        .psi/ft      : 
Grad_Sigma_h       .psi/ft      : 
Std_KICh           .psi*in^1/2  : 
Std_KICvup         .psi*in^1/2  : 
Std_KICvdown       .psi*in^1/2  : 
Std_nuh            .            : 
Std_Eh             .psi         : 
Std_nuv            .            : 
Std_Ev             .psi         : 
Std_Gv             .psi         : 
Std_Cl             .ft/min^1/2  : 
Std_Sigma_h        .psi         : 
Std_SigmaH         .psi         : 
Std_SigmaV         .psi         : 
Std_Pore Pressure  .psi         : 
Std_Biot           .            : 
Std_Porosity       .            : 
Std_Permeability   .nD          : 
Std_SoPhi          .            : 
Std_TensileStrength.psi         : 
Std_Depth          .ft          : 
~Params ----------------------------------------------------
~Other -----------------------------------------------------
Exported from homogenization method
~ASCII -----------------------------------------------------
# ...
 6726.7275000000 2725.0190908352 3652.1526536011 3209.9549816824 0.2286540677 6692599.1993243592 0.2198322824 5638470.8925907565 2308679.5921717687 0.0001789032 4211.0998981533 4755.8097050420 6997.5226639812 2825.1207514855 0.9000000000 0.0475444501 942.6392110959 0.0000000000 1657.0445414464 0.7070019865 0.6260250468 21.7577278375 21.7577278375 21.7577278375 0.0173426394 118619.7515077171 0.0168052305 115184.6333390874 56037.0329552294 0.0001358405 0.2573103612 0.2570300396 0.0000000000 2725.2059619697 0.0000000000 0.0019665905 13.8879481258 0.0000000000 20.9328503554 6726.7275000000
 6739.9338000000 2692.4375000024 3387.5339541752 3468.5087379427 0.2111782371 6218494.2382717850 0.1981563394 4889393.3093871223 2040202.6721828168 0.0007144380 4111.4543253456 4624.8795214014 7012.1666147529 2830.6665099607 0.9000000000 0.0542434821 1293.1264031281 0.0000000000 1568.3573319397 0.6861906450 0.6100140517 22.2188458128 22.2188458128 22.2188458128 0.0176869749 121026.8166024568 0.0165221666 105717.6479799647 51057.1179976250 0.0001354813 0.2566230755 0.2563308931 0.0000000000 2718.0853907342 0.0000000000 0.0020060208 14.2463823550 0.0000000000 21.5571821533 6739.9338000000
 6752.0414500000 2665.2164000828 3381.8003970789 3462.6381272988 0.2109191431 6353434.1577132214 0.1949183298 4684311.4390887115 1959444.2546318462 0.0004336344 4191.1516626006 4715.8303080587 7025.5035056408 2835.7529730667 0.9000000000 0.0525559067 1292.3379657900 0.0000000000 1557.4941049663 0.6984302959 0.6207236276 22.6639542241 22.6639542241 22.6639542241 0.0180511489 123497.4464510408 0.0171429327 112753.0792089039 54567.9281946254 0.0001395613 0.2644104579 0.2641150172 0.0000000000 2800.2744539058 0.0000000000 0.0020471925 14.5093186122 0.0000000000 21.9111808497 6752.0414500000
 6764.1491000000 2708.3327112260 3261.9974831186 3175.8614733921 0.2195268374 6602750.6146856816 0.2076311756 5253082.5888729440 2174142.7314615240 0.0008169473 4208.8306065222 4750.2496562800 7038.8820318609 2842.5714680013 0.9000000000 0.0510739923 1132.5018357379 0.0000000000 1604.9964708184 0.7022686203 0.6222261728 22.6447619713 22.6447619713 22.6447619713 0.0180503959 123460.6707083180 0.0174757390 119491.7573112126 58403.5642496778 0.0001413409 0.2677200297 0.2674281687 0.0000000000 2835.5022459834 0.0000000000 0.0020469650 14.4570908822 0.0000000000 21.7778884789 6764.1491000000
 6776.2567500000 2746.5854675694 3158.3206324029 3277.6165814596 0.2383750965 7592958.2423158865 0.2359327012 6702763.0850717686 2711420.7867815332 0.0006667666 4340.8019556040 4953.9407585171 7052.3507974794 2865.8208220299 0.9000000000 0.0442489258 767.2768842925 0.0000000000 1703.7554127741 0.7310733553 0.6405899475 22.6040623479 22.6040623479 22.6040623479 0.0180496758 123382.7260997784 0.0180270610 133992.0984800249 67132.9457550054 0.0001093652 0.2648080431 0.2644906488 0.0000000000 2903.7224306052 0.0000000000 0.0020460692 14.3673363812 0.0000000000 21.4937126044 6776.2567500000
 6788.3644000000 2818.2024763480 3391.4698080871 3465.6604007037 0.2551442354 8119946.2312515136 0.2539557932 7891977.8818597496 3145678.4604428210 0.0006973251 4397.4153365219 5044.3486532161 7065.9475502585 2904.6076003894 0.9000000000 0.0412014801 588.7413245013 0.0000000000 1776.7725732383 0.7430874885 0.6477871660 22.5880197188 22.5880197188 22.5880197188 0.0180498341 123352.0409807760 0.0179681571 134033.2045008858 69579.1041677407 0.0001094857 0.2649228948 0.2646055468 0.0000000000 2905.7619656725 0.0000000000 0.0020454429 14.3530884707 0.0000000000 21.3803220278 6788.3644000000
 6800.4720500000 2768.1894332505 4037.9145448678 3643.5024763485 0.2375219037 7576044.1165957954 0.2303894573 6590881.4664684236 2674621.3145582438 0.0007820737 4380.9732894605 4993.1680388006 7079.5094747533 2947.6823016844 0.9000000000 0.0461484365 835.5777736393 0.0000000000 1690.5401413828 0.7342384473 0.6442160570 22.1839383450 22.1839383450 22.1839383450 0.0176854133 120959.9080985728 0.0170377417 115131.9337045684 56467.8337254712 0.0001380220 0.2614585411 0.2611716390 0.0000000000 2769.0992288066 0.0000000000 0.0020056627 14.1472784752 0.0000000000 21.3154316713 6800.4720500000
 6812.5797000000 2747.6728718350 3101.6022981543 3489.7341178788 0.2307560696 7246640.9420908559 0.2195142968 5836741.6091591902 2392518.5934837488 0.0007104680 4423.6681204694 5012.4639932564 7093.0160205590 2983.8409806823 0.9000000000 0.0483745134 982.6152584170 0.0000000000 1642.1340839776 0.7357659233 0.6493381825 22.6477634978 22.6477634978 22.6477634978 0.0180507371 123466.4071922148 0.0171906113 116660.4521331265 57049.3232914306 0.0001402810 0.2654859985 0.2651916786 0.0000000000 2812.7762239043 0.0000000000 0.0020468618 14.4595819567 0.0000000000 21.7992555052 6812.5797000000
 6824.6873500000 2739.7029095509 3288.7442297372 3225.7009145733 0.2270278006 7049780.5806649160 0.2137091192 5587207.0989602646 2299978.6833440815 0.0005062719 4407.2750863349 4981.8163132965 7106.4524341657 3002.2602685267 0.9000000000 0.0497034026 1056.9322679315 0.0000000000 1623.5788887819 0.7299698957 0.6457841745 22.6260850936 22.6260850936 22.6260850936 0.0180501426 123424.9018627258 0.0175403371 123856.4647226259 61693.0101363324 0.0001423155 0.2692030191 0.2689126678 0.0000000000 2852.6281225016 0.0000000000 0.0020465122 14.4155005725 0.0000000000 21.6474895601 6824.6873500000
 6836.7950000000 2788.0114712222 3668.5136945759 3756.5245169879 0.2439259917 7767475.0556509905 0.2381261014 7253556.3251382010 2924408.1903346912 0.0006563862 4396.9410229524 5021.3732727516 7119.9475656262 3008.0796240378 0.9000000000 0.0442394194 717.9515175712 0.0000000000 1738.9240940462 0.7344630449 0.6431289841 22.6098341343 22.6098341343 22.6098341343 0.0180503116 123393.7967166122 0.0177399717 124105.0585957753 63692.9906613815 0.0001084033 0.2625415249 0.2622213829 0.0000000000 2878.8145812370 0.0000000000 0.0020458656 14.3916650622 0.0000000000 21.5333955215 6836.7950000000
 6848.9026500000 2776.8001180298 3219.7605452498 2980.7668070152 0.2411299220 7643887.0177972158 0.2329578697 6822904.5341074737 2762170.4903599876 0.0007502552 4428.3527806369 5044.2340741578 7133.4411472771 3013.4065685473 0.9000000000 0.0452167026 790.8977355467 0.0000000000 1708.7212689267 0.7365025219 0.6465784385 22.1553806846 22.1553806846 22.1553806846 0.0176852981 120905.2447955467 0.0174622108 126528.4446930956 64833.5207404394 0.0001066945 0.2582473577 0.2579349422 0.0000000000 2832.3303732021 0.0000000000 0.0020048086 14.1003372942 0.0000000000 21.1150452113 6848.9026500000
 6861.0103000000 2761.9885558242 3580.9601184556 3564.5540303194 0.2391161369 7679253.0420352016 0.2312172890 6835378.0962185329 2772995.8512010807 0.0006413005 4424.0657292069 5043.8020729960 7146.9713317278 3018.7346788794 0.9000000000 0.0453689232 810.7547645512 0.0000000000 1703.4534168683 0.7351398486 0.6448125765 22.6112554737 22.6112554737 22.6112554737 0.0180502233 123396.5138460263 0.0177951224 130303.7723964375 65988.0804824566 0.0001088720 0.2634475842 0.2631285568 0.0000000000 2889.6617525304 0.0000000000 0.0020459834 14.3915883012 0.0000000000 21.5434955198 6861.0103000000
 6873.1179500000 2737.5903226987 3879.1910673246 3706.3708315304 0.2285451148 7407206.9245507987 0.2204214268 6362952.0895608710 2604455.6960031344 0.0010344640 4376.6951623940 4979.6202674935 7160.4846924507 3024.0624148269 0.9000000000 0.0484773162 956.1278338537 0.0000000000 1657.8347081370 0.7245067382 0.6367845269 22.6531341415 22.6531341415 22.6531341415 0.0180508607 123476.7068683397 0.0172877639 118167.2256700073 58085.3053878581 0.0001408007 0.2664688402 0.2661756334 0.0000000000 2823.1897120540 0.0000000000 0.0020470045 14.4742278506 0.0000000000 21.8362563387 6873.1179500000
 6885.2256000000 2713.3144690376 4661.7194593148 3361.4170707168 0.2211486205 6938227.6065925714 0.2050993262 5411767.2236270821 2243974.9852404371 0.0008030914 4389.3055004076 4957.4777515194 7173.8945059243 3029.3893594106 0.9000000000 0.0512625924 1165.2619728604 0.0000000000 1597.7057627242 0.7200167488 0.6374962500 22.6395193396 22.6395193396 22.6395193396 0.0180505635 123450.6658882817 0.0173912750 119703.0855286499 61117.3689737453 0.0001416588 0.2679744531 0.2676828285 0.0000000000 2839.6319152667 0.0000000000 0.0020468685 14.4543652227 0.0000000000 21.7400334298 6885.2256000000
