~Version ---------------------------------------------------
VERS.   2.0 : CWLS log ASCII Standard -VERSION 2.0
WRAP.    NO : One line per depth step
DLM . SPACE : Column Data Section Delimiter
~Well ------------------------------------------------------
STRT.ft               5569.94125 : START DEPTH
STOP.ft        8198.326850000001 : STOP DEPTH
STEP.ft        14.50250000000051 : STEP
NULL.                   -9999.25 : NULL VALUE
COMP.                            : COMPANY
WELL.                     bypass : WELL
FLD .                            : FIELD
LOC .                            : LOCATION
PROV.                            : PROVINCE
CNTY.                            : COUNTY
STAT.                            : STATE
CTRY.                            : COUNTRY
SRVC.                            : SERVICE COMPANY
DATE. 2019-07-30 20:43:31.496337 : DATE
UWI .                            : UNIQUE WELL ID
API .                            : API NUMBER
~Curve Information -----------------------------------------
Depth              .ft          : 
KICh               .psi*in^1/2  : 
KICvup             .psi*in^1/2  : 
KICvdown           .psi*in^1/2  : 
nuh                .            : 
Eh                 .psi         : 
nuv                .            : 
Ev                 .psi         : 
Gv                 .psi         : 
Cl                 .ft/min^1/2  : 
Sigma_h            .psi         : 
SigmaH             .psi         : 
SigmaV             .psi         : 
Pore Pressure      .psi         : 
Biot               .            : 
Porosity           .            : 
Permeability       .nD          : 
SoPhi              .            : 
TensileStrength    .psi         : 
Grad_SigmaH        .psi/ft      : 
Grad_Sigma_h       .psi/ft      : 
Std_KICh           .psi*in^1/2  : 
Std_KICvup         .psi*in^1/2  : 
Std_KICvdown       .psi*in^1/2  : 
Std_nuh            .            : 
Std_Eh             .psi         : 
Std_nuv            .            : 
Std_Ev             .psi         : 
Std_Gv             .psi         : 
Std_Cl             .ft/min^1/2  : 
Std_Sigma_h        .psi         : 
Std_SigmaH         .psi         : 
Std_SigmaV         .psi         : 
Std_Pore Pressure  .psi         : 
Std_Biot           .            : 
Std_Porosity       .            : 
Std_Permeability   .nD          : 
Std_SoPhi          .            : 
Std_TensileStrength.psi         : 
Std_Depth          .ft          : 
~Params ----------------------------------------------------
~Other -----------------------------------------------------
Exported from homogenization method
~ASCII -----------------------------------------------------
# ...
 7817.1842500000 2438.2432849751 3736.5362353498 4119.7737421230 0.1925169843 6035740.6939557362 0.1694365489 3523902.3693090230 1506356.8373329691 0.0002777793 5566.2414771047 6072.3760457237 8255.1283336647 4299.3140108163 0.9000000000 0.0450911180 1547.2197612089 0.0000000000 1480.6225859785 0.7767983780 0.7120519741 17.8666742749 17.8666742749 17.8666742749 0.0047198993 97047.5759960451 0.0041841077 62867.1062640574 30900.8233648707 0.0000964301 0.1173901921 0.1176178428 0.0000000000 1295.8916687324 0.0000000000 0.0008050338 12.0839057183 0.0000000000 17.7856037724 7817.1842500000
 7836.7731500000 2409.9119298659 4847.8410942737 5688.9376446900 0.1868784283 6070962.0882328423 0.1589113315 3470018.2361264969 1497035.7666306929 0.0006644402 5500.4196978376 6011.9263478394 8277.2720281466 4310.0876777953 0.9000000000 0.0480763592 1831.2612188024 0.0000000000 1431.8611759504 0.7671430872 0.7018730277 17.6559304085 17.6559304085 17.6559304085 0.0046608472 95853.7319046186 0.0039246587 61500.2896571420 29988.5645403228 0.0000943051 0.1144720824 0.1146998576 0.0000000000 1265.2311155420 0.0000000000 0.0007944987 12.0454891534 0.0000000000 17.6559704647 7836.7731500000
 7856.8594500000 2451.4135915422 3116.2907061434 3274.0029404811 0.1821975122 5678445.6952540549 0.1525615310 3287897.9917473919 1426252.5977247071 0.0005187432 5417.0972048821 5897.4268990841 8299.6819812263 4321.1349388638 0.9000000000 0.0545591616 2036.8904227842 0.0000000000 1385.2188870226 0.7506086798 0.6894736045 17.6438113826 17.6438113826 17.6438113826 0.0046609917 95830.4208730938 0.0039595262 63767.8350422705 30914.3912488280 0.0000953394 0.1154882255 0.1157138454 0.0000000000 1277.4405512020 0.0000000000 0.0007942127 11.8073537984 0.0000000000 17.5747113811 7856.8594500000
 7876.9457500000 2468.5467217588 2870.9912234650 2889.3995534831 0.1856775160 5806115.9447041415 0.1570070038 3459062.1959109921 1494735.0746025394 0.0004709929 5442.0400669333 5931.7276815290 8321.9389111324 4332.1821999323 0.9000000000 0.0540642682 1943.2084815948 0.0000000000 1403.9641634446 0.7530491982 0.6908820042 17.4323510317 17.4323510317 17.4323510317 0.0046037292 94664.2270997419 0.0038898371 62892.5006472608 30618.3834579407 0.0000942096 0.1140798461 0.1143027454 0.0000000000 1262.0727178591 0.0000000000 0.0007845710 11.7498465030 0.0000000000 17.3929337612 7876.9457500000
 7897.0321000000 2424.3557713147 3250.5697181041 3564.7987456426 0.1747329629 5618459.5580087658 0.1405510024 3120920.1126936092 1367016.8093605647 0.0005239677 5370.0250578695 5848.3005243427 8344.2120074236 4343.2305185349 0.9000000000 0.0575406499 2272.8423906689 0.0000000000 1330.0024895318 0.7405694254 0.6800054742 17.6674354600 17.6674354600 17.6674354600 0.0046618675 95875.8824318775 0.0037898141 59220.8360903090 28821.1318809031 0.0000927094 0.1125884474 0.1128201347 0.0000000000 1244.2029377718 0.0000000000 0.0007941898 11.8880130395 0.0000000000 17.7324858304 7897.0321000000
 7917.1184500000 2471.0173217417 4142.7866633640 3493.6093897930 0.1756384859 5457894.9665501947 0.1404891702 3097149.7243580273 1356787.6092054215 0.0004735959 5353.3954503028 5817.6448800561 8366.1956913135 4354.2779583597 0.9000000000 0.0612516627 2290.8304569359 0.0000000000 1319.4228155087 0.7348184717 0.6761797849 17.6562901299 17.6562901299 17.6562901299 0.0046616248 95854.4213801044 0.0038413125 63542.5303087243 30903.1514494331 0.0000950273 0.1148935107 0.1151204288 0.0000000000 1271.8723418744 0.0000000000 0.0007940290 11.7824442083 0.0000000000 17.6584570063 7917.1184500000
 7937.2047500000 2427.6031716684 4082.8192273311 3409.6483257253 0.1832160842 6192177.6534706587 0.1519247429 3629893.3226319696 1573980.4760410741 0.0004951703 5461.2251030011 5984.5595755528 8388.2625068955 4365.3252194282 0.9000000000 0.0526088109 2022.9921891770 0.0000000000 1389.3737017997 0.7539883075 0.6880539529 17.6549193214 17.6549193214 17.6549193214 0.0046607077 95851.7854013956 0.0039600857 62770.7438034290 30844.4160677142 0.0000952440 0.1154858303 0.1157116024 0.0000000000 1276.9942239867 0.0000000000 0.0007947609 12.0738302810 0.0000000000 17.6492424339 7937.2047500000
 7957.2910500000 2418.5243036511 3255.8059267662 4507.0357952193 0.1721357753 5452287.5062173512 0.1366963587 2915615.7624579892 1281851.8455929337 0.0006354019 5416.2214229832 5881.3797792907 8410.6899329185 4376.3724804967 0.9000000000 0.0583162810 2329.0138258813 0.0000000000 1312.4087645263 0.7391183435 0.6806614700 17.6739201698 17.6739201698 17.6739201698 0.0046618895 95888.3628134239 0.0037662776 57685.3318693236 28065.5421886123 0.0000919217 0.1117968313 0.1120302378 0.0000000000 1234.7582236190 0.0000000000 0.0007943290 11.9651632960 0.0000000000 17.7757536421 7957.2910500000
 7977.3773500000 2452.8293893665 4346.3549811237 3790.4815233195 0.1872087315 5856980.5190853328 0.1566372748 3383205.1392741227 1462209.7589655670 0.0005460816 5558.4017887051 6051.7422067417 8432.7917115310 4387.4197415651 0.9000000000 0.0518686050 1894.4433913887 0.0000000000 1410.6620749831 0.7586130054 0.6967705732 17.6468710536 17.6468710536 17.6468710536 0.0046610340 95836.3219436783 0.0039625129 61745.8556562550 29998.6146741299 0.0000943321 0.1145590006 0.1147864838 0.0000000000 1265.8861830446 0.0000000000 0.0007943693 11.8351546701 0.0000000000 17.5947364159 7977.3773500000
 7997.4636500000 2457.3774134985 3248.2098727491 3709.5476500105 0.1771216596 5411606.4241516339 0.1424540074 2971694.3253701245 1299814.7042685964 0.0005002589 5475.1036867048 5934.8358120856 8455.1309505277 4398.4670957319 0.9000000000 0.0582354301 2220.1424196529 0.0000000000 1333.2105217025 0.7420897514 0.6846050106 17.4413171123 17.4413171123 17.4413171123 0.0046040680 94681.4811637650 0.0038417911 59121.5886737830 28709.2633832285 0.0000920890 0.1119509149 0.1121781454 0.0000000000 1236.6092369158 0.0000000000 0.0007846831 11.7849098502 0.0000000000 17.4528119531 7997.4636500000
 8017.5500000000 2416.3264150730 3705.7373012662 3833.4515424436 0.1797136613 5664906.9102657549 0.1486482391 3125566.3364186562 1359999.0612186932 0.0005449252 5554.6450447518 6034.8384252418 8477.3424086133 4409.5154731560 0.9000000000 0.0526388115 2105.4411225445 0.0000000000 1375.8830850026 0.7527035597 0.6928107770 17.6575210200 17.6575210200 17.6575210200 0.0046608604 95856.7961601963 0.0039376524 59835.0279446744 29217.4812540435 0.0000935036 0.1137598580 0.1139890760 0.0000000000 1256.2130028782 0.0000000000 0.0007946877 12.0570826693 0.0000000000 17.6664893136 8017.5500000000
 8037.6363500000 2421.9709206236 3656.8063622973 4359.5020935702 0.1864455437 6025023.9087471003 0.1551273361 3354552.2688140646 1450848.4519451330 0.0004798572 5643.3168733425 6151.1382344479 8499.8500986873 4420.5627610610 0.9000000000 0.0490593182 1891.9698280486 0.0000000000 1417.0552224215 0.7652919299 0.7021114949 17.6487942077 17.6487942077 17.6487942077 0.0046606067 95840.0037051662 0.0040004074 60710.1256234771 29692.5797893272 0.0000940888 0.1144754534 0.1147031415 0.0000000000 1264.0584143736 0.0000000000 0.0007946626 11.9952418220 0.0000000000 17.6081748296 8037.6363500000
 8057.7226500000 2520.0916333011 6875.1008386234 5122.8715546132 0.2125260216 6583715.9007861400 0.1712464838 3871578.1743333726 1643363.5009081373 0.0004992843 5811.7690100333 6354.7442355803 8522.4197608036 4431.6100221295 0.9000000000 0.0438933589 1449.6287702638 0.0000000000 1524.4529437240 0.7886526394 0.7212669463 17.5626631677 17.5626631677 17.5626631677 0.0046604998 95674.6991836206 0.0044081532 80303.9651359996 40454.1730950398 0.0000701453 0.1126631935 0.1128782157 0.0000000000 1224.7176448870 0.0000000000 0.0007936883 11.3284154614 0.0000000000 17.0186111605 8057.7226500000
 8077.8089500000 2563.4570489170 4583.4495858729 7029.2926469945 0.2364922860 7333781.2274232171 0.2005082139 4817488.0570043996 1994658.4102052965 0.0006022759 5999.8676676403 6592.9794331050 8545.4848228009 4442.6572831980 0.9000000000 0.0359300324 928.2127015323 0.0000000000 1650.6608434672 0.8161841254 0.7427592934 17.5794798046 17.5794798046 17.5794798046 0.0046603682 95706.9084310888 0.0043610545 76582.9196536149 37627.2864232362 0.0000687382 0.1107316801 0.1109506516 0.0000000000 1202.4041735599 0.0000000000 0.0007938494 11.3947596488 0.0000000000 17.1359615348 8077.8089500000
