~Version ---------------------------------------------------
VERS.   2.0 : CWLS log ASCII Standard -VERSION 2.0
WRAP.    NO : One line per depth step
DLM . SPACE : Column Data Section Delimiter
~Well ------------------------------------------------------
STRT.ft                 5553.236 : START DEPTH
STOP.ft        7956.265999999999 : STOP DEPTH
STEP.ft        14.83744999999999 : STEP
NULL.                   -9999.25 : NULL VALUE
COMP.                            : COMPANY
WELL.                     bypass : WELL
FLD .                            : FIELD
LOC .                            : LOCATION
PROV.                            : PROVINCE
CNTY.                            : COUNTY
STAT.                            : STATE
CTRY.                            : COUNTRY
SRVC.                            : SERVICE COMPANY
DATE. 2019-07-30 20:43:21.016623 : DATE
UWI .                            : UNIQUE WELL ID
API .                            : API NUMBER
~Curve Information -----------------------------------------
Depth              .ft          : 
KICh               .psi*in^1/2  : 
KICvup             .psi*in^1/2  : 
KICvdown           .psi*in^1/2  : 
nuh                .            : 
Eh                 .psi         : 
nuv                .            : 
Ev                 .psi         : 
Gv                 .psi         : 
Cl                 .ft/min^1/2  : 
Sigma_h            .psi         : 
SigmaH             .psi         : 
SigmaV             .psi         : 
Pore Pressure      .psi         : 
Biot               .            : 
Porosity           .            : 
Permeability       .nD          : 
SoPhi              .            : 
TensileStrength    .psi         : 
Grad_SigmaH        .psi/ft      : 
Grad_Sigma_h       .psi/ft      : 
Std_KICh           .psi*in^1/2  : 
Std_KICvup         .psi*in^1/2  : 
Std_KICvdown       .psi*in^1/2  : 
Std_nuh            .            : 
Std_Eh             .psi         : 
Std_nuv            .            : 
Std_Ev             .psi         : 
Std_Gv             .psi         : 
Std_Cl             .ft/min^1/2  : 
Std_Sigma_h        .psi         : 
Std_SigmaH         .psi         : 
Std_SigmaV         .psi         : 
Std_Pore Pressure  .psi         : 
Std_Biot           .            : 
Std_Porosity       .            : 
Std_Permeability   .nD          : 
Std_SoPhi          .            : 
Std_TensileStrength.psi         : 
Std_Depth          .ft          : 
~Params ----------------------------------------------------
~Other -----------------------------------------------------
Exported from homogenization method
~ASCII -----------------------------------------------------
# ...
 7719.7931500000 2615.5473988268 5890.0616238822 4062.2696740124 0.1686759272 4243008.2053167960 0.1206174413 2407910.1771045248 1071040.1093856175 0.0002439416 4982.3397653883 5345.4009106076 8074.4019019209 4245.7487914187 0.9000000000 0.0741691331 2124.7505261804 0.0000000000 1237.4635834941 0.6924279973 0.6453980914 19.1337982076 19.1337982076 19.1337982076 0.0050562436 103935.7914095589 0.0043062405 70269.1318519168 33753.8493709341 0.0001253644 0.1485700214 0.1488602618 0.0000000000 1490.7409778776 0.0000000000 0.0008612050 12.6338754064 0.0000000000 19.0372004079 7719.7931500000
 7736.7510500000 2417.7968819270 3743.8206631555 4399.9609329951 0.1780873055 5399029.3613189571 0.1471279611 3083692.9506731099 1343974.3966167204 0.0003244183 5264.9862452059 5723.2739575053 8092.8628358669 4255.0755789337 0.9000000000 0.0547373249 2111.0450328328 0.0000000000 1368.1718961631 0.7397515986 0.6805164353 19.7555959021 19.7555959021 19.7555959021 0.0052151915 97144.2615909262 0.0042057376 62385.0181559452 30271.4103519356 0.0001206572 0.1438070153 0.1440533541 0.0000000000 1440.4423937507 0.0000000000 0.0008875236 13.2031706889 0.0000000000 19.8444432064 7736.7510500000
 7752.5071000000 2546.7338902078 3376.3660764212 3884.2771843823 0.1675496274 4535850.6428513341 0.1244163815 2466251.7120068227 1093346.8793695255 0.0004746275 5090.0136398989 5478.5068171009 8110.0509126476 4263.7413904577 0.9000000000 0.0679977515 2183.3181301862 0.0000000000 1253.7054670409 0.7066754982 0.6565635573 20.7530856335 20.7530856335 20.7530856335 0.0054760620 112607.6875085005 0.0043872423 70907.4245604097 34038.9873898538 0.0001308939 0.1553775173 0.1557033275 0.0000000000 1558.1618782032 0.0000000000 0.0009323251 13.7200640169 0.0000000000 20.8510985408 7752.5071000000
 7767.0613000000 2451.2308185428 3136.0908865347 2654.8653413649 0.1673045722 4953143.1656734236 0.1326501311 2883829.8704068237 1272353.8095079868 0.0004918348 5101.1979258058 5525.5210445146 8125.6649970688 4271.7460894450 0.9000000000 0.0658802606 2425.7790297137 0.0000000000 1272.5940994532 0.7114043306 0.6567732285 20.7466330273 20.7466330273 20.7466330273 0.0054751480 112595.2649289549 0.0044563194 72532.7883951311 35049.7233330544 0.0001325985 0.1572566254 0.1575784893 0.0000000000 1577.5388700360 0.0000000000 0.0009325242 13.8644998091 0.0000000000 20.8081693349 7767.0613000000
 7781.6155000000 2450.2148999911 2839.5538999699 2855.0257441035 0.1729694552 5283208.7327652639 0.1411953698 3090676.0874649477 1354000.2496901802 0.0005311950 5197.8826811118 5648.2958363139 8141.5067546356 4279.7507884322 0.9000000000 0.0613725043 2321.2336076112 0.0000000000 1319.0215027472 0.7258513141 0.6679696113 20.7370324734 20.7370324734 20.7370324734 0.0054750857 112576.7897094989 0.0045080689 75153.2890079833 36324.7216897828 0.0001347587 0.1594675434 0.1597848233 0.0000000000 1600.9439709384 0.0000000000 0.0009324263 13.7588943061 0.0000000000 20.7440604216 7781.6155000000
 7796.1697000000 2423.0479255755 2934.1384034399 3093.4670191469 0.1729567308 5465577.0125590796 0.1412064564 3211119.6076021544 1406579.5289738835 0.0005294223 5205.5766804748 5671.5424632562 8157.3953439324 4287.7554874194 0.9000000000 0.0595314159 2303.6320908967 0.0000000000 1326.2605467464 0.7274780670 0.6677095139 20.7481294822 20.7481294822 20.7481294822 0.0054749715 112598.1452024200 0.0044649823 73368.3731306804 35577.7867700975 0.0001334217 0.1580906314 0.1584108273 0.0000000000 1586.4220675553 0.0000000000 0.0009326403 13.9382663042 0.0000000000 20.8181466567 7796.1697000000
 7810.7239500000 2430.4115059209 2979.6430436909 2972.9030237782 0.1698049629 5265803.4742009360 0.1375716584 3103743.2946338467 1364123.3264309121 0.0005171231 5169.1802987224 5619.3240099690 8173.2980288511 4295.7602337454 0.9000000000 0.0625799479 2387.5840016886 0.0000000000 1300.7506103519 0.7194370261 0.6618055294 20.7471469068 20.7471469068 20.7471469068 0.0054751943 112596.2550570531 0.0044529656 73744.3427400908 35696.0660352546 0.0001335796 0.1581853615 0.1585053453 0.0000000000 1587.6854533829 0.0000000000 0.0009325049 13.8402449050 0.0000000000 20.8115638352 7810.7239500000
 7825.2782000000 2467.6857705830 2916.4122527230 3216.5754081157 0.1715682587 5228164.0357280560 0.1376807369 3100870.7863356676 1362146.9369394113 0.0005126261 5175.1129195098 5621.3663918966 8189.1348948583 4303.7659642921 0.9000000000 0.0643584289 2339.5142867625 0.0000000000 1300.2799735480 0.7183599417 0.6613327715 20.7300742122 20.7300742122 20.7300742122 0.0054760413 112563.4094907538 0.0044962984 77574.8724031092 37439.2985327210 0.0001364700 0.1610279882 0.1613420744 0.0000000000 1618.2235470396 0.0000000000 0.0009319235 13.4778018689 0.0000000000 20.6972825890 7825.2782000000
 7839.8324000000 2499.5390319656 3602.9898391629 3051.0280208886 0.1776439163 5520745.7945029754 0.1478419541 3467642.2809869405 1510311.2757926970 0.0002706739 5219.5734918420 5688.3693407486 8204.8687085501 4311.7706632793 0.9000000000 0.0622402301 2138.0056004523 0.0000000000 1352.3251434872 0.7255728248 0.6657761576 20.7258016587 20.7258016587 20.7258016587 0.0054748060 112555.1887320540 0.0045864783 78582.0113686470 38116.5553930848 0.0001378340 0.1626643799 0.1629752931 0.0000000000 1634.6060789458 0.0000000000 0.0009323564 13.7221299522 0.0000000000 20.6687112717 7839.8324000000
 7854.3866000000 2428.8206024314 3351.3602963800 2825.7335412007 0.1698196130 5300643.7321356880 0.1368462668 3085161.8790307688 1356582.9552869054 0.0005106073 5207.6170131288 5660.7333460381 8220.7227813231 4319.7753622666 0.9000000000 0.0622813015 2403.3754592748 0.0000000000 1299.7359350195 0.7207097937 0.6630202049 20.7573525679 20.7573525679 20.7573525679 0.0054751586 112615.9023189949 0.0044176503 69653.6551975891 33729.5462460421 0.0001304418 0.1551158216 0.1554422703 0.0000000000 1554.6227290800 0.0000000000 0.0009327951 14.0763511296 0.0000000000 20.8794840828 7854.3866000000
 7868.9408000000 2423.6336780781 3302.8606593484 3745.7837086738 0.1642479390 4862879.6229605740 0.1253893769 2583003.0528601864 1145726.9398173927 0.0005418853 5203.3643948202 5621.0485890721 8236.6394202662 4327.7800612538 0.9000000000 0.0644971531 2532.8160608248 0.0000000000 1243.0019655547 0.7143335719 0.6612534682 20.7632213019 20.7632213019 20.7632213019 0.0054761268 112627.2128462091 0.0043247601 68266.2275779246 32869.4520988843 0.0001288526 0.1532679763 0.1535984049 0.0000000000 1535.9240903269 0.0000000000 0.0009325174 13.8291272226 0.0000000000 20.9181700048 7868.9408000000
 7883.4950000000 2430.8592171782 3227.8925314247 2859.6751041095 0.1728294655 5255781.1452436857 0.1401205761 3031221.6364691327 1329105.0567143916 0.0005906374 5273.5535014873 5721.6818355573 8252.4165486437 4335.7847602410 0.9000000000 0.0602192256 2335.2954164219 0.0000000000 1317.2359426718 0.7257798522 0.6689359861 20.4013238987 20.4013238987 20.4013238987 0.0053828466 110709.3207747373 0.0043831495 69350.1796632710 33471.2396585271 0.0001288945 0.1532263519 0.1535457219 0.0000000000 1535.8434305651 0.0000000000 0.0009170798 13.7639733713 0.0000000000 20.4808878707 7883.4950000000
 7898.0492000000 2390.6383133284 2805.4488429184 3435.1890287029 0.1694248929 5243992.8424779698 0.1350619361 2876586.8053505355 1266281.7109286268 0.0005207046 5293.0448560919 5741.4697933857 8268.3980976045 4343.7894592283 0.9000000000 0.0587648259 2443.0856165496 0.0000000000 1302.0176861298 0.7269478384 0.6701711678 20.7633457702 20.7633457702 20.7633457702 0.0054753498 112627.4476764358 0.0043549216 68566.8916639368 33085.3341167508 0.0001293052 0.1538171585 0.1541464371 0.0000000000 1541.4117277801 0.0000000000 0.0009327397 14.0231616191 0.0000000000 20.9191402641 7898.0492000000
 7912.6034000000 2445.4939713633 4720.3958302659 3369.3152963642 0.1789982091 5358893.7669940945 0.1386736074 2981956.1675535012 1306430.4660019611 0.0005525960 5341.5651299286 5796.0945537867 8284.3187136417 4351.7941582155 0.9000000000 0.0578680026 2213.4859623896 0.0000000000 1334.3172199190 0.7325142258 0.6750704995 20.7406444679 20.7406444679 20.7406444679 0.0054739610 112583.7729552507 0.0045803537 72993.1790383838 35466.0757706708 0.0001336703 0.1587344167 0.1590532452 0.0000000000 1591.6813186864 0.0000000000 0.0009331587 14.2477607539 0.0000000000 20.7671810311 7912.6034000000
