~Version ---------------------------------------------------
VERS.   2.0 : CWLS log ASCII Standard -VERSION 2.0
WRAP.    NO : One line per depth step
DLM . SPACE : Column Data Section Delimiter
~Well ------------------------------------------------------
STRT.ft                 5533.575 : START DEPTH
STOP.ft        7763.808250000001 : STOP DEPTH
STEP.ft       14.590000000000146 : STEP
NULL.                   -9999.25 : NULL VALUE
COMP.                            : COMPANY
WELL.                     bypass : WELL
FLD .                            : FIELD
LOC .                            : LOCATION
PROV.                            : PROVINCE
CNTY.                            : COUNTY
STAT.                            : STATE
CTRY.                            : COUNTRY
SRVC.                            : SERVICE COMPANY
DATE. 2019-07-30 20:43:20.008820 : DATE
UWI .                            : UNIQUE WELL ID
API .                            : API NUMBER
~Curve Information -----------------------------------------
Depth              .ft          : 
KICh               .psi*in^1/2  : 
KICvup             .psi*in^1/2  : 
KICvdown           .psi*in^1/2  : 
nuh                .            : 
Eh                 .psi         : 
nuv                .            : 
Ev                 .psi         : 
Gv                 .psi         : 
Cl                 .ft/min^1/2  : 
Sigma_h            .psi         : 
SigmaH             .psi         : 
SigmaV             .psi         : 
Pore Pressure      .psi         : 
Biot               .            : 
Porosity           .            : 
Permeability       .nD          : 
SoPhi              .            : 
TensileStrength    .psi         : 
Grad_SigmaH        .psi/ft      : 
Grad_Sigma_h       .psi/ft      : 
Std_KICh           .psi*in^1/2  : 
Std_KICvup         .psi*in^1/2  : 
Std_KICvdown       .psi*in^1/2  : 
Std_nuh            .            : 
Std_Eh             .psi         : 
Std_nuv            .            : 
Std_Ev             .psi         : 
Std_Gv             .psi         : 
Std_Cl             .ft/min^1/2  : 
Std_Sigma_h        .psi         : 
Std_SigmaH         .psi         : 
Std_SigmaV         .psi         : 
Std_Pore Pressure  .psi         : 
Std_Biot           .            : 
Std_Porosity       .            : 
Std_Permeability   .nD          : 
Std_SoPhi          .            : 
Std_TensileStrength.psi         : 
Std_Depth          .ft          : 
~Params ----------------------------------------------------
~Other -----------------------------------------------------
Exported from homogenization method
~ASCII -----------------------------------------------------
# ...
 7137.9643000000 2696.7731275523 3905.7924807460 3557.3068634559 0.2160072737 6861199.6462978236 0.2032116059 5543770.3808061015 2303607.2926857108 0.0007653800 4958.7965358729 5523.0365527260 7492.3952959466 3925.7432022705 0.9000000000 0.0525513112 1207.3001931491 0.0000000000 1592.1063558140 0.7737551381 0.6947073882 20.2570211812 20.2570211812 20.2570211812 0.0053814828 110432.2281145896 0.0051979482 103030.3305655582 50803.0983865669 0.0000836232 0.1332673025 0.1335106348 0.0000000000 1469.6370363373 0.0000000000 0.0009156904 12.9435448648 0.0000000000 19.4979493836 7137.9643000000
 7152.9214500000 2747.0860506098 21694.3695977852 20695.7182182330 0.2626646570 7647592.8288945071 0.2481517149 6557774.2892809398 2621792.1786133661 0.0006152987 5313.9784273354 5919.6493619159 7509.2199057647 3933.9695679644 0.9000000000 0.0347752940 527.2080589869 0.0000000000 1790.9534755196 0.8275848411 0.7429102171 20.2307231217 20.2307231217 20.2307231217 0.0053814122 110381.9128555671 0.0052205766 104577.5621055425 52360.1073608373 0.0000609536 0.1353573866 0.1355236346 0.0000000000 1600.6919560352 0.0000000000 0.0009152808 12.9080970761 0.0000000000 19.3125496997 7152.9214500000
 7167.8785500000 2723.8595422107 4274.9015478937 4244.7256235120 0.2390993576 7184833.1070869872 0.2198637579 5752643.7167649986 2353386.5470614345 0.0008002422 5165.8952576249 5745.7384367115 7526.1487757965 3942.1959052891 0.9000000000 0.0441962447 879.2855965579 0.0000000000 1678.2010703176 0.8015953949 0.7207007236 20.1924521197 20.1924521197 20.1924521197 0.0053814054 110308.6910216809 0.0052988364 109072.8411102125 56269.7256790922 0.0000615851 0.1365715229 0.1367359713 0.0000000000 1615.6832423794 0.0000000000 0.0009146481 12.8523535839 0.0000000000 19.0426981455 7167.8785500000
 7182.8357000000 2848.5685390294 19902.5845572420 20635.7158382050 0.2828486404 8142753.3405697821 0.2670775194 7475745.2335404083 2944020.9894827446 0.0005760904 5423.3256893733 6058.0656800731 7543.0680450491 3950.4222698767 0.9000000000 0.0330097530 427.9482538850 0.0000000000 1863.7548372545 0.8434086387 0.7550396412 20.1681907994 20.1681907994 20.1681907994 0.0053813220 110262.2596139232 0.0053655743 111636.6102875988 58851.5975326423 0.0000620123 0.1374221107 0.1375853411 0.0000000000 1626.0153269306 0.0000000000 0.0009143894 12.8078532575 0.0000000000 18.8721131956 7182.8357000000
 7197.7928500000 2845.4235453383 18526.7858185027 20371.5765420722 0.2748658567 7952707.4035106963 0.2497810361 7023272.7402652111 2799848.4789195205 0.0007554241 5358.3294541333 5982.1368422941 7560.1983503177 3958.6486350964 0.9000000000 0.0368638592 564.0268650345 0.0000000000 1827.5350924647 0.8311071139 0.7444406314 20.2555235900 20.2555235900 20.2555235900 0.0053815107 110429.4289899187 0.0051220772 97293.0389915340 48378.5090887986 0.0000818821 0.1309312395 0.1311788873 0.0000000000 1442.0795751392 0.0000000000 0.0009155689 12.9762081848 0.0000000000 19.4850195358 7197.7928500000
 7212.7500000000 2727.6835418101 19882.5290092351 18414.5469095635 0.2509206252 7312550.8824430015 0.2251984186 5820679.0962315360 2365443.6826326405 0.0005243573 5279.3999710565 5863.9735031359 7577.0226568912 3966.8750000000 0.9000000000 0.0397716921 748.7326522324 0.0000000000 1721.9024407959 0.8130010749 0.7319538277 20.1915319599 20.1915319599 20.1915319599 0.0053813039 110306.8904349327 0.0053288010 109944.9099755477 56532.5365357430 0.0000616537 0.1367105710 0.1368748474 0.0000000000 1617.3269228661 0.0000000000 0.0009147935 12.8313610842 0.0000000000 19.0376771328 7212.7500000000
 7227.7071500000 2811.6581383718 20279.0396018702 18770.3886845895 0.2703132051 7874187.6730638826 0.2526629989 6907556.9523211922 2748383.2503336971 0.0008429832 5392.5781284902 6012.4400366635 7594.0802968052 3975.1013649036 0.9000000000 0.0359872579 528.5050267931 0.0000000000 1812.4933398684 0.8318599401 0.7460980386 20.1702629852 20.1702629852 20.1702629852 0.0053813027 110266.2422924179 0.0053500207 110941.0825478865 58365.7469056986 0.0000619142 0.1372299945 0.1373934711 0.0000000000 1623.6646981270 0.0000000000 0.0009143607 12.8172521560 0.0000000000 18.8860454297 7227.7071500000
 7242.6643000000 2867.7838678316 4624.5336576499 5132.4841253649 0.2754079588 8080841.5532221338 0.2586280473 7550190.2418901445 2991916.2398129874 0.0002249751 5363.7545602543 5997.3433267082 7611.0926167534 3983.3277301233 0.9000000000 0.0366271183 472.6181323740 0.0000000000 1863.1247592288 0.8280576150 0.7405775469 20.2286743185 20.2286743185 20.2286743185 0.0053822934 110378.1775953344 0.0051238576 102640.6820826150 52588.7825507377 0.0000840034 0.1337338959 0.1339760338 0.0000000000 1475.4364091852 0.0000000000 0.0009147689 12.9007083758 0.0000000000 19.2916906772 7242.6643000000
 7257.6214500000 2711.1904135308 18563.6707966405 16480.1603434666 0.2283900160 6292756.0452053491 0.1814767190 4442671.4026296586 1869199.5446576714 0.0008337058 5088.3641055863 5600.6408225365 7627.7825507042 3991.5540947109 0.9000000000 0.0507947853 1221.7379196895 0.0000000000 1592.2193854814 0.7716909543 0.7011062978 20.2116395070 20.2116395070 20.2116395070 0.0053817331 110345.4774754642 0.0052100820 102460.6367901685 51981.3307280625 0.0000607379 0.1349684439 0.1351349978 0.0000000000 1595.6903872865 0.0000000000 0.0009149399 12.8902452444 0.0000000000 19.1752802486 7257.6214500000
 7272.5785500000 2757.4136694890 19006.8754252772 20211.4412349774 0.2736594209 7429755.8911899384 0.2273434062 5685441.4129415285 2296983.7422274416 0.0005505976 5473.9379836005 6057.2772789489 7644.6933209099 3999.7804320356 0.9000000000 0.0341798980 658.9083677772 0.0000000000 1785.7662470226 0.8328926580 0.7526818646 20.3201747137 20.3201747137 20.3201747137 0.0053817980 110553.3553266841 0.0048804975 83074.3971400277 39970.4655318936 0.0000969687 0.1309309814 0.1311712545 0.0000000000 1502.5375529249 0.0000000000 0.0009164482 13.1919007159 0.0000000000 19.9327568431 7272.5785500000
 7287.5357000000 2551.2832459631 4056.8934834116 2936.3931165321 0.2028168262 5965259.3514849329 0.1795488361 3874276.8177658808 1641870.4639456370 0.0008846528 5139.3813981522 5635.3221949138 7661.5006005574 4008.0067977295 0.9000000000 0.0493961621 1414.0488347198 0.0000000000 1512.6378479420 0.7732822763 0.7052289841 20.6716686945 20.6716686945 20.6716686945 0.0054734344 112451.1520170592 0.0050203210 82933.3767371141 40108.8191889166 0.0000982458 0.1329341445 0.1331790162 0.0000000000 1524.2016232432 0.0000000000 0.0009324722 13.4514280310 0.0000000000 20.3029800091 7287.5357000000
 7302.4928500000 2635.5954346831 22977.7885332057 20341.3164268403 0.2383409772 6857116.5578046413 0.2061401291 4960529.1582206627 2044006.0786550515 0.0005804852 5308.2570273829 5861.9911510377 7678.3256066463 4016.2336876801 0.9000000000 0.0396102452 883.4931935614 0.0000000000 1672.3033135688 0.8027383623 0.7269102670 20.2222901544 20.2222901544 20.2222901544 0.0053812716 110365.7073544457 0.0053480214 110224.4140100209 54726.3762701633 0.0000615145 0.1364420243 0.1366068848 0.0000000000 1613.9911911878 0.0000000000 0.0009154545 12.8486914545 0.0000000000 19.2556576352 7302.4928500000
 7317.4500000000 2708.6805476391 19503.3391741013 20561.7836866007 0.2611645580 7668659.9459897699 0.2545980057 6784240.3387713060 2698608.9953575474 0.0007727989 5423.6239062308 6031.6857089055 7695.4461037741 4024.4603147648 0.9000000000 0.0323234503 448.5692517655 0.0000000000 1800.3159914819 0.8242879294 0.7411904292 20.2163785553 20.2163785553 20.2163785553 0.0053812753 110354.3821996287 0.0053601240 113800.6918389932 56389.8775055285 0.0000618889 0.1370947408 0.1372587673 0.0000000000 1622.4595981153 0.0000000000 0.0009153832 12.8351043050 0.0000000000 19.2145217973 7317.4500000000
 7332.4071500000 2666.8465261090 20291.4834184846 20664.9700985658 0.2469774834 7349672.6038552448 0.2445078039 6182229.6047208402 2483194.7183214561 0.0005802649 5398.8917680743 5988.2907509447 7712.6226177417 4032.6866804060 0.9000000000 0.0354849588 558.3759978886 0.0000000000 1745.0797869373 0.8166882483 0.7363055075 20.2240421964 20.2240421964 20.2240421964 0.0053812614 110369.0253492900 0.0053819916 116054.8374126040 57434.1930346114 0.0000621802 0.1376380790 0.1378015234 0.0000000000 1629.3104526228 0.0000000000 0.0009154344 12.8400877597 0.0000000000 19.2692416819 7332.4071500000
