~Version ---------------------------------------------------
VERS.   2.0 : CWLS log ASCII Standard -VERSION 2.0
WRAP.    NO : One line per depth step
DLM . SPACE : Column Data Section Delimiter
~Well ------------------------------------------------------
STRT.ft                 5533.575 : START DEPTH
STOP.ft        7763.808250000001 : STOP DEPTH
STEP.ft       14.590000000000146 : STEP
NULL.                   -9999.25 : NULL VALUE
COMP.                            : COMPANY
WELL.                     bypass : WELL
FLD .                            : FIELD
LOC .                            : LOCATION
PROV.                            : PROVINCE
CNTY.                            : COUNTY
STAT.                            : STATE
CTRY.                            : COUNTRY
SRVC.                            : SERVICE COMPANY
DATE. 2019-07-30 20:43:20.008820 : DATE
UWI .                            : UNIQUE WELL ID
API .                            : API NUMBER
~Curve Information -----------------------------------------
Depth              .ft          : 
KICh               .psi*in^1/2  : 
KICvup             .psi*in^1/2  : 
KICvdown           .psi*in^1/2  : 
nuh                .            : 
Eh                 .psi         : 
nuv                .            : 
Ev                 .psi         : 
Gv                 .psi         : 
Cl                 .ft/min^1/2  : 
Sigma_h            .psi         : 
SigmaH             .psi         : 
SigmaV             .psi         : 
Pore Pressure      .psi         : 
Biot               .            : 
Porosity           .            : 
Permeability       .nD          : 
SoPhi              .            : 
TensileStrength    .psi         : 
Grad_SigmaH        .psi/ft      : 
Grad_Sigma_h       .psi/ft      : 
Std_KICh           .psi*in^1/2  : 
Std_KICvup         .psi*in^1/2  : 
Std_KICvdown       .psi*in^1/2  : 
Std_nuh            .            : 
Std_Eh             .psi         : 
Std_nuv            .            : 
Std_Ev             .psi         : 
Std_Gv             .psi         : 
Std_Cl             .ft/min^1/2  : 
Std_Sigma_h        .psi         : 
Std_SigmaH         .psi         : 
Std_SigmaV         .psi         : 
Std_Pore Pressure  .psi         : 
Std_Biot           .            : 
Std_Porosity       .            : 
Std_Permeability   .nD          : 
Std_SoPhi          .            : 
Std_TensileStrength.psi         : 
Std_Depth          .ft          : 
~Params ----------------------------------------------------
~Other -----------------------------------------------------
Exported from homogenization method
~ASCII -----------------------------------------------------
# ...
 6950.1550000000 2721.7413556777 5804.1164598249 4261.5053393463 0.2410998718 7824132.6912216386 0.1993680863 5724820.3733587395 2376163.5593138919 0.0008094575 4578.6605026367 5209.0797677746 7281.2307825712 3057.9586558750 0.9000000000 0.0456683501 1049.1678888369 0.0000000000 1650.6134348254 0.7494911650 0.6587853800 22.1450528801 22.1450528801 22.1450528801 0.0058949602 120885.4955494539 0.0058039856 121781.9345635695 63502.7726869381 0.0000678991 0.1504242598 0.1506036408 0.0000000000 1780.2059811042 0.0000000000 0.0010024150 14.0823894548 0.0000000000 21.0418591098 6950.1550000000
 6962.5720500000 2745.8187862193 3728.6530927880 4303.3542072845 0.2387887531 8001496.8338461164 0.2266451107 6669139.5261004036 2715188.2528495858 0.0007371562 4580.8170915428 5226.7300298031 7295.2194708210 3063.4219136513 0.9000000000 0.0447818209 838.7866446360 0.0000000000 1685.5203071204 0.7506895429 0.6579202425 22.6484488696 22.6484488696 22.6484488696 0.0060168358 123467.7445334438 0.0057838387 120360.2924076084 60087.6902315438 0.0000953982 0.1514423942 0.1517100631 0.0000000000 1672.6072688260 0.0000000000 0.0010235431 14.4665955672 0.0000000000 21.8031760596 6962.5720500000
 6974.9891000000 2752.9536042892 4460.4627706235 3677.9592014842 0.2422232769 7988036.0912809363 0.2297270547 6793183.8362737671 2759089.5789953801 0.0003758618 4588.5291421430 5231.5726464612 7309.0803713030 3068.8851719417 0.9000000000 0.0440434835 812.6626802577 0.0000000000 1700.7709217763 0.7500474297 0.6578546685 22.1127678928 22.1127678928 22.1127678928 0.0058949380 120823.7405894298 0.0058729379 124867.7392539842 66568.4109771235 0.0000684217 0.1514549092 0.1516328020 0.0000000000 1792.8048456741 0.0000000000 0.0010019177 14.0427057464 0.0000000000 20.8137200404 6974.9891000000
 6987.4061500000 2753.9043222573 22459.5733135810 23694.9103891272 0.2556104366 8273231.8258425854 0.2336086887 6903776.1644533947 2790103.3007782483 0.0009782414 4706.5952787171 5365.4964462208 7323.1298602844 3074.3484303098 0.9000000000 0.0390992165 678.5548607165 0.0000000000 1754.3876873355 0.7678810035 0.6735826110 22.1917649043 22.1917649043 22.1917649043 0.0058950507 120974.9439423351 0.0057069800 116307.2499759058 58435.2518866269 0.0000931588 0.1480952292 0.1483580155 0.0000000000 1634.7454746019 0.0000000000 0.0010031013 14.1851279061 0.0000000000 21.3684427763 6987.4061500000
 6999.8232500000 2773.1938133343 4586.9031349236 3822.3548411980 0.2515352729 8381315.5403996753 0.2447103851 7470051.2188989297 2996975.3360802424 0.0006630240 4671.5944902424 5341.2772168707 7337.1318079361 3079.8117107859 0.9000000000 0.0404057602 631.8101235346 0.0000000000 1753.2100313104 0.7630588696 0.6673874930 22.1144692075 22.1144692075 22.1144692075 0.0058949591 120826.9837280012 0.0058850483 128482.1228849694 68415.0847918718 0.0000688862 0.1522945135 0.1524714402 0.0000000000 1803.5512740810 0.0000000000 0.0010018855 14.0440649824 0.0000000000 20.8261524683 6999.8232500000
 7012.2403000000 2811.0661727068 4143.2101552402 4268.0125839338 0.2528443589 8163363.6401588609 0.2407412531 7189435.6420832789 2891985.9280151250 0.0007038364 4670.8133438745 5322.3997586031 7351.1292948407 3085.2758753322 0.9000000000 0.0426355003 699.0160643828 0.0000000000 1746.3299008161 0.7590155971 0.6660943071 22.1445474919 22.1445474919 22.1445474919 0.0058950212 120884.5868208252 0.0057563058 119604.3566490863 62110.5751442997 0.0000675939 0.1498252027 0.1500052942 0.0000000000 1772.8698057898 0.0000000000 0.0010023965 14.1025406479 0.0000000000 21.0361644873 7012.2403000000
 7024.6573500000 2819.2290689045 4678.6395660268 5095.9555567533 0.2702533265 8664516.2720610555 0.2513702310 7612018.8201596579 3033797.8082885817 0.0007022872 4831.3791981072 5513.4885137248 7365.1535879186 3090.7396962254 0.9000000000 0.0367516653 562.5908336230 0.0000000000 1804.9825577203 0.7848765056 0.6877743579 22.1276211469 22.1276211469 22.1276211469 0.0058950752 120852.1771040368 0.0058013597 120964.8856799477 64204.8902673303 0.0000679157 0.1504813227 0.1506604859 0.0000000000 1780.7741042196 0.0000000000 0.0010020095 14.0752508953 0.0000000000 20.9177790697 7024.6573500000
 7037.0744000000 2743.0803412865 4398.0106588746 4745.9976504876 0.2423340282 7647709.1552838152 0.2028706266 5784520.0750853196 2394636.9979210724 0.0006746289 4609.1802104428 5224.7722317082 7379.1750627519 3096.2029548200 0.9000000000 0.0463862192 1042.5027184651 0.0000000000 1660.9932982006 0.7424636908 0.6549852891 22.6704019415 22.6704019415 22.6704019415 0.0060171208 123509.9757794310 0.0056191649 108396.5698247736 54919.0318571812 0.0000917933 0.1466056726 0.1468824027 0.0000000000 1615.5744654203 0.0000000000 0.0010237667 14.5903863449 0.0000000000 21.9499541198 7037.0744000000
 7049.4914500000 2697.6189165563 4165.9087234928 4081.6332163830 0.2312400924 7249325.1526042083 0.2043479418 5516176.6052698735 2281974.4653121764 0.0007545722 4592.9857014142 5181.7681166051 7393.0198100294 3130.0121761789 0.9000000000 0.0466827950 1047.0075962322 0.0000000000 1634.1543359440 0.7350555928 0.6515343318 21.0386621539 21.0386621539 21.0386621539 0.0055708412 114443.7400110496 0.0050882784 86803.5597711431 42314.0792475107 0.0001011041 0.1364523175 0.1366993946 0.0000000000 1566.2097498161 0.0000000000 0.0009485334 13.7116073200 0.0000000000 20.6683120695 7049.4914500000
 7063.1785500000 2610.3638105948 5939.3523093930 4264.5253732632 0.2198021056 6523661.6862432072 0.1758531313 4244311.2436781637 1792317.6645225510 0.0006146972 4660.7452680983 5195.5583870494 7408.2337301655 3306.7478256157 0.9000000000 0.0474510937 1298.9533081465 0.0000000000 1570.8035231261 0.7355836116 0.6598651351 20.2222862775 20.2222862775 20.2222862775 0.0053814720 110365.7895317571 0.0052449539 106475.7131988255 54203.8263619167 0.0000612682 0.1359622846 0.1361277204 0.0000000000 1608.1934847504 0.0000000000 0.0009151830 12.8945372684 0.0000000000 19.2524738181 7063.1785500000
 7078.1357000000 2764.1440142886 20539.7855925699 22257.2659416338 0.2644874412 7952886.1596166864 0.2478455702 6797645.6623608004 2718171.5090082688 0.0008808218 5111.0157443776 5739.9572348744 7425.1886338608 3588.2808949972 0.9000000000 0.0358106176 562.8883416720 0.0000000000 1786.6920085228 0.8109419596 0.7220850180 20.2560598698 20.2560598698 20.2560598698 0.0053815950 110430.4632347162 0.0051210775 101504.4188107516 50722.7682803241 0.0000832987 0.1327610137 0.1330052581 0.0000000000 1464.0808643319 0.0000000000 0.0009155321 12.9829195393 0.0000000000 19.4885798222 7078.1357000000
 7093.0928500000 2643.5761397787 21185.9962707903 20862.8352567751 0.2245467462 6864189.5230772234 0.2027750604 4926314.7692570398 2044656.9532378882 0.0006003557 5062.9831054023 5623.5325122947 7442.0273407943 3827.9510010874 0.9000000000 0.0451901199 1060.4544290189 0.0000000000 1612.8627719885 0.7928181163 0.7137906147 20.2661050830 20.2661050830 20.2661050830 0.0053814261 110449.6190376379 0.0052156556 99643.6288468358 48547.1325676590 0.0000824147 0.1317253288 0.1319716110 0.0000000000 1450.9861118487 0.0000000000 0.0009159771 12.9509163321 0.0000000000 19.5615921152 7093.0928500000
 7108.0500000000 2699.5113360227 21116.0014737860 20989.1616735710 0.2375492910 6985237.3967625536 0.2266793282 5740331.6786345504 2338211.5114841606 0.0009338414 5119.5598310435 5684.0009767359 7458.9233322363 3908.7909040155 0.9000000000 0.0419977539 806.5519424994 0.0000000000 1691.6155709573 0.7996568646 0.7202481456 20.2339820837 20.2339820837 20.2339820837 0.0053815022 110388.0864814105 0.0052943495 110930.0556047056 54750.3600377157 0.0000615739 0.1364870483 0.1366519466 0.0000000000 1615.0058012764 0.0000000000 0.0009153928 12.8771377997 0.0000000000 19.3377481225 7108.0500000000
 7123.0071500000 2719.2681516546 3706.3172538919 4657.3010735021 0.2425493762 7409401.3681197036 0.2261571007 6105002.5884395111 2486666.5615050318 0.0002691542 5148.0383965773 5744.3447896968 7475.8496794428 3917.5163123199 0.9000000000 0.0422835084 826.4116347533 0.0000000000 1697.5570282009 0.8064493926 0.7227338522 20.6066925509 20.6066925509 20.6066925509 0.0054740918 112326.5528437955 0.0052340412 107982.8890076229 53380.3853962971 0.0000860465 0.1367229360 0.1369683195 0.0000000000 1509.4975300695 0.0000000000 0.0009309559 13.1550746441 0.0000000000 19.8548457957 7123.0071500000
