~Version ---------------------------------------------------
VERS.   2.0 : CWLS log ASCII Standard -VERSION 2.0
WRAP.    NO : One line per depth step
DLM . SPACE : Column Data Section Delimiter
~Well ------------------------------------------------------
STRT.ft       6025.5836500000005 : START DEPTH
STOP.ft               8231.95595 : STOP DEPTH
STEP.ft       14.389099999999416 : STEP
NULL.                   -9999.25 : NULL VALUE
COMP.                            : COMPANY
WELL.                     bypass : WELL
FLD .                            : FIELD
LOC .                            : LOCATION
PROV.                            : PROVINCE
CNTY.                            : COUNTY
STAT.                            : STATE
CTRY.                            : COUNTRY
SRVC.                            : SERVICE COMPANY
DATE. 2019-07-30 20:43:31.832888 : DATE
UWI .                            : UNIQUE WELL ID
API .                            : API NUMBER
~Curve Information -----------------------------------------
Depth              .ft          : 
KICh               .psi*in^1/2  : 
KICvup             .psi*in^1/2  : 
KICvdown           .psi*in^1/2  : 
nuh                .            : 
Eh                 .psi         : 
nuv                .            : 
Ev                 .psi         : 
Gv                 .psi         : 
Cl                 .ft/min^1/2  : 
Sigma_h            .psi         : 
SigmaH             .psi         : 
SigmaV             .psi         : 
Pore Pressure      .psi         : 
Biot               .            : 
Porosity           .            : 
Permeability       .nD          : 
SoPhi              .            : 
TensileStrength    .psi         : 
Grad_SigmaH        .psi/ft      : 
Grad_Sigma_h       .psi/ft      : 
Std_KICh           .psi*in^1/2  : 
Std_KICvup         .psi*in^1/2  : 
Std_KICvdown       .psi*in^1/2  : 
Std_nuh            .            : 
Std_Eh             .psi         : 
Std_nuv            .            : 
Std_Ev             .psi         : 
Std_Gv             .psi         : 
Std_Cl             .ft/min^1/2  : 
Std_Sigma_h        .psi         : 
Std_SigmaH         .psi         : 
Std_SigmaV         .psi         : 
Std_Pore Pressure  .psi         : 
Std_Biot           .            : 
Std_Porosity       .            : 
Std_Permeability   .nD          : 
Std_SoPhi          .            : 
Std_TensileStrength.psi         : 
Std_Depth          .ft          : 
~Params ----------------------------------------------------
~Other -----------------------------------------------------
Exported from homogenization method
~ASCII -----------------------------------------------------
# ...
 6852.3712000000 2643.5358160178 3349.4604043213 2981.4031203862 0.2104984696 5907334.4591822755 0.2026904612 4396515.3832535418 1824828.9978336236 0.0004467662 4365.6088458911 4853.6172661998 7125.5910442465 3015.0158253052 0.9000000000 0.0475965469 1492.0953327664 0.0000000000 1616.7101768006 0.7083120754 0.6370946229 9.3638218383 9.3638218383 9.3638218383 0.0059587957 59587.9571531131 0.0058059374 44376.5520424595 20368.1667488240 0.0000851578 0.1053896651 0.1054082017 0.0000000000 1206.7435110201 0.0000000000 0.0008512565 8.5125653076 0.0000000000 8.5125653076 6852.3712000000
 6869.6229500000 2712.6664727690 4082.2176331683 4340.6485635193 0.2224290362 6540772.8001488224 0.2075890007 5258191.1006342880 2154533.6414158535 0.0005658180 4342.6820538972 4877.7456532327 7144.8608669158 3022.6065953790 0.9000000000 0.0454989813 1250.4619300552 0.0000000000 1677.6703897522 0.7100456151 0.6321572647 9.3638218383 9.3638218383 9.3638218383 0.0059587957 59587.9571531136 0.0059577641 57201.6637388811 27077.9170413717 0.0000553589 0.1101502310 0.1101259082 0.0000000000 1288.2669207313 0.0000000000 0.0008512565 8.5125653076 0.0000000000 8.5125653076 6869.6229500000
 6886.8747000000 2747.2431361341 3612.0615987056 3199.1002779741 0.2271486847 7228279.4139561066 0.2247775658 6928235.4479966387 2826142.3922210145 0.0003646995 4246.6588286830 4835.6892782050 7164.1189008308 3030.1973670574 0.9000000000 0.0447304497 1049.3523821886 0.0000000000 1735.0402683743 0.7021601944 0.6166307670 9.3300782265 9.3300782265 9.3300782265 0.0059373225 59373.2250775992 0.0059373225 58488.6110132918 27686.6251071808 0.0000553128 0.1099814101 0.1099572253 0.0000000000 1286.6196333862 0.0000000000 0.0008481889 8.4818892968 0.0000000000 8.4818892968 6886.8747000000
 6904.1265000000 2781.4135738728 3144.2768056941 3616.0870663761 0.2346462395 7605244.1251616878 0.2341667237 7568565.6511499062 3065643.6479336335 0.0005745719 4290.7960727854 4906.7817601667 7183.4779042047 3037.7881628004 0.9000000000 0.0423518104 853.8289218380 0.0000000000 1783.5488683329 0.7107027602 0.6214828295 9.3638218383 9.3638218383 9.3638218383 0.0059587957 59587.9571531136 0.0059587957 59587.9571531120 28461.5048216277 0.0000556381 0.1105723058 0.1105480759 0.0000000000 1293.7718317598 0.0000000000 0.0008512565 8.5125653076 0.0000000000 8.5125653076 6904.1265000000
 6921.3782500000 2775.6905264555 5432.4331636454 4185.8537213118 0.2355662636 7649785.3948799642 0.2340704172 7615084.9912955388 3085531.9041901557 0.0004528152 4304.1698074121 4923.3017488161 7202.7551630579 3045.3789325690 0.9000000000 0.0422971319 892.1283431419 0.0000000000 1778.1426629730 0.7113181177 0.6218660001 9.3638218383 9.3638218383 9.3638218383 0.0059587957 59587.9571531136 0.0058248378 52708.9361697201 24789.4141887383 0.0000547259 0.1089357117 0.1089111178 0.0000000000 1273.9955765595 0.0000000000 0.0008512565 8.5125653076 0.0000000000 8.5125653076 6921.3782500000
 6938.6300000000 2723.5127789502 3921.4029815273 3548.4522756334 0.2229187181 6510953.5932720965 0.2029910328 5066384.6598403854 2090506.6135102641 0.0010036148 4402.5010181689 4934.9120032143 7222.0596217169 3052.9697026397 0.9000000000 0.0468182499 1370.0669953826 0.0000000000 1657.1499643466 0.7112228211 0.6344913936 9.3638218383 9.3638218383 9.3638218383 0.0059587957 59587.9571531136 0.0059482449 52905.9866388984 24701.4459895235 0.0000548885 0.1094279450 0.1094034617 0.0000000000 1278.9178168670 0.0000000000 0.0008512565 8.5125653076 0.0000000000 8.5125653076 6938.6300000000
 6955.8817500000 2807.2685432586 3849.7583466019 3966.0544642867 0.2455874916 7420041.7435947014 0.2357279565 6808793.7758532623 2741609.5522770556 0.0008709098 4476.2946126174 5072.0007989354 7241.4570539285 3060.5604724172 0.9000000000 0.0388254860 777.3080348658 0.0000000000 1806.0822828489 0.7291671971 0.6435265540 9.3638218383 9.3638218383 9.3638218383 0.0059587957 59587.9571531136 0.0059587957 56989.0037559075 26703.1229050820 0.0000553050 0.1100641553 0.1100398135 0.0000000000 1287.1667854884 0.0000000000 0.0008512565 8.5125653076 0.0000000000 8.5125653076 6955.8817500000
 6973.1335000000 2815.7118002566 3748.5965175301 4632.3503930909 0.2406365130 7005258.2028845148 0.2246735473 6203661.8311696202 2513670.5608181446 0.0004931722 4443.5607474070 5008.2110804685 7260.9486153159 3068.1512424790 0.9000000000 0.0421029363 1001.5196201146 0.0000000000 1761.1784859471 0.7182152874 0.6372401658 9.3638218383 9.3638218383 9.3638218383 0.0059587957 59587.9571531136 0.0059360221 57203.3888793253 26801.3544387392 0.0000552955 0.1100022434 0.1099778879 0.0000000000 1286.6473467326 0.0000000000 0.0008512565 8.5125653076 0.0000000000 8.5125653076 6973.1335000000
 6990.3853000000 2815.5982939200 3358.9004298899 3700.3013795729 0.2443754730 7264167.4771008734 0.2327811356 6442605.2547775796 2594675.7047613128 0.0008753243 4524.2642931515 5108.0243908780 7280.3280157641 3075.7420343964 0.9000000000 0.0400721210 833.7643284878 0.0000000000 1789.0598168762 0.7307214369 0.6472124352 9.3638218383 9.3638218383 9.3638218383 0.0059587957 59587.9571531136 0.0059478069 53793.9578442320 25070.0569969798 0.0000549653 0.1095381005 0.1095136418 0.0000000000 1280.3869796124 0.0000000000 0.0008512565 8.5125653076 0.0000000000 8.5125653076 6990.3853000000
 7007.6370500000 2810.2862966811 4274.6417623300 4063.6876858148 0.2483663555 7421506.1868022410 0.2388491317 6809810.1454338972 2735427.4379837709 0.0007891403 4538.4938179387 5132.9912708619 7299.7650632148 3083.3328041874 0.9000000000 0.0380220247 755.9964260597 0.0000000000 1806.6016074624 0.7324853205 0.6476496693 9.3638218383 9.3638218383 9.3638218383 0.0059587957 59587.9571531136 0.0059587957 57334.3496311089 26735.7779955271 0.0000553233 0.1100869724 0.1100626357 0.0000000000 1287.4912389144 0.0000000000 0.0008512565 8.5125653076 0.0000000000 8.5125653076 7007.6370500000
 7024.8888000000 2824.9151713359 3927.1753879853 4219.5332155130 0.2576561253 7738177.4162401976 0.2536603787 7513995.2620788412 2991616.4074103911 0.0007759866 4592.1705243712 5207.4561545469 7319.4202676884 3090.9235742357 0.9000000000 0.0334788860 530.5402632825 0.0000000000 1866.0022654549 0.7412866314 0.6537001019 9.3638218383 9.3638218383 9.3638218383 0.0059587957 59587.9571531136 0.0059585292 56581.7504072641 26379.1847577970 0.0000552480 0.1099757366 0.1099513753 0.0000000000 1286.0265259199 0.0000000000 0.0008512565 8.5125653076 0.0000000000 8.5125653076 7024.8888000000
 7042.1406000000 2819.6064251539 5555.6898421119 5691.9025610808 0.2604138977 7702952.5229094252 0.2500828206 7131334.2447559955 2838588.4605039405 0.0006860586 4668.6984289829 5279.8431122652 7339.1159844678 3103.4187222035 0.9000000000 0.0329645823 577.5750172578 0.0000000000 1853.0788707262 0.7497497440 0.6629658074 9.3638218383 9.3638218383 9.3638218383 0.0059587957 59587.9571531136 0.0059574841 58331.3778419536 27280.1752935106 0.0000554312 0.1102452991 0.1102209974 0.0000000000 1289.5846737149 0.0000000000 0.0008512565 8.5125653076 0.0000000000 8.5125653076 7042.1406000000
 7059.3923500000 2829.6595422637 3846.4415254312 3756.6729300123 0.2574180612 7636443.7077206103 0.2539761817 7526957.5613251179 2997793.8569585686 0.0005060505 4674.2427375395 5281.5541754222 7358.8202253182 3250.4899007606 0.9000000000 0.0343349109 565.2146466298 0.0000000000 1856.4103356832 0.7481598859 0.6621310314 9.3638218383 9.3638218383 9.3638218383 0.0059587957 59587.9571531136 0.0059465026 57472.7736833557 26774.0888120962 0.0000553173 0.1100514479 0.1100271033 0.0000000000 1287.1877655043 0.0000000000 0.0008512565 8.5125653076 0.0000000000 8.5125653076 7059.3923500000
 7076.6441000000 2793.4642003029 19824.9366862640 20817.2770176588 0.2504695086 7234991.7996896747 0.2337717711 6415278.6353048012 2577822.9128754181 0.0008775720 4867.5997078529 5446.1817324196 7378.4665507945 3562.9273316925 0.9000000000 0.0361023673 719.2983695710 0.0000000000 1818.2808946484 0.7695994960 0.6878401173 9.6476382124 9.6476382124 9.6476382124 0.0061394061 61394.0613514933 0.0061026612 53282.7468576116 24531.0060194090 0.0000563663 0.1124073576 0.1123820565 0.0000000000 1313.6204709823 0.0000000000 0.0008770580 8.7705801931 0.0000000000 8.7705801931 7076.6441000000
