~Version ---------------------------------------------------
VERS.   2.0 : CWLS log ASCII Standard -VERSION 2.0
WRAP.    NO : One line per depth step
DLM . SPACE : Column Data Section Delimiter
~Well ------------------------------------------------------
STRT.ft               5683.82875 : START DEPTH
STOP.ft        7698.577649999999 : STOP DEPTH
STEP.ft       15.128450000000157 : STEP
NULL.                   -9999.25 : NULL VALUE
COMP.                            : COMPANY
WELL.                     bypass : WELL
FLD .                            : FIELD
LOC .                            : LOCATION
PROV.                            : PROVINCE
CNTY.                            : COUNTY
STAT.                            : STATE
CTRY.                            : COUNTRY
SRVC.                            : SERVICE COMPANY
DATE. 2019-07-30 20:43:20.519169 : DATE
UWI .                            : UNIQUE WELL ID
API .                            : API NUMBER
~Curve Information -----------------------------------------
Depth              .ft          : 
KICh               .psi*in^1/2  : 
KICvup             .psi*in^1/2  : 
KICvdown           .psi*in^1/2  : 
nuh                .            : 
Eh                 .psi         : 
nuv                .            : 
Ev                 .psi         : 
Gv                 .psi         : 
Cl                 .ft/min^1/2  : 
Sigma_h            .psi         : 
SigmaH             .psi         : 
SigmaV             .psi         : 
Pore Pressure      .psi         : 
Biot               .            : 
Porosity           .            : 
Permeability       .nD          : 
SoPhi              .            : 
TensileStrength    .psi         : 
Grad_SigmaH        .psi/ft      : 
Grad_Sigma_h       .psi/ft      : 
Std_KICh           .psi*in^1/2  : 
Std_KICvup         .psi*in^1/2  : 
Std_KICvdown       .psi*in^1/2  : 
Std_nuh            .            : 
Std_Eh             .psi         : 
Std_nuv            .            : 
Std_Ev             .psi         : 
Std_Gv             .psi         : 
Std_Cl             .ft/min^1/2  : 
Std_Sigma_h        .psi         : 
Std_SigmaH         .psi         : 
Std_SigmaV         .psi         : 
Std_Pore Pressure  .psi         : 
Std_Biot           .            : 
Std_Porosity       .            : 
Std_Permeability   .nD          : 
Std_SoPhi          .            : 
Std_TensileStrength.psi         : 
Std_Depth          .ft          : 
~Params ----------------------------------------------------
~Other -----------------------------------------------------
Exported from homogenization method
~ASCII -----------------------------------------------------
# ...
 6520.8927500000 2910.7455055931 3780.9554453966 3795.7007204211 0.2130197958 6096992.3100746274 0.2072669755 5928152.1786204260 2452966.0251996196 0.0006565524 3767.0209484383 4269.6501991100 6769.9212964079 2738.6693179255 0.9000000000 0.0645720814 1536.9050969629 0.0000000000 1621.0343464705 0.6547646715 0.5776848497 19.8701962015 19.8701962015 19.8701962015 0.0158847057 108526.4982671979 0.0158847057 108526.4982671916 56238.1363986175 0.0001474128 0.2550675226 0.2548431863 0.0000000000 2474.5063065029 0.0000000000 0.0017985645 12.6226864048 0.0000000000 18.7798390724 6520.8927500000
 6536.0538500000 2882.0893036010 3433.0131896956 3878.2594277882 0.2179559198 6350821.1615790511 0.2162418412 6272983.9969787598 2578221.3118836451 0.0005415079 3823.9855184567 4345.4182779199 6786.1915341839 2745.0381225637 0.9000000000 0.0606505680 1309.9602209611 0.0000000000 1653.7923120631 0.6648382002 0.5850602835 20.2411947861 20.2411947861 20.2411947861 0.0161472788 110401.9226652300 0.0155305073 104665.9710353754 51807.1795329289 0.0001461221 0.2526170627 0.2523832954 0.0000000000 2451.2665910992 0.0000000000 0.0018295746 12.9003152328 0.0000000000 19.3873006218 6536.0538500000
 6551.2150000000 2701.7976870614 4350.9874957279 3822.8775890782 0.2140391618 6316864.3345277552 0.1983870271 4918331.9947851310 2050618.2712049026 0.0006272398 4020.5432180619 4540.8612220496 6802.6306167643 2751.4054562963 0.9000000000 0.0534133347 1261.9357885466 0.0000000000 1577.2962819950 0.6931326818 0.6137095513 20.2739392704 20.2739392704 20.2739392704 0.0161454471 110464.6111162693 0.0155335089 101020.5994617682 49258.3234030472 0.0001253779 0.2378335017 0.2375707554 0.0000000000 2517.6290394460 0.0000000000 0.0018312385 12.9735913457 0.0000000000 19.6166815760 6551.2150000000
 6566.3761500000 2664.2138664874 3674.8798452361 3440.4746809589 0.2144861820 6511501.0214817841 0.2047039080 5158044.1091687754 2139889.3175687487 0.0006283237 4055.3425689626 4591.4953155169 6819.3943444021 2757.7724200091 0.9000000000 0.0498727512 1115.2342378964 0.0000000000 1605.0815888428 0.6992434199 0.6175921812 19.9218172805 19.9218172805 19.9218172805 0.0158821810 108625.3184811066 0.0155372317 106874.7086207830 52208.6338322282 0.0001249780 0.2368433022 0.2365878742 0.0000000000 2507.9885628324 0.0000000000 0.0018010327 12.7121077099 0.0000000000 19.1417089620 6566.3761500000
 6581.5372500000 2749.1348135233 3748.6614547631 3596.5878959296 0.2303205496 6786709.8984169085 0.2234211886 5980743.2940015597 2440444.3535351660 0.0005349400 4085.1848055533 4636.8060802488 6836.2768705160 2764.1409947167 0.9000000000 0.0480179163 908.3638449653 0.0000000000 1676.3964475924 0.7045171826 0.6207037430 20.2173226774 20.2173226774 20.2173226774 0.0161451169 110356.1916680241 0.0159601258 111633.1491251090 55775.6630675865 0.0001280091 0.2425348117 0.2422768400 0.0000000000 2568.4297305272 0.0000000000 0.0018294924 12.8689576047 0.0000000000 19.2210621169 6581.5372500000
 6596.6983500000 2827.0400306310 3668.1941525011 4494.1217694869 0.2244364405 6405169.0500735799 0.2164656761 5913195.8032501964 2427740.5590238250 0.0005828985 3962.8034326722 4485.9150322657 6852.9826673959 2770.5085375072 0.9000000000 0.0556660285 1161.1528531623 0.0000000000 1648.7106520538 0.6800242779 0.6007252753 20.2390353867 20.2390353867 20.2390353867 0.0161461413 110397.7297877831 0.0158462462 114869.8125558247 55438.4525771585 0.0001279518 0.2420421850 0.2417837639 0.0000000000 2564.7047395956 0.0000000000 0.0018298950 12.8860972051 0.0000000000 19.3742535237 6596.6983500000
 6611.8594500000 2750.5863936547 3471.9862611626 3131.9189059397 0.2324074923 6822434.2851080410 0.2261473807 6007669.6037208987 2446058.3144900268 0.0005448092 4129.0608320442 4682.6467464277 6869.6301012845 2776.8754805390 0.9000000000 0.0471534953 877.2198946033 0.0000000000 1681.0070355459 0.7082193416 0.6244931344 20.2224577587 20.2224577587 20.2224577587 0.0161444879 110366.0026819965 0.0159594136 112821.7049150564 55515.5465589192 0.0001280518 0.2425561876 0.2422983032 0.0000000000 2568.8748822826 0.0000000000 0.0018299721 12.8662744985 0.0000000000 19.2577577646 6611.8594500000
 6626.5925000000 2769.0764231798 3183.5770364740 3102.0398086538 0.2385505572 6676513.3325177180 0.2327285557 5908150.0786424112 2394265.9435275765 0.0002309475 4186.8946480002 4725.9532511081 6886.0519393763 2783.0643795876 0.9000000000 0.0457586757 812.2406162750 0.0000000000 1699.5412068377 0.7131800018 0.6318322197 20.9599187509 20.9599187509 20.9599187509 0.0167112292 114292.6675458268 0.0163115303 109242.1284329426 52382.2630699081 0.0001307473 0.2480833658 0.2478133773 0.0000000000 2625.7908202992 0.0000000000 0.0018950629 13.3645640191 0.0000000000 20.1277310265 6626.5925000000
 6640.8975000000 2727.1650636178 4015.7258188566 3544.2413692678 0.2385914472 6809159.8171463804 0.2305106820 5764546.3976685395 2340109.7843166417 0.0001652082 4253.0083525545 4802.7586218928 6902.0398553789 2789.0713631597 0.9000000000 0.0432440445 779.5489193175 0.0000000000 1698.5066613850 0.7232092683 0.6404267424 20.5733280186 20.5733280186 20.5733280186 0.0164201547 112262.6125553392 0.0163112646 115681.8587491488 56140.4491230968 0.0001304389 0.2471741602 0.2469124165 0.0000000000 2617.3792785826 0.0000000000 0.0018617252 13.0841079551 0.0000000000 19.6234219726 6640.8975000000
 6655.2025000000 2722.6589500673 3328.4529652666 3832.7838899306 0.2273842204 6504741.1421055123 0.2188303521 5450713.6132415514 2234686.8759107264 0.0002531692 4159.5882841045 4689.5560834230 6918.0995561398 2795.0804753583 0.9000000000 0.0480504467 963.4050988762 0.0000000000 1651.2384007605 0.7046451379 0.6250130306 20.5893559211 20.5893559211 20.5893559211 0.0164208552 112293.3089972214 0.0160434285 112571.3911480921 54444.2546207453 0.0001293557 0.2449593096 0.2446952564 0.0000000000 2594.6167765528 0.0000000000 0.0018617572 13.1261780896 0.0000000000 19.7352905359 6655.2025000000
 6669.5075000000 2736.5788854639 2980.2560457104 3187.8641761992 0.2291150039 6525830.3939452851 0.2195999450 5575555.6313878773 2282385.5983910784 0.0002494746 4150.1566559452 4681.0939867254 6934.0030448624 2801.0881929395 0.9000000000 0.0481301735 948.2951640180 0.0000000000 1659.9248032468 0.7018650158 0.6222583386 20.9738521277 20.9738521277 20.9738521277 0.0167121656 114319.3619049506 0.0159606325 105024.9162504114 50167.2577526509 0.0001293480 0.2452127192 0.2449396013 0.0000000000 2596.3165020887 0.0000000000 0.0018950917 13.3956210274 0.0000000000 20.2246494345 6669.5075000000
 6683.8125000000 2725.7532612126 3494.3122425264 3010.5136162102 0.2228754423 6298518.7592938337 0.2129803175 5134377.2603186956 2116037.1695653726 0.0001929079 4161.2793226924 4676.3374015032 6949.8278692292 2807.0956903181 0.9000000000 0.0502181437 1069.7177307806 0.0000000000 1623.6060129408 0.6996511948 0.6225906730 20.5913576955 20.5913576955 20.5913576955 0.0164206943 112297.1353577426 0.0160764079 110456.4019102765 53178.7873515723 0.0001290707 0.2446880677 0.2444237423 0.0000000000 2590.6819140047 0.0000000000 0.0018619102 13.1260818017 0.0000000000 19.7495240747 6683.8125000000
 6698.1175000000 2728.0014138771 3525.0346045265 3835.5106035163 0.2261546104 6477381.4970300738 0.2182889251 5509470.4906297764 2259978.6791981771 0.0002462319 4156.6163845303 4684.8843078464 6965.7356075312 2813.1050227193 0.9000000000 0.0489884019 988.8762527289 0.0000000000 1648.3589560331 0.6994329836 0.6205648654 20.9569690673 20.9569690673 20.9569690673 0.0167115907 114287.0201745649 0.0163606179 113311.7397134706 54582.5268045122 0.0001314974 0.2492016773 0.2489328643 0.0000000000 2638.8116588256 0.0000000000 0.0018947863 13.3603612785 0.0000000000 20.1070793270 6698.1175000000
 6712.4225000000 2706.3171202891 3089.2443984795 3025.4461980420 0.2264717589 6602013.8383274339 0.2176120698 5440562.4347916543 2232286.5975714657 0.0002530342 4212.0400356313 4750.3332160645 6981.6215596717 2819.1120062915 0.9000000000 0.0473502461 954.1341801496 0.0000000000 1648.7631397529 0.7076928212 0.6274992427 20.6096273297 20.6096273297 20.6096273297 0.0164210726 112332.1347530416 0.0157763064 104187.5870183944 50123.6871894785 0.0001275208 0.2417918138 0.2415244106 0.0000000000 2559.9240829936 0.0000000000 0.0018622853 13.1715459424 0.0000000000 19.8767006350 6712.4225000000
