~Version ---------------------------------------------------
VERS.   2.0 : CWLS log ASCII Standard -VERSION 2.0
WRAP.    NO : One line per depth step
DLM . SPACE : Column Data Section Delimiter
~Well ------------------------------------------------------
STRT.ft               6039.97275 : START DEPTH
STOP.ft               8231.95595 : STOP DEPTH
STEP.ft       14.389100000000326 : STEP
NULL.                   -9999.25 : NULL VALUE
COMP.                            : COMPANY
WELL.                     bypass : WELL
FLD .                            : FIELD
LOC .                            : LOCATION
PROV.                            : PROVINCE
CNTY.                            : COUNTY
STAT.                            : STATE
CTRY.                            : COUNTRY
SRVC.                            : SERVICE COMPANY
DATE. 2019-07-30 20:43:31.491401 : DATE
UWI .                            : UNIQUE WELL ID
API .                            : API NUMBER
~Curve Information -----------------------------------------
Depth              .ft          : 
KICh               .psi*in^1/2  : 
KICvup             .psi*in^1/2  : 
KICvdown           .psi*in^1/2  : 
nuh                .            : 
Eh                 .psi         : 
nuv                .            : 
Ev                 .psi         : 
Gv                 .psi         : 
Cl                 .ft/min^1/2  : 
Sigma_h            .psi         : 
SigmaH             .psi         : 
SigmaV             .psi         : 
Pore Pressure      .psi         : 
Biot               .            : 
Porosity           .            : 
Permeability       .nD          : 
SoPhi              .            : 
TensileStrength    .psi         : 
Grad_SigmaH        .psi/ft      : 
Grad_Sigma_h       .psi/ft      : 
Std_KICh           .psi*in^1/2  : 
Std_KICvup         .psi*in^1/2  : 
Std_KICvdown       .psi*in^1/2  : 
Std_nuh            .            : 
Std_Eh             .psi         : 
Std_nuv            .            : 
Std_Ev             .psi         : 
Std_Gv             .psi         : 
Std_Cl             .ft/min^1/2  : 
Std_Sigma_h        .psi         : 
Std_SigmaH         .psi         : 
Std_SigmaV         .psi         : 
Std_Pore Pressure  .psi         : 
Std_Biot           .            : 
Std_Porosity       .            : 
Std_Permeability   .nD          : 
Std_SoPhi          .            : 
Std_TensileStrength.psi         : 
Std_Depth          .ft          : 
~Params ----------------------------------------------------
~Other -----------------------------------------------------
Exported from homogenization method
~ASCII -----------------------------------------------------
 6039.9727500000 2697.7843186887 4543.5062863324 3750.7178763067 0.2006013358 6204300.2112326296 0.1941331735 5030694.0611295132 2106404.7479104660 0.0002883414 3592.5663217299 4109.3323810576 6222.4023340853 2536.7623162151 0.9000000000 0.0489285830 1123.7472982959 0.0000000000 1743.4895775274 0.6803561127 0.5947984321 2.5257190565 2.5257190565 2.5257190565 0.0001922666 5953.1615213726 0.0001858779 4988.7098606232 2070.7049908401 0.0000049434 0.0075751594 0.0075896693 0.0000000000 87.3054486711 0.0000000000 0.0000436720 1.0619429229 0.0000000000 1.6286607142 6039.9727500000
 6054.3618500000 2728.2094658425 4574.9304146392 6062.7906327229 0.2064535540 6188299.2195504354 0.1842076486 4849519.4267884865 2046253.0432687902 0.0004590925 3591.9032401430 4104.8363073915 6238.2955566471 2542.8057324120 0.9000000000 0.0496948537 1301.0714572760 0.0000000000 1754.6749029283 0.6779965270 0.5932752830 2.4870512735 2.4870512735 2.4870512735 0.0001891423 5772.3876759230 0.0001800997 4591.4172157581 1916.3446234944 0.0000048047 0.0073823469 0.0073962898 0.0000000000 85.0218622621 0.0000000000 0.0000444822 1.0608685464 0.0000000000 1.5741992143 6054.3618500000
 6068.7509500000 2699.0980695269 4538.3471547315 5214.4631739141 0.2086157648 6300434.6002721265 0.1936588890 4975696.4485182846 2083871.9157906838 0.0006607636 3658.4365920445 4179.7300240615 6254.1705169167 2548.8491486090 0.9000000000 0.0466806979 1102.6505442592 0.0000000000 1688.9088954625 0.6887298653 0.6028318878 2.5014079020 2.5014079020 2.5014079020 0.0001764168 5431.6310755287 0.0001654591 4264.9371800302 1811.1845756170 0.0000051990 0.0079929901 0.0080044228 0.0000000000 92.2266225418 0.0000000000 0.0000504614 1.3766522732 0.0000000000 1.6400505348 6068.7509500000
 6083.1400000000 2690.9778337613 3706.2232923887 3661.2626576347 0.1854031935 5737713.2936931141 0.1732388039 4595115.5070357602 1958361.7388223263 0.0002964744 3463.8968265975 3947.9273509947 6269.9740144386 2554.8925438703 0.9000000000 0.0560288543 1627.1292656076 0.0000000000 1796.1664147960 0.6489949847 0.5694257943 2.4879028728 2.4879028728 2.4879028728 0.0001713556 5267.7312410266 0.0001590381 4108.3833670367 1755.0544218628 0.0000054420 0.0083733715 0.0083836329 0.0000000000 96.6897194960 0.0000000000 0.0000529235 1.5692596996 0.0000000000 1.6586101699 6083.1400000000
 6097.5290500000 2626.3357159385 4630.9185588932 4013.1310571445 0.1987586077 5927630.3758493084 0.1869393012 4322887.0061037885 1821362.7301562910 0.0004530942 3701.1724049431 4195.6531400830 6285.6990507803 2560.9359390441 0.9000000000 0.0502500314 1229.6747421213 0.0000000000 1638.4748644738 0.6880907177 0.6069954525 2.4531924166 2.4531924166 2.4531924166 0.0001970988 5912.5606567795 0.0001908808 4423.4816637934 1834.3096393112 0.0000044296 0.0068349923 0.0068507112 0.0000000000 78.4669876033 0.0000000000 0.0000410447 0.8079897595 0.0000000000 1.4842504208 6097.5290500000
 6111.9181500000 2653.7597524511 3771.6215269088 4127.3230152901 0.2114492516 6380615.0344327111 0.2050591303 4848287.0321128229 2011505.5326627737 0.0005007510 3817.5119531629 4344.2046747827 6301.6666021710 2566.9793552411 0.9000000000 0.0443717132 887.7039652730 0.0000000000 1632.0760759116 0.7107759902 0.6246012887 2.4481231177 2.4481231177 2.4481231177 0.0001925384 5775.2160561868 0.0001855633 4265.7039854156 1778.0640579636 0.0000045059 0.0069537056 0.0069684476 0.0000000000 79.8868339080 0.0000000000 0.0000430742 0.9028659546 0.0000000000 1.4974669412 6111.9181500000
 6126.3072500000 2615.6060747921 3267.3446595442 3905.1794062950 0.2041047490 6113835.0041089524 0.1955347310 4498532.3261638908 1880012.4292108559 0.0003192375 3782.1300066311 4289.8794369885 6317.6336117297 2573.0227780056 0.9000000000 0.0476743240 1073.0100519942 0.0000000000 1627.0388863167 0.7002390285 0.6173588513 2.4300634431 2.4300634431 2.4300634431 0.0001866677 5659.8198349126 0.0001833735 4308.9811660457 1798.3170312654 0.0000047706 0.0073520077 0.0073654431 0.0000000000 84.6021168446 0.0000000000 0.0000458431 1.0834836988 0.0000000000 1.5583598214 6126.3072500000
 6140.6963500000 2632.3282469875 5016.7032880178 4198.0694329757 0.2174351751 6484699.0804921770 0.2063275815 4984446.9748476744 2063693.3117866088 0.0002243457 3845.5221409482 4378.1746561042 6333.5504387242 2579.0662390803 0.9000000000 0.0428031592 861.4467443468 0.0000000000 1615.2668302326 0.7129769014 0.6262355150 2.4980875524 2.4980875524 2.4980875524 0.0001931766 5957.8633211541 0.0001888722 4934.1938785894 2046.4717995330 0.0000049161 0.0075434700 0.0075580482 0.0000000000 86.9007955001 0.0000000000 0.0000430533 1.0784661628 0.0000000000 1.6046489628 6140.6963500000
 6155.0854500000 2703.8317051938 5178.7547169411 4483.8905679532 0.1868013493 5833339.7113021938 0.1785437606 4756874.3154497957 2018566.1838738003 0.0003032566 3522.6613484349 4014.1791340310 6349.4559957715 2585.1096552773 0.9000000000 0.0557514469 1689.9688657908 0.0000000000 1841.3076174118 0.6521727711 0.5723172127 2.5222369352 2.5222369352 2.5222369352 0.0001806361 5646.4541244031 0.0001761124 4663.1347297456 1958.3294805304 0.0000052253 0.0080186267 0.0080309919 0.0000000000 92.5211438065 0.0000000000 0.0000485109 1.3089001910 0.0000000000 1.6889355830 6155.0854500000
 6169.4745500000 2725.8433220593 4119.4176628743 5536.2980110676 0.1907328671 5965147.4262493923 0.1822047213 5021326.5270575453 2124315.2291137283 0.0002810751 3528.7705481079 4029.7349197890 6365.2171618746 2591.1530714742 0.9000000000 0.0540930559 1591.4444655295 0.0000000000 1854.2799189734 0.6531731166 0.5719726242 2.4928854811 2.4928854811 2.4928854811 0.0001753687 5442.7728700222 0.0001681409 4349.6032161993 1843.0725352081 0.0000053764 0.0082673071 0.0082784306 0.0000000000 95.4294019843 0.0000000000 0.0000508949 1.4920146150 0.0000000000 1.6678563686 6169.4745500000
 6183.8636500000 2661.5414694435 4304.5580315690 4401.5501136487 0.1985067229 6054314.3671659501 0.1911834316 4687729.9342750572 1967474.4505418087 0.0003157422 3708.2571087979 4213.4119194732 6380.9676098398 2597.1964876712 0.9000000000 0.0499866436 1209.7046798132 0.0000000000 1702.0529897422 0.6813558898 0.5996667001 2.5020611557 2.5020611557 2.5020611557 0.0001822496 5668.5752093781 0.0001768474 4682.6196535734 1965.7396549554 0.0000050476 0.0077426659 0.0077555544 0.0000000000 89.2971203551 0.0000000000 0.0000471052 1.1898150859 0.0000000000 1.6429094971 6183.8636500000
 6198.2527500000 2714.0389327611 3694.0591967072 3956.2239648047 0.1886043188 5900615.6526755951 0.1793461073 4881977.6667598868 2069781.9318011762 0.0003019961 3541.2744416759 4037.7067328283 6396.7792132781 2603.2399038682 0.9000000000 0.0547786798 1616.3413411958 0.0000000000 1836.1480446519 0.6514266029 0.5713343073 2.5077502727 2.5077502727 2.5077502727 0.0001779873 5535.7854080541 0.0001710231 4463.4606585826 1885.0939485854 0.0000052576 0.0080776498 0.0080894329 0.0000000000 93.2110840692 0.0000000000 0.0000496927 1.3812192128 0.0000000000 1.6671489542 6198.2527500000
 6212.6418500000 2691.8270944961 3741.5452935546 3643.5695121364 0.1961159284 6077923.1380472379 0.1895643223 4961568.2118851459 2085422.7371801550 0.0006363430 3646.2824819483 4154.4207813951 6412.5347314904 2609.2833200652 0.9000000000 0.0509104562 1255.2874566165 0.0000000000 1761.4030330389 0.6687043744 0.5869133567 2.4820753908 2.4820753908 2.4820753908 0.0001792496 5488.6002106678 0.0001699578 4288.6639134585 1813.2620239423 0.0000050836 0.0078190010 0.0078309159 0.0000000000 90.1665738787 0.0000000000 0.0000491428 1.3056808386 0.0000000000 1.6121689978 6212.6418500000
 6227.0309500000 2644.2705815564 4753.7287581058 3502.6518213171 0.2003165291 6026301.8540943814 0.1894412300 4482506.6937448047 1883291.3004660544 0.0007420863 3777.2689240703 4279.3283149014 6428.3458777893 2615.3267362622 0.9000000000 0.0495014372 1199.9226422361 0.0000000000 1660.4782846964 0.6872180899 0.6065922836 2.4804940596 2.4804940596 2.4804940596 0.0001972290 6001.0244146011 0.0001935205 4681.8752755685 1936.8712123854 0.0000045581 0.0070157212 0.0070315617 0.0000000000 80.6176778207 0.0000000000 0.0000410373 0.8275738249 0.0000000000 1.5364423432 6227.0309500000
