~Version ---------------------------------------------------
VERS.   2.0 : CWLS log ASCII Standard -VERSION 2.0
WRAP.    NO : One line per depth step
DLM . SPACE : Column Data Section Delimiter
~Well ------------------------------------------------------
STRT.ft       6025.5836500000005 : START DEPTH
STOP.ft               8231.95595 : STOP DEPTH
STEP.ft       14.389099999999416 : STEP
NULL.                   -9999.25 : NULL VALUE
COMP.                            : COMPANY
WELL.                     bypass : WELL
FLD .                            : FIELD
LOC .                            : LOCATION
PROV.                            : PROVINCE
CNTY.                            : COUNTY
STAT.                            : STATE
CTRY.                            : COUNTRY
SRVC.                            : SERVICE COMPANY
DATE. 2019-07-30 20:43:31.832888 : DATE
UWI .                            : UNIQUE WELL ID
API .                            : API NUMBER
~Curve Information -----------------------------------------
Depth              .ft          : 
KICh               .psi*in^1/2  : 
KICvup             .psi*in^1/2  : 
KICvdown           .psi*in^1/2  : 
nuh                .            : 
Eh                 .psi         : 
nuv                .            : 
Ev                 .psi         : 
Gv                 .psi         : 
Cl                 .ft/min^1/2  : 
Sigma_h            .psi         : 
SigmaH             .psi         : 
SigmaV             .psi         : 
Pore Pressure      .psi         : 
Biot               .            : 
Porosity           .            : 
Permeability       .nD          : 
SoPhi              .            : 
TensileStrength    .psi         : 
Grad_SigmaH        .psi/ft      : 
Grad_Sigma_h       .psi/ft      : 
Std_KICh           .psi*in^1/2  : 
Std_KICvup         .psi*in^1/2  : 
Std_KICvdown       .psi*in^1/2  : 
Std_nuh            .            : 
Std_Eh             .psi         : 
Std_nuv            .            : 
Std_Ev             .psi         : 
Std_Gv             .psi         : 
Std_Cl             .ft/min^1/2  : 
Std_Sigma_h        .psi         : 
Std_SigmaH         .psi         : 
Std_SigmaV         .psi         : 
Std_Pore Pressure  .psi         : 
Std_Biot           .            : 
Std_Porosity       .            : 
Std_Permeability   .nD          : 
Std_SoPhi          .            : 
Std_TensileStrength.psi         : 
Std_Depth          .ft          : 
~Params ----------------------------------------------------
~Other -----------------------------------------------------
Exported from homogenization method
~ASCII -----------------------------------------------------
# ...
 7092.8755000000 2592.8413808954 21385.4805240448 20002.3997520922 0.2259892128 6117664.2275163941 0.2114347379 4472781.5393282501 1838390.4494450770 0.0021384801 5066.1096463191 5565.1078563690 7396.9448701764 3827.2424935041 0.9000000000 0.0365825949 1055.4241098154 0.0000000000 1680.0646558182 0.7846053207 0.7142532879 10.0000000000 10.0000000000 10.0000000000 0.0063636364 63636.3636363649 0.0059999432 49494.2102374885 22837.1058509616 0.0000575099 0.1144980021 0.1144713154 0.0000000000 1339.1675450818 0.0000000000 0.0009090909 9.0909090909 0.0000000000 9.0909090909 7092.8755000000
 7108.0864500000 2672.2672852439 18192.8971905388 18745.7232712475 0.2450256107 6999591.0561958933 0.2098551164 5467947.0682338523 2225978.2890663347 0.0020065328 5086.9548336446 5649.1594176990 7414.4611506696 3908.9596961652 0.9000000000 0.0330183882 886.8097036860 0.0000000000 1769.0788942380 0.7947510849 0.7156574233 9.9589320647 9.9589320647 9.9589320647 0.0063375022 63375.0222297642 0.0061594606 53199.4909742945 24555.8670245529 0.0000578458 0.1152456086 0.1152193123 0.0000000000 1347.3985255674 0.0000000000 0.0009053575 9.0535746043 0.0000000000 9.0535746043 7108.0864500000
 7123.2974000000 2687.9286746251 3734.5887261096 4138.6669193867 0.2189318726 5913234.5790811712 0.1981524095 4447054.1166964071 1848692.5264390223 0.0004361339 4979.4651440412 5464.5812290425 7431.7132732190 3917.7791737065 0.9000000000 0.0478416404 1533.0192371638 0.0000000000 1618.1161210567 0.7671420863 0.6990393443 9.9589320647 9.9589320647 9.9589320647 0.0063375022 63375.0222297637 0.0061544512 52579.1418118675 24302.2492249992 0.0000925238 0.1137374362 0.1137568650 0.0000000000 1305.6373731693 0.0000000000 0.0009053575 9.0535746043 0.0000000000 9.0535746043 7123.2974000000
 7138.5083500000 2725.9353309153 18337.6629347691 18856.9755883478 0.2434506738 7188256.6404226730 0.2266207080 6142082.8011907749 2486669.6126276306 0.0007592150 5092.1114300553 5670.2008381737 7448.8087298746 3926.1451915649 0.9000000000 0.0364631658 855.1982284858 0.0000000000 1763.9794897712 0.7943117189 0.7133298976 10.0000000000 10.0000000000 10.0000000000 0.0063636364 63636.3636363644 0.0059041345 50203.6336053242 23306.8743458539 0.0000910803 0.1117725988 0.1117925324 0.0000000000 1283.9771046308 0.0000000000 0.0009090909 9.0909090909 0.0000000000 9.0909090909 7138.5083500000
 7153.7193000000 2540.0839432087 19807.2020184472 18332.1640311267 0.2188386353 6039302.3072542548 0.1895245009 4013888.5104018738 1683156.6177842675 0.0007397629 5112.7528639269 5608.2493252643 7466.0145988604 3934.5112848432 0.9000000000 0.0409090620 1663.9332676590 0.0000000000 1577.2080169202 0.7839627318 0.7146985574 9.9589320647 9.9589320647 9.9589320647 0.0063375022 63375.0222297637 0.0059536719 44951.7537448329 20800.2359259749 0.0000891315 0.1101581825 0.1101782425 0.0000000000 1262.0449355539 0.0000000000 0.0009053575 9.0535746043 0.0000000000 9.0535746043 7153.7193000000
 7168.9302500000 2585.0777188015 16977.7182940978 20067.6651091828 0.2108780168 5430442.5157661755 0.1687329449 3413947.9293671413 1453112.9983677063 0.0016586976 5006.6330845389 5455.1045606281 7483.4636381696 3942.8772522500 0.9000000000 0.0489831629 2081.3860250210 0.0000000000 1496.5002556894 0.7609370395 0.6983793830 9.9589320647 9.9589320647 9.9589320647 0.0063375022 63375.0222297616 0.0054055196 43328.7803678293 19763.5096046970 0.0001360032 0.1195889860 0.1196228530 0.0000000000 1356.1522021489 0.0000000000 0.0009053575 9.0535746043 0.0000000000 9.0535746043 7168.9302500000
 7184.1412000000 2685.7549051727 4950.6787077933 3688.3767801840 0.2191466605 5636114.6642815750 0.1695528716 3845199.1981097851 1624764.3645996309 0.0003635198 4941.1718111178 5403.4717826509 7500.0865777460 3951.2432346246 0.9000000000 0.0527940801 2055.8622014677 0.0000000000 1540.2924221847 0.7521388614 0.6877887939 10.0000000000 10.0000000000 10.0000000000 0.0063636364 63636.3636363644 0.0056763826 48471.1572834094 22275.2447229892 0.0000896203 0.1097945923 0.1098148849 0.0000000000 1262.1112915649 0.0000000000 0.0009090909 9.0909090909 0.0000000000 9.0909090909 7184.1412000000
 7199.3521500000 2582.5881835675 3417.1982979739 5885.4117351528 0.1984248695 4688923.2437035404 0.1488249876 2934945.7014665571 1268038.2492230418 0.0006120816 4833.0905102066 5224.3476814487 7516.8943264177 3959.6093635567 0.9000000000 0.0614818602 2871.3296695479 0.0000000000 1383.5735738293 0.7256691398 0.6713229759 9.9589320647 9.9589320647 9.9589320647 0.0063375022 63375.0222297616 0.0055542391 44475.7983067168 20371.2243499077 0.0001379783 0.1214391926 0.1214725438 0.0000000000 1376.6649907729 0.0000000000 0.0009053575 9.0535746043 0.0000000000 9.0535746043 7199.3521500000
 7214.5631000000 2606.2992444687 3480.0948855216 3701.8505269045 0.2019994060 5179292.3199734529 0.1617322571 3394260.2390229125 1451330.5965541468 0.0008065633 4905.5986274664 5336.4883845000 7533.4828368931 3967.9753308461 0.9000000000 0.0569423303 2418.9426229350 0.0000000000 1455.2087668587 0.7396828208 0.6799578241 9.9589320647 9.9589320647 9.9589320647 0.0063375022 63375.0222297616 0.0050879117 38309.2718565924 17455.2964970220 0.0001300288 0.1145959290 0.1146312712 0.0000000000 1298.4058416407 0.0000000000 0.0009053575 9.0535746043 0.0000000000 9.0535746043 7214.5631000000
 7229.7740500000 2424.1819063242 3107.0068549960 2971.6385966984 0.1850700772 4289281.5367218480 0.1423809500 2392184.7629153286 1046732.4841977704 0.0006266741 4905.0358321003 5266.9791145628 7550.1217879960 3976.3412981398 0.9000000000 0.0600421870 3696.2364597932 0.0000000000 1279.0113042035 0.7285122714 0.6784493953 10.0000000000 10.0000000000 10.0000000000 0.0063636364 63636.3636363622 0.0052252738 38474.8492655540 17566.8884798729 0.0001313323 0.1160229676 0.1160581636 0.0000000000 1313.4044966678 0.0000000000 0.0009090909 9.0909090909 0.0000000000 9.0909090909 7229.7740500000
 7244.9850000000 2536.7003062141 4441.0642421304 3622.0769924417 0.2083434791 5303895.0833709454 0.1712740913 3335303.0867188773 1416120.9489737237 0.0010390351 5071.3108546345 5510.2502104601 7567.0129214422 3984.7074216439 0.9000000000 0.0477449167 2142.8311638524 0.0000000000 1505.1856958541 0.7605606099 0.6999753422 9.9589320647 9.9589320647 9.9589320647 0.0063375022 63375.0222297637 0.0059057417 48248.5555147032 22007.6105797573 0.0000899833 0.1107314905 0.1107514466 0.0000000000 1270.6729484937 0.0000000000 0.0009053575 9.0535746043 0.0000000000 9.0535746043 7244.9850000000
 7260.1959500000 2690.7541588230 4394.8298228488 4081.7709517052 0.2466203877 6254024.6646979209 0.1798790749 4075659.9028952718 1693850.3007165531 0.0005384812 5219.9966411867 5721.6749970198 7584.1906992998 3993.0734094465 0.9000000000 0.0391161130 1535.0594310442 0.0000000000 1661.1045226489 0.7880882329 0.7189883961 9.9589320647 9.9589320647 9.9589320647 0.0063375022 63375.0222297637 0.0057112441 47078.1339762990 21566.2567243945 0.0000889837 0.1092768769 0.1092970986 0.0000000000 1255.0031694138 0.0000000000 0.0009053575 9.0535746043 0.0000000000 9.0535746043 7260.1959500000
 7275.4069000000 2617.5858296871 3384.9481321103 4286.3294788091 0.2223338387 5687987.5683028484 0.1866511443 3902339.0908240099 1633779.4408148762 0.0006097986 5133.7256693175 5599.0639744609 7601.4482161054 4001.4393768490 0.9000000000 0.0449690773 1725.9274076767 0.0000000000 1580.1925625933 0.7695877428 0.7056272920 10.0000000000 10.0000000000 10.0000000000 0.0063636364 63636.3636363644 0.0059438942 48902.0212438164 22422.0458476566 0.0000906107 0.1114620632 0.1114820523 0.0000000000 1279.2366174745 0.0000000000 0.0009090909 9.0909090909 0.0000000000 9.0909090909 7275.4069000000
 7290.6178500000 2636.1321105451 3064.4913983259 3144.8665752967 0.2360602267 6641410.0987306312 0.2171657742 5212342.3844969589 2130900.3197279680 0.0003007650 5227.2625558472 5764.5672886738 7618.6801849824 4009.8054647079 0.9000000000 0.0360810349 996.1597718101 0.0000000000 1707.7620429853 0.7906829582 0.7169848514 9.9589320647 9.9589320647 9.9589320647 0.0063375022 63375.0222297637 0.0057267833 46338.2703852895 21245.9872903825 0.0000887841 0.1091504298 0.1091706749 0.0000000000 1253.0338244458 0.0000000000 0.0009053575 9.0535746043 0.0000000000 9.0535746043 7290.6178500000
