~Version ---------------------------------------------------
VERS.   2.0 : CWLS log ASCII Standard -VERSION 2.0
WRAP.    NO : One line per depth step
DLM . SPACE : Column Data Section Delimiter
~Well ------------------------------------------------------
STRT.ft               5683.82875 : START DEPTH
STOP.ft        7698.577649999999 : STOP DEPTH
STEP.ft       15.128450000000157 : STEP
NULL.                   -9999.25 : NULL VALUE
COMP.                            : COMPANY
WELL.                     bypass : WELL
FLD .                            : FIELD
LOC .                            : LOCATION
PROV.                            : PROVINCE
CNTY.                            : COUNTY
STAT.                            : STATE
CTRY.                            : COUNTRY
SRVC.                            : SERVICE COMPANY
DATE. 2019-07-30 20:43:20.519169 : DATE
UWI .                            : UNIQUE WELL ID
API .                            : API NUMBER
~Curve Information -----------------------------------------
Depth              .ft          : 
KICh               .psi*in^1/2  : 
KICvup             .psi*in^1/2  : 
KICvdown           .psi*in^1/2  : 
nuh                .            : 
Eh                 .psi         : 
nuv                .            : 
Ev                 .psi         : 
Gv                 .psi         : 
Cl                 .ft/min^1/2  : 
Sigma_h            .psi         : 
SigmaH             .psi         : 
SigmaV             .psi         : 
Pore Pressure      .psi         : 
Biot               .            : 
Porosity           .            : 
Permeability       .nD          : 
SoPhi              .            : 
TensileStrength    .psi         : 
Grad_SigmaH        .psi/ft      : 
Grad_Sigma_h       .psi/ft      : 
Std_KICh           .psi*in^1/2  : 
Std_KICvup         .psi*in^1/2  : 
Std_KICvdown       .psi*in^1/2  : 
Std_nuh            .            : 
Std_Eh             .psi         : 
Std_nuv            .            : 
Std_Ev             .psi         : 
Std_Gv             .psi         : 
Std_Cl             .ft/min^1/2  : 
Std_Sigma_h        .psi         : 
Std_SigmaH         .psi         : 
Std_SigmaV         .psi         : 
Std_Pore Pressure  .psi         : 
Std_Biot           .            : 
Std_Porosity       .            : 
Std_Permeability   .nD          : 
Std_SoPhi          .            : 
Std_TensileStrength.psi         : 
Std_Depth          .ft          : 
~Params ----------------------------------------------------
~Other -----------------------------------------------------
Exported from homogenization method
~ASCII -----------------------------------------------------
# ...
 7112.3700000000 2847.9655286549 18009.9110069471 20304.9095462396 0.2657276733 7776258.9362945277 0.2466232995 6936695.5973649127 2770605.5093124229 0.0005291675 5214.9143439124 5829.2849625315 7430.0515781158 3911.6665487579 0.9000000000 0.0398283805 605.4228415991 0.0000000000 1801.0805298365 0.8195981034 0.7332175272 19.2340886451 19.2340886451 19.2340886451 0.0153926276 105139.4742272816 0.0153738355 107415.3645374754 56714.0584065719 0.0000929060 0.2252570652 0.2249854911 0.0000000000 2468.7550358091 0.0000000000 0.0017436977 12.2130927624 0.0000000000 18.0262696730 7112.3700000000
 7128.8138000000 2819.3406798353 20747.4487721722 19821.5241439349 0.2716833227 8146178.6644294737 0.2674870071 7779766.4771479666 3064392.7731739944 0.0007255079 5275.1489588486 5915.7312892707 7448.7023683385 3920.7097399932 0.9000000000 0.0343713712 405.7067364558 0.0000000000 1847.9922808276 0.8298338904 0.7399756968 19.2498350569 19.2498350569 19.2498350569 0.0153925517 105169.5747942332 0.0153774234 109071.8053823874 56368.1384867127 0.0000929654 0.2253490509 0.2250776733 0.0000000000 2469.9810246081 0.0000000000 0.0017443530 12.2216762705 0.0000000000 18.1382470427 7128.8138000000
 7145.2576000000 2776.8861707906 23207.8180244443 21154.0115471461 0.2639257776 7840950.6809681021 0.2505578847 6938831.3478967845 2765129.3178171567 0.0005113326 5271.2047823289 5891.5695869724 7467.4381194461 3929.7540671864 0.9000000000 0.0360157613 526.9331755286 0.0000000000 1800.0630626772 0.8245426431 0.7377207481 19.2493254438 19.2493254438 19.2493254438 0.0153925876 105168.6620371444 0.0152076656 102101.2093244613 53356.9079276867 0.0000922857 0.2238090140 0.2235357624 0.0000000000 2452.7766861587 0.0000000000 0.0017443600 12.2433953653 0.0000000000 18.1323835655 7145.2576000000
 7161.7014000000 2762.0943699432 20663.8596670070 22073.8200745276 0.2653202718 7771516.2571143676 0.2446108616 6439390.1728387047 2571472.2378734034 0.0008332853 5350.4081660010 5964.6017761479 7486.2466151587 3938.7986485788 0.9000000000 0.0349082855 524.5798109810 0.0000000000 1798.7518822634 0.8328470349 0.7470861835 19.3353551124 19.3353551124 19.3353551124 0.0153929087 105333.3004521064 0.0146136845 89189.8960308904 43131.7017109936 0.0001180802 0.2242817307 0.2240285299 0.0000000000 2373.0775790565 0.0000000000 0.0017469190 12.3897594678 0.0000000000 18.7374397474 7161.7014000000
 7178.1452000000 2626.5531864853 2960.4040154890 3844.2693280023 0.2176331330 6561972.6980668688 0.2026693374 4849962.8034605123 2014575.5781829755 0.0007388067 5087.9846217566 5626.8967554675 7504.8122796941 3947.8426329376 0.9000000000 0.0467739094 1084.2326900996 0.0000000000 1597.8168854468 0.7838928579 0.7088160632 19.3292045690 19.3292045690 19.3292045690 0.0153932453 105321.5092689252 0.0147911130 96649.0319599963 46932.7936555411 0.0001195192 0.2266685586 0.2264179706 0.0000000000 2399.6448592842 0.0000000000 0.0017464818 12.3692866654 0.0000000000 18.6949197948 7178.1452000000
 7194.5890500000 2638.0426761194 4733.0009533096 4555.4523060368 0.2240179837 6817394.6086455602 0.2125887424 5298009.4215153279 2183550.8286001370 0.0005998722 5118.7392690809 5675.7077694854 7523.2300630201 3956.8866445916 0.9000000000 0.0444232955 943.1028981498 0.0000000000 1634.7129840916 0.7888856097 0.7114706946 19.3232260497 19.3232260497 19.3232260497 0.0153928635 105310.0378175346 0.0148565078 96005.6288193720 46396.8806277750 0.0001195144 0.2268490416 0.2265986372 0.0000000000 2400.7892754979 0.0000000000 0.0017464646 12.3452834481 0.0000000000 18.6539332707 7194.5890500000
 7211.0329000000 2667.2319917458 20026.2529307162 19826.9422315935 0.2346418506 6955954.5519382441 0.2268062534 5597450.1772333654 2280133.6857113475 0.0007659915 5204.9796330558 5768.3782047488 7541.7532575573 3965.9306568433 0.9000000000 0.0410977630 769.0670538738 0.0000000000 1683.6847360100 0.7999378570 0.7218077778 19.6191687229 19.6191687229 19.6191687229 0.0156316561 106935.8589791273 0.0151824289 99644.3709695806 48326.2430412529 0.0001219157 0.2313685770 0.2311153636 0.0000000000 2448.7567062941 0.0000000000 0.0017735069 12.5357539485 0.0000000000 18.9169452558 7211.0329000000
 7227.4767000000 2686.2334606368 18552.6283594507 19336.2485310113 0.2347571252 6862369.6482247021 0.2174561469 5565086.7879425455 2279165.4148889240 0.0005295951 5143.5891303365 5699.3558886956 7560.3245281697 3974.9746412022 0.9000000000 0.0432780103 859.1749202213 0.0000000000 1675.8737985324 0.7885678675 0.7116714925 19.3060102892 19.3060102892 19.3060102892 0.0153930427 105277.0960200685 0.0149117026 102163.8495077013 50323.6512856376 0.0001206579 0.2285085454 0.2282598467 0.0000000000 2420.3458854947 0.0000000000 0.0017457860 12.3287923576 0.0000000000 18.5327399877 7227.4767000000
 7243.9205000000 2698.8568131949 19338.2637848896 19505.8477033145 0.2318298538 6787012.4169761678 0.2200608956 5512062.3905144446 2256106.5227255486 0.0007687952 5160.4642127774 5711.4341698520 7578.7835083524 3984.0186255610 0.9000000000 0.0448232573 884.8440267799 0.0000000000 1664.4969779612 0.7884451755 0.7123855394 19.2960035526 19.2960035526 19.2960035526 0.0153927989 105257.8886876019 0.0151860784 104674.5743789301 50924.5519334748 0.0001215092 0.2304123792 0.2301656900 0.0000000000 2439.2905857429 0.0000000000 0.0017456293 12.2809520820 0.0000000000 18.4643868854 7243.9205000000
 7260.3643000000 2698.2395593898 4484.6490604946 4462.6325724716 0.2355732690 6983453.7136672540 0.2277272838 5773843.8454119647 2349442.9647071455 0.0005582577 5210.4716153093 5775.6710970956 7597.2959389182 3993.0626099198 0.9000000000 0.0427077939 789.8567279987 0.0000000000 1686.8163657423 0.7955070653 0.7176598033 19.3290336262 19.3290336262 19.3290336262 0.0153930116 105321.1872148911 0.0147003734 94241.8811438208 45715.1296308802 0.0001189669 0.2256812024 0.2254295287 0.0000000000 2388.9749837743 0.0000000000 0.0017465750 12.3767891020 0.0000000000 18.6935384886 7260.3643000000
 7276.8081000000 2646.4884187670 3563.5496756600 3108.4091611912 0.2201079081 6573097.5539313722 0.2049406631 4803416.5893787583 1992299.4637154078 0.0006098033 5197.3176419755 5736.0484796716 7615.7566299307 4002.1065942787 0.9000000000 0.0466735457 1070.9979342922 0.0000000000 1599.8091037019 0.7882643600 0.7142304113 20.6327314221 20.6327314221 20.6327314221 0.0164204344 112376.4304966908 0.0154105617 93643.4161073180 45173.5775670209 0.0001253640 0.2379420407 0.2376704863 0.0000000000 2518.3328418817 0.0000000000 0.0018635142 13.2398567606 0.0000000000 20.0363214529 7276.8081000000
 7291.3922500000 2658.9762216451 3339.2780964957 3114.3203802847 0.2312483656 6944523.9290342527 0.2136222501 5293979.0813729595 2173475.8343516029 0.0001490510 5245.2475363688 5809.2705330969 7632.1233915785 4010.1292830760 0.9000000000 0.0425950225 878.9863096490 0.0000000000 1656.3358753179 0.7967299432 0.7193753067 21.7499433588 21.7499433588 21.7499433588 0.0173413973 118604.8597924073 0.0169167481 116279.6474790120 57385.7540664366 0.0001364019 0.2584054326 0.2581263200 0.0000000000 2736.6791878315 0.0000000000 0.0019671710 13.8725293974 0.0000000000 20.8779222555 7291.3922500000
 7304.1168000000 2634.6454684875 3166.3674291309 3085.9705245493 0.2266906590 6847386.1992801325 0.2117922726 5180385.4199544536 2133384.3313483526 0.0005585947 5238.3322280107 5796.5321416717 7646.5007295099 4017.1256061094 0.9000000000 0.0430917660 914.1079649201 0.0000000000 1640.3647176234 0.7935979531 0.7171753097 22.2137877336 22.2137877336 22.2137877336 0.0176850430 121017.1213450122 0.0168021690 103594.5366343387 49994.1893186309 0.0001358194 0.2579111851 0.2576205386 0.0000000000 2729.1473609263 0.0000000000 0.0020070012 14.2272160196 0.0000000000 21.5221593687 7304.1168000000
 7316.8413500000 2677.5854423718 3518.3985475857 3607.1767216490 0.2302352702 6896715.3198723542 0.2185857501 5398729.0906453626 2211181.0972368335 0.0001844432 5254.5807125702 5815.1820452728 7660.8290312409 4024.1263303077 0.9000000000 0.0438744780 879.0388832145 0.0000000000 1656.2329966627 0.7947667261 0.7181487832 21.7546477938 21.7546477938 21.7546477938 0.0173416397 118613.8408426154 0.0169106984 113475.8246601756 55255.5175677953 0.0001358301 0.2576232923 0.2573433469 0.0000000000 2727.1991597198 0.0000000000 0.0019670639 13.8712040130 0.0000000000 20.9117664759 7316.8413500000
