~Version ---------------------------------------------------
VERS.   2.0 : CWLS log ASCII Standard -VERSION 2.0
WRAP.    NO : One line per depth step
DLM . SPACE : Column Data Section Delimiter
~Well ------------------------------------------------------
STRT.ft               6011.19455 : START DEPTH
STOP.ft                8162.3221 : STOP DEPTH
STEP.ft       14.389100000000326 : STEP
NULL.                   -9999.25 : NULL VALUE
COMP.                            : COMPANY
WELL.                     bypass : WELL
FLD .                            : FIELD
LOC .                            : LOCATION
PROV.                            : PROVINCE
CNTY.                            : COUNTY
STAT.                            : STATE
CTRY.                            : COUNTRY
SRVC.                            : SERVICE COMPANY
DATE. 2019-07-30 20:43:20.875901 : DATE
UWI .                            : UNIQUE WELL ID
API .                            : API NUMBER
~Curve Information -----------------------------------------
Depth              .ft          : 
KICh               .psi*in^1/2  : 
KICvup             .psi*in^1/2  : 
KICvdown           .psi*in^1/2  : 
nuh                .            : 
Eh                 .psi         : 
nuv                .            : 
Ev                 .psi         : 
Gv                 .psi         : 
Cl                 .ft/min^1/2  : 
Sigma_h            .psi         : 
SigmaH             .psi         : 
SigmaV             .psi         : 
Pore Pressure      .psi         : 
Biot               .            : 
Porosity           .            : 
Permeability       .nD          : 
SoPhi              .            : 
TensileStrength    .psi         : 
Grad_SigmaH        .psi/ft      : 
Grad_Sigma_h       .psi/ft      : 
Std_KICh           .psi*in^1/2  : 
Std_KICvup         .psi*in^1/2  : 
Std_KICvdown       .psi*in^1/2  : 
Std_nuh            .            : 
Std_Eh             .psi         : 
Std_nuv            .            : 
Std_Ev             .psi         : 
Std_Gv             .psi         : 
Std_Cl             .ft/min^1/2  : 
Std_Sigma_h        .psi         : 
Std_SigmaH         .psi         : 
Std_SigmaV         .psi         : 
Std_Pore Pressure  .psi         : 
Std_Biot           .            : 
Std_Porosity       .            : 
Std_Permeability   .nD          : 
Std_SoPhi          .            : 
Std_TensileStrength.psi         : 
Std_Depth          .ft          : 
~Params ----------------------------------------------------
~Other -----------------------------------------------------
Exported from homogenization method
~ASCII -----------------------------------------------------
# ...
 7504.2090500000 2616.1483138422 3263.0731139192 3073.9157733348 0.2265551930 6590395.6070820121 0.2132357287 4485173.1875681849 1847622.4573965103 0.0002502530 5613.6278879434 6150.9372275400 8014.0786266134 4127.1779322429 0.9000000000 0.0401513140 867.0053697112 0.0000000000 1638.8567212619 0.8196649622 0.7480638999 19.9474983596 19.9474983596 19.9474983596 0.0052937941 108674.5398201386 0.0050674249 88128.9640099884 42508.3274171355 0.0000802238 0.1215349805 0.1217565486 0.0000000000 1479.7890677639 0.0000000000 0.0009013870 12.7665674100 0.0000000000 19.3196638851 7504.2090500000
 7519.5181500000 2589.4524100152 3069.1321955355 3041.3728986383 0.2215152974 6600671.1942580026 0.2068033729 4457458.6879178919 1845733.0157491523 0.0002571428 5571.0304640056 6111.3979246861 8031.4660907963 4135.5976069789 0.9000000000 0.0406685207 931.8944868391 0.0000000000 1624.3355671690 0.8127379711 0.7408759914 20.2994568906 20.2994568906 20.2994568906 0.0053812955 110513.5611786502 0.0050738089 82263.8678133230 39835.3143987069 0.0000797479 0.1213409595 0.1215705131 0.0000000000 1475.0237588991 0.0000000000 0.0009166864 13.0758305889 0.0000000000 19.7920732542 7519.5181500000
 7534.8272500000 2635.1582058203 3255.4537601091 3129.7762373517 0.2300344273 6634342.7822879991 0.2161839912 4555064.2981268940 1871920.0406250304 0.0002575722 5657.0591553784 6196.4215207916 8048.8754644046 4144.0166296516 0.9000000000 0.0398952396 842.1636715880 0.0000000000 1647.8025399999 0.8223707479 0.7507881691 19.9537315188 19.9537315188 19.9537315188 0.0052937756 108686.4847799073 0.0051070595 83418.6637037794 40520.4328355646 0.0000791513 0.1203772116 0.1206009744 0.0000000000 1463.4132922474 0.0000000000 0.0009017440 12.7595829979 0.0000000000 19.3629131978 7534.8272500000
 7550.1363500000 2572.1201436301 3447.1223846713 3820.2118685983 0.2255760377 6717643.5693595754 0.2140553675 4388945.0872150641 1807422.6789190755 0.0004767204 5728.3408538409 6276.4621749935 8066.3880927315 4152.4384276345 0.9000000000 0.0367507473 803.9129144781 0.0000000000 1648.7360966651 0.8313044803 0.7587069409 20.2792678614 20.2792678614 20.2792678614 0.0053812860 110474.8534290759 0.0051321371 88355.4824971025 42696.2351619002 0.0000812394 0.1231544872 0.1233804511 0.0000000000 1499.1457496004 0.0000000000 0.0009163303 12.9933054861 0.0000000000 19.6525920907 7550.1363500000
 7565.4454500000 2653.0973025483 3856.1659273078 3543.4634596447 0.2319731917 6653342.6972805979 0.2175881363 4725706.7352425512 1939024.4048396640 0.0002388547 5638.6065867620 6178.6623884845 8083.8225437049 4160.8571233776 0.9000000000 0.0406681469 846.8787167502 0.0000000000 1655.5437200378 0.8166951212 0.7453105867 19.9415246498 19.9415246498 19.9415246498 0.0052938028 108663.1048935178 0.0050619673 88495.0067670950 42632.9437352545 0.0000802712 0.1215705429 0.1217919826 0.0000000000 1480.3986849380 0.0000000000 0.0009012348 12.7662624241 0.0000000000 19.2777718313 7565.4454500000
 7580.7545500000 2712.0852264315 3490.4775031437 3590.5444531806 0.2383286307 6666436.5025609713 0.2276177768 5001873.4377184268 2035469.3137591579 0.0004307637 5652.8757143001 6191.2171801377 8101.1667144867 4169.2774519730 0.9000000000 0.0414163918 778.1726944018 0.0000000000 1682.1594605623 0.8167019707 0.7456877382 19.9340534924 19.9340534924 19.9340534924 0.0052939212 108648.7741877897 0.0050717377 93241.3468862941 44654.6717272229 0.0000814509 0.1229453941 0.1231642796 0.0000000000 1499.1005370676 0.0000000000 0.0009008970 12.7467881640 0.0000000000 19.2263885116 7580.7545500000
 7596.0636500000 2654.7378139017 3763.9299443790 3571.1112537074 0.2243723803 6371379.6555342926 0.2098612937 4439385.7040161593 1833752.8564676833 0.0002579899 5602.9988148320 6123.3780522152 8118.3991355741 4177.6979440333 0.9000000000 0.0439350175 975.9791542675 0.0000000000 1621.4098032485 0.8061251636 0.7376187290 20.2907559476 20.2907559476 20.2907559476 0.0053812992 110496.8552420975 0.0050787629 83348.1168671469 40163.5102652007 0.0000798803 0.1214666972 0.1216959190 0.0000000000 1476.8689229164 0.0000000000 0.0009165118 13.0143148626 0.0000000000 19.7327723008 7596.0636500000
 7611.3727500000 2594.5171480307 3563.3141328872 3432.7253287303 0.2236100208 6535380.1130460966 0.2111393273 4271547.5742075238 1763252.5841845570 0.0003457770 5738.8968772802 6273.0033329087 8135.7613524967 4186.1166397763 0.9000000000 0.0391836221 870.9463768164 0.0000000000 1632.7368279123 0.8241618876 0.7539897290 19.9691335465 19.9691335465 19.9691335465 0.0052937571 108716.0193915144 0.0050532417 77782.6055469010 37789.1260851286 0.0000777568 0.1186716218 0.1188987632 0.0000000000 1440.7777564042 0.0000000000 0.0009019681 12.8201277975 0.0000000000 19.4691371101 7611.3727500000
 7626.6818500000 2563.0449517556 3204.4894257145 3442.7090839579 0.2199838962 6511721.9395508841 0.2075860504 4123543.5554338843 1707326.9259703828 0.0002735048 5765.5923604728 6299.3471059094 8153.2792564796 4194.5382742944 0.9000000000 0.0383208812 886.5309394449 0.0000000000 1624.8157664411 0.8259617000 0.7559765143 20.3083435109 20.3083435109 20.3083435109 0.0053812623 110530.6004173168 0.0050982374 78028.4381611464 37994.1571358326 0.0000788396 0.1203509683 0.1205825049 0.0000000000 1461.1083664313 0.0000000000 0.0009170169 13.0848713014 0.0000000000 19.8534078050 7626.6818500000
 7641.9909500000 2547.2506495217 3223.1840287781 2954.8683282000 0.2183468376 6552476.9080310864 0.2060929736 4133851.8873915104 1713696.7978466528 0.0002727584 5766.8230172930 6304.6400580233 8170.7896640073 4202.9574604320 0.9000000000 0.0379949374 893.7339576512 0.0000000000 1621.2895039637 0.8249996760 0.7546231152 19.9657306588 19.9657306588 19.9657306588 0.0052937557 108709.4893431398 0.0050553224 78429.9542272863 38037.4341412796 0.0000778703 0.1187956838 0.1190225514 0.0000000000 1442.5035168325 0.0000000000 0.0009019049 12.8020628050 0.0000000000 19.4458279490 7641.9909500000
 7657.3000000000 2555.7503449812 3179.8112789208 3440.2452517253 0.2198525951 6560082.8417070163 0.2078479850 4145993.6683662795 1716219.9585177319 0.0002718445 5795.7825912204 6333.5592757326 8188.3173596173 4211.3769449344 0.9000000000 0.0377882169 873.9826760005 0.0000000000 1626.9680646300 0.8271269606 0.7568963722 19.9753826932 19.9753826932 19.9753826932 0.0052937735 108728.0102541086 0.0050252692 76871.0749209208 37375.8412487550 0.0000775548 0.1183983396 0.1186260723 0.0000000000 1437.3394366879 0.0000000000 0.0009020584 12.8530028455 0.0000000000 19.5119787270 7657.3000000000
 7672.6090500000 2542.6889627505 3397.2672737713 3397.3126585776 0.2170948658 6496962.1161180241 0.2043335789 4053433.7225659774 1682825.1305293804 0.0002739643 5789.8331557044 6323.6421708253 8205.8386349172 4219.7982254019 0.9000000000 0.0381429538 918.0624100872 0.0000000000 1616.6016684851 0.8241840721 0.7546107351 20.3077529537 20.3077529537 20.3077529537 0.0053812636 110529.4711574696 0.0050946203 77565.6819076427 37698.7936474026 0.0000787022 0.1201799041 0.1204117631 0.0000000000 1458.8528955713 0.0000000000 0.0009169819 13.0910606243 0.0000000000 19.8492310450 7672.6090500000
 7687.9181500000 2569.3734843184 3509.3352104195 3710.9752590454 0.2209487230 6496944.0535951322 0.2090777507 4133498.1465715100 1709159.2496458716 0.0002738772 5819.9069776862 6352.0295747337 8223.3494237225 4228.2169211449 0.9000000000 0.0381873850 871.3114472994 0.0000000000 1630.2665888831 0.8262353281 0.7570198933 19.9602649977 19.9602649977 19.9602649977 0.0052937971 108699.0126087645 0.0050419025 81085.1486644504 39135.3550361195 0.0000784320 0.1194075237 0.1196331705 0.0000000000 1451.1060292378 0.0000000000 0.0009016779 12.7988782215 0.0000000000 19.4079962341 7687.9181500000
 7703.2272500000 2693.9967230581 3478.2940525579 4533.0250375984 0.2277536483 6364668.6680665500 0.2151590811 4620672.2656104071 1899802.3651460863 0.0002543739 5665.0713601607 6183.4708515407 8240.7388394053 4236.6377401350 0.9000000000 0.0446445118 939.2352352129 0.0000000000 1639.4642435561 0.8027117273 0.7354153235 19.9236960964 19.9236960964 19.9236960964 0.0052939630 108628.9203612916 0.0050908559 95301.2266418704 45664.8251501278 0.0000819942 0.1236047726 0.1238223827 0.0000000000 1507.8825254851 0.0000000000 0.0009006489 12.7139694298 0.0000000000 19.1546940061 7703.2272500000
