~Version ---------------------------------------------------
VERS.   2.0 : CWLS log ASCII Standard -VERSION 2.0
WRAP.    NO : One line per depth step
DLM . SPACE : Column Data Section Delimiter
~Well ------------------------------------------------------
STRT.ft               5683.82875 : START DEPTH
STOP.ft        7698.577649999999 : STOP DEPTH
STEP.ft       15.128450000000157 : STEP
NULL.                   -9999.25 : NULL VALUE
COMP.                            : COMPANY
WELL.                     bypass : WELL
FLD .                            : FIELD
LOC .                            : LOCATION
PROV.                            : PROVINCE
CNTY.                            : COUNTY
STAT.                            : STATE
CTRY.                            : COUNTRY
SRVC.                            : SERVICE COMPANY
DATE. 2019-07-30 20:43:20.519169 : DATE
UWI .                            : UNIQUE WELL ID
API .                            : API NUMBER
~Curve Information -----------------------------------------
Depth              .ft          : 
KICh               .psi*in^1/2  : 
KICvup             .psi*in^1/2  : 
KICvdown           .psi*in^1/2  : 
nuh                .            : 
Eh                 .psi         : 
nuv                .            : 
Ev                 .psi         : 
Gv                 .psi         : 
Cl                 .ft/min^1/2  : 
Sigma_h            .psi         : 
SigmaH             .psi         : 
SigmaV             .psi         : 
Pore Pressure      .psi         : 
Biot               .            : 
Porosity           .            : 
Permeability       .nD          : 
SoPhi              .            : 
TensileStrength    .psi         : 
Grad_SigmaH        .psi/ft      : 
Grad_Sigma_h       .psi/ft      : 
Std_KICh           .psi*in^1/2  : 
Std_KICvup         .psi*in^1/2  : 
Std_KICvdown       .psi*in^1/2  : 
Std_nuh            .            : 
Std_Eh             .psi         : 
Std_nuv            .            : 
Std_Ev             .psi         : 
Std_Gv             .psi         : 
Std_Cl             .ft/min^1/2  : 
Std_Sigma_h        .psi         : 
Std_SigmaH         .psi         : 
Std_SigmaV         .psi         : 
Std_Pore Pressure  .psi         : 
Std_Biot           .            : 
Std_Porosity       .            : 
Std_Permeability   .nD          : 
Std_SoPhi          .            : 
Std_TensileStrength.psi         : 
Std_Depth          .ft          : 
~Params ----------------------------------------------------
~Other -----------------------------------------------------
Exported from homogenization method
~ASCII -----------------------------------------------------
# ...
 7329.5659000000 2657.7801770756 3211.1578441655 2980.0579702874 0.2264603007 6650053.2466012761 0.2128186352 5028007.6879987922 2071122.5943282051 0.0002085878 5259.4028186713 5801.6179431747 7675.1254463812 4031.1231052450 0.9000000000 0.0445404485 946.2499671306 0.0000000000 1633.9960023896 0.7915363641 0.7175599333 22.2048625633 22.2048625633 22.2048625633 0.0176850415 121000.0294611387 0.0169423626 108110.2130518982 52567.7566904531 0.0001367933 0.2595952654 0.2593064515 0.0000000000 2747.5871093963 0.0000000000 0.0020067502 14.2095734334 0.0000000000 21.4598206046 7329.5659000000
 7342.2904500000 2642.6094370004 3331.6150551284 3313.4773523723 0.2310112149 7038042.8025499489 0.2209035910 5525140.5258077132 2261483.2389035122 0.0002290016 5289.9317844514 5861.6603534218 7689.4815919528 4038.1227291839 0.9000000000 0.0415096811 819.0092519685 0.0000000000 1666.0046131680 0.7983422058 0.7204743289 21.7822309344 21.7822309344 21.7822309344 0.0173414313 118666.7044222504 0.0166095846 104322.7009622072 50614.6798566345 0.0001339052 0.2542497031 0.2539662211 0.0000000000 2690.4881156620 0.0000000000 0.0019682282 13.9438756021 0.0000000000 21.1030050690 7342.2904500000
 7355.0150000000 2618.9918162916 3142.2789867325 2871.6213960260 0.2275718192 6890656.7730475497 0.2166089363 5211456.6421414129 2140764.2749694693 0.0004645372 5312.5783051806 5873.9024302162 7703.8623331648 4045.1206043805 0.9000000000 0.0413572459 851.3463834117 0.0000000000 1649.6221842358 0.7986254862 0.7223069301 22.1996138587 22.1996138587 22.1996138587 0.0176849741 120989.9471666855 0.0171274507 110694.6583755872 53622.1823908451 0.0001375198 0.2610813399 0.2607941431 0.0000000000 2762.8470279576 0.0000000000 0.0020067075 14.1718294631 0.0000000000 21.4242248964 7355.0150000000
 7367.7395500000 2647.8770519475 3137.4866236243 3511.6193847583 0.2221118301 6587964.8546404410 0.2064469284 4924653.4276918983 2039418.0740101701 0.0002442145 5246.2592055870 5785.3232005726 7718.2311935654 4052.1191280600 0.9000000000 0.0462147715 1043.5288784317 0.0000000000 1611.4818973717 0.7852236308 0.7120581788 22.2343231407 22.2343231407 22.2343231407 0.0176854870 121056.5034744978 0.0163890990 97332.7802848568 46915.9749613081 0.0001341429 0.2545259613 0.2542315496 0.0000000000 2694.2202238528 0.0000000000 0.0020073493 14.3129874346 0.0000000000 21.6636588139 7367.7395500000
 7380.4641000000 2628.9756991563 2856.5881205789 2790.9246630389 0.2218746981 6631228.9827628741 0.2068966096 4789953.6630054787 1982883.3743326147 0.0002492914 5309.5385544697 5852.2479659288 7732.4827875867 4059.1181035160 0.9000000000 0.0446608242 1007.6851063628 0.0000000000 1610.4112730685 0.7929376644 0.7194044280 21.7811531591 21.7811531591 21.7811531591 0.0173415920 118664.6373908903 0.0165529521 104597.0395529733 50775.6578361095 0.0001338126 0.2539561009 0.2536722754 0.0000000000 2687.8491922440 0.0000000000 0.0019679968 13.9456148971 0.0000000000 21.0955833372 7380.4641000000
 7393.1886500000 2640.7483937654 2889.8961990222 2869.4954590456 0.2254300474 6846735.3493912565 0.2144219811 5282236.2593761282 2173971.3274279130 0.0001537901 5288.7168165536 5847.4378438527 7746.8026400416 4066.1155269362 0.9000000000 0.0439083950 917.9224627039 0.0000000000 1638.6637623766 0.7909223098 0.7153499075 22.2219319227 22.2219319227 22.2219319227 0.0176852224 121032.7469273624 0.0166947545 103678.0251820847 50240.3796102988 0.0001356585 0.2573937543 0.2571025638 0.0000000000 2724.5379975235 0.0000000000 0.0020071301 14.2681842834 0.0000000000 21.5780443692 7393.1886500000
 7405.9132000000 2595.5668335010 3241.2799170380 2973.4878002131 0.2134039647 6487062.6707769874 0.1964615153 4616211.7641168395 1929004.6939456963 0.0005570745 5248.2307373283 5782.8476381823 7761.0968743739 4073.1156026516 0.9000000000 0.0471363875 1170.8110251369 0.0000000000 1571.1468314405 0.7808419410 0.7086540978 21.7867430373 21.7867430373 21.7867430373 0.0173421411 118675.3682488750 0.0163564988 102715.3944520959 49489.5481203717 0.0001330693 0.2523946994 0.2521091206 0.0000000000 2671.9495585609 0.0000000000 0.0019677622 13.9839277769 0.0000000000 21.1337347731 7405.9132000000
 7418.6377500000 2709.4730788496 3026.6878457718 3058.9166584416 0.2256701949 6511434.7018232951 0.2140409433 5130806.2885215040 2111925.9813304115 0.0002426478 5266.3464265942 5797.6014680370 7775.3056594367 4080.1119258124 0.9000000000 0.0480933564 1011.5172287308 0.0000000000 1629.9368362025 0.7814913820 0.7098805204 22.1898807607 22.1898807607 22.1898807607 0.0176853140 120971.3071928148 0.0170764188 112556.8835219584 54497.7422350697 0.0001376289 0.2610524037 0.2607650967 0.0000000000 2763.4595387658 0.0000000000 0.0020059476 14.1677260358 0.0000000000 21.3562693676 7418.6377500000
 7431.3622500000 2643.5943318413 3024.6529343906 3024.4185974919 0.2244737577 6725196.9653125862 0.2099942682 5039625.4230949972 2080322.5090961240 0.0001612540 5322.9094994888 5872.1411120945 7789.5435491750 4087.1130741876 0.9000000000 0.0445661037 970.6929156853 0.0000000000 1627.2789401622 0.7901836722 0.7162764135 21.7261717194 21.7261717194 21.7261717194 0.0173414378 118559.4565107508 0.0168111717 108846.9170573931 55691.2099623506 0.0001031470 0.2500060171 0.2496957391 0.0000000000 2740.7412857908 0.0000000000 0.0019664223 13.8806024288 0.0000000000 20.7075434487 7431.3622500000
 7444.0868000000 2810.8746771630 3743.2702379047 4112.5164381684 0.2806727350 8173809.3162791878 0.2657843093 7516857.6140372027 2958730.4123516446 0.0001683449 5588.7908898770 6227.0342984183 7804.0145323749 4094.1093973484 0.9000000000 0.0308455111 371.3993422030 0.0000000000 1874.5480446544 0.8365074811 0.7507691729 22.1454744091 22.1454744091 22.1454744091 0.0176848211 120886.3636895573 0.0173409750 115039.4673150728 58654.6484027246 0.0001056486 0.2561739713 0.2558589984 0.0000000000 2807.7567997510 0.0000000000 0.0020049668 14.1066057946 0.0000000000 21.0426008379 7444.0868000000
 7456.8113500000 2736.4458876966 3740.2336171437 3631.2057979602 0.2494626995 7389079.2136489153 0.2394530490 6318651.6215017214 2542544.8341808398 0.0004387387 5427.5079745309 6018.8885108625 7818.5118172777 4101.1094730638 0.9000000000 0.0389268254 624.8830318512 0.0000000000 1748.4898724726 0.8071665258 0.7278590968 21.6853092044 21.6853092044 21.6853092044 0.0173413138 118481.1750548884 0.0172953905 119850.6382554311 61840.0576705443 0.0001044521 0.2533254503 0.2530190371 0.0000000000 2776.0867778248 0.0000000000 0.0019650110 13.7736094696 0.0000000000 20.4230755960 7456.8113500000
 7469.5359000000 2862.0084284221 3426.7999268536 3819.9327309034 0.2654599427 7662969.2608866459 0.2649449401 7586019.7940198816 2997432.2540779118 0.0001764949 5422.9757518648 6028.5239009854 7832.9112421579 4108.1068964840 0.9000000000 0.0382334320 448.9958543984 0.0000000000 1842.4686505440 0.8070814548 0.7260124089 22.1058901772 22.1058901772 22.1058901772 0.0176846654 120810.5615981310 0.0176846654 125480.1905705669 64501.7332299934 0.0001067787 0.2588754069 0.2585635278 0.0000000000 2837.2429005933 0.0000000000 0.0020037234 14.0263292456 0.0000000000 20.7659951352 7469.5359000000
 7482.2604500000 2860.5741789888 3535.7918730564 3363.0890472965 0.2728244943 7738321.4137650775 0.2720360322 7616836.8792551300 2992352.9131206330 0.0001734191 5506.6031643384 6114.5676911361 7847.3369677937 4115.1058719400 0.9000000000 0.0352543878 386.4824605303 0.0000000000 1860.8855828157 0.8172086139 0.7359544888 22.0899085663 22.0899085663 22.0899085663 0.0176846407 120780.0214346302 0.0176846407 122310.7100804076 64495.9922695724 0.0001066501 0.2586859029 0.2583737136 0.0000000000 2834.6592801887 0.0000000000 0.0020032846 14.0154158165 0.0000000000 20.6519774276 7482.2604500000
 7494.9850000000 2747.7325952437 3252.4556088494 3128.2564958233 0.2640185551 7666840.4548957823 0.2522014470 6664486.9485097313 2648210.7823171681 0.0001116841 5564.2562891531 6170.8012187103 7861.8755927690 4122.1043956195 0.9000000000 0.0333198567 455.0525130781 0.0000000000 1808.1185803189 0.8233240252 0.7423972549 21.7468000696 21.7468000696 21.7468000696 0.0173412235 118598.8092766797 0.0170784602 109978.5063446945 53350.5920710126 0.0001356446 0.2578930656 0.2576133879 0.0000000000 2727.5816323079 0.0000000000 0.0019676074 13.8269318881 0.0000000000 20.8570491272 7494.9850000000
