~Version ---------------------------------------------------
VERS.   2.0 : CWLS log ASCII Standard -VERSION 2.0
WRAP.    NO : One line per depth step
DLM . SPACE : Column Data Section Delimiter
~Well ------------------------------------------------------
STRT.ft               6039.97275 : START DEPTH
STOP.ft               8231.95595 : STOP DEPTH
STEP.ft       14.389100000000326 : STEP
NULL.                   -9999.25 : NULL VALUE
COMP.                            : COMPANY
WELL.                     bypass : WELL
FLD .                            : FIELD
LOC .                            : LOCATION
PROV.                            : PROVINCE
CNTY.                            : COUNTY
STAT.                            : STATE
CTRY.                            : COUNTRY
SRVC.                            : SERVICE COMPANY
DATE. 2019-07-30 20:43:31.491401 : DATE
UWI .                            : UNIQUE WELL ID
API .                            : API NUMBER
~Curve Information -----------------------------------------
Depth              .ft          : 
KICh               .psi*in^1/2  : 
KICvup             .psi*in^1/2  : 
KICvdown           .psi*in^1/2  : 
nuh                .            : 
Eh                 .psi         : 
nuv                .            : 
Ev                 .psi         : 
Gv                 .psi         : 
Cl                 .ft/min^1/2  : 
Sigma_h            .psi         : 
SigmaH             .psi         : 
SigmaV             .psi         : 
Pore Pressure      .psi         : 
Biot               .            : 
Porosity           .            : 
Permeability       .nD          : 
SoPhi              .            : 
TensileStrength    .psi         : 
Grad_SigmaH        .psi/ft      : 
Grad_Sigma_h       .psi/ft      : 
Std_KICh           .psi*in^1/2  : 
Std_KICvup         .psi*in^1/2  : 
Std_KICvdown       .psi*in^1/2  : 
Std_nuh            .            : 
Std_Eh             .psi         : 
Std_nuv            .            : 
Std_Ev             .psi         : 
Std_Gv             .psi         : 
Std_Cl             .ft/min^1/2  : 
Std_Sigma_h        .psi         : 
Std_SigmaH         .psi         : 
Std_SigmaV         .psi         : 
Std_Pore Pressure  .psi         : 
Std_Biot           .            : 
Std_Porosity       .            : 
Std_Permeability   .nD          : 
Std_SoPhi          .            : 
Std_TensileStrength.psi         : 
Std_Depth          .ft          : 
~Params ----------------------------------------------------
~Other -----------------------------------------------------
Exported from homogenization method
~ASCII -----------------------------------------------------
# ...
 6652.8117000000 2609.2439150397 4366.1797794735 5721.9415802837 0.2194930833 6416953.9234935651 0.2045529008 4680881.2160864305 1941975.1567245089 0.0005536033 4238.8708948792 4765.0693630226 6901.8670451144 2794.1546638252 0.9000000000 0.0416340105 816.4274187484 0.0000000000 1518.0414780886 0.7162489452 0.6371547980 2.3786036662 2.3786036662 2.3786036662 0.0001974463 5875.0931882814 0.0001916654 4422.6435905197 1824.9057498851 0.0000042470 0.0065581610 0.0065742967 0.0000000000 75.2224988767 0.0000000000 0.0000382200 0.7240067637 0.0000000000 1.4103346549 6652.8117000000
 6667.8039000000 2619.8279570537 3802.9982814354 4213.1463826494 0.2218818673 6556774.3921849262 0.2101796659 4874312.6382131046 2011655.8610993319 0.0005885097 4271.4827658521 4808.0955569459 6918.6127216198 2800.4513861208 0.9000000000 0.0401705676 723.6087899051 0.0000000000 1529.5894914055 0.7210913262 0.6406131359 2.3951938632 2.3951938632 2.3951938632 0.0001919611 5733.8270684182 0.0001857211 4271.4044035192 1774.1766026616 0.0000044125 0.0068109195 0.0068257370 0.0000000000 78.2236217585 0.0000000000 0.0000417146 0.8707888059 0.0000000000 1.4536144864 6667.8039000000
 6682.5931500000 2612.9768521370 3867.4415394088 3401.4390259652 0.2000085155 6009717.1537393872 0.1920237744 4446564.6856208229 1865270.8476003513 0.0001925680 4081.5613796176 4582.3675885888 6935.0470748258 2806.6628375085 0.9000000000 0.0494012805 1145.4542010373 0.0000000000 1646.4009505221 0.6857169793 0.6107750821 2.3913074111 2.3913074111 2.3913074111 0.0001880840 5554.3193586357 0.0001778096 3966.3369828739 1663.1377929016 0.0000044407 0.0068630443 0.0068767973 0.0000000000 78.8507855277 0.0000000000 0.0000439722 0.9591771177 0.0000000000 1.4419954074 6682.5931500000
 6697.1794000000 2601.3615596769 3400.0967093886 3656.2280989098 0.2149312890 6312997.2394661503 0.2017845549 4590996.8520038091 1908177.4180883442 0.0001701930 4235.8232092878 4755.4408450090 6951.2262197780 2812.7891181048 0.9000000000 0.0428436899 800.8435669612 0.0000000000 1518.7001758529 0.7100662176 0.6324786834 2.4324509516 2.4324509516 2.4324509516 0.0001988070 5920.9536272218 0.0001899955 4525.6161028864 1872.8795859648 0.0000043628 0.0067258618 0.0067418466 0.0000000000 77.2168823054 0.0000000000 0.0000393191 0.7758663858 0.0000000000 1.4424532788 6697.1794000000
 6711.7656500000 2639.5264147883 4323.5373516252 4572.2887956955 0.2081837172 6146948.9882872887 0.1916422882 4541862.6263088183 1905605.8798599057 0.0001768624 4122.0133677840 4630.7893842920 6967.4684899682 2818.9153404393 0.9000000000 0.0462468579 1018.0761684183 0.0000000000 1580.0696987087 0.6899509944 0.6141473917 2.4416341257 2.4416341257 2.4416341257 0.0001957420 5842.3836871728 0.0001863662 4444.3391058095 1846.8353845387 0.0000044538 0.0068647401 0.0068799996 0.0000000000 78.8672450419 0.0000000000 0.0000412126 0.8567753498 0.0000000000 1.4668510084 6711.7656500000
 6726.3519000000 2633.2126875769 4253.2466224110 4566.7009545367 0.2127091107 6307700.0062200278 0.1993960537 4705048.4571128339 1960675.9787830687 0.0001719221 4190.9539552293 4711.0869327743 6983.6977994435 2825.0415221922 0.9000000000 0.0441465989 898.1077854136 0.0000000000 1577.4049076936 0.7003925758 0.6230649270 2.4238566563 2.4238566563 2.4238566563 0.0001867130 5548.7922057745 0.0001738808 4070.7633325882 1712.7686436370 0.0000045174 0.0069672348 0.0069807813 0.0000000000 80.1223622945 0.0000000000 0.0000446142 0.9829596134 0.0000000000 1.4681729964 6726.3519000000
 6740.9381000000 2646.5123155555 5214.9227608472 3926.8266975819 0.2106770752 6261531.0612561675 0.1953619747 4717523.8109363895 1972352.3922784396 0.0001728989 4148.5948616563 4665.7873640491 6999.8621177046 2831.1677505108 0.9000000000 0.0452986945 964.6991316888 0.0000000000 1600.9922239103 0.6921569809 0.6154328671 2.4469469054 2.4469469054 2.4469469054 0.0002101462 6301.2440894674 0.0002054242 4998.2299607533 2037.6697328433 0.0000043563 0.0067090775 0.0067272601 0.0000000000 76.9468056524 0.0000000000 0.0000346445 0.6351258837 0.0000000000 1.4567179475 6740.9381000000
 6755.5243500000 2624.1228197009 4597.2873089909 5626.7572389939 0.2267700899 6605846.9413198251 0.2091148421 4793748.8448771341 1978785.8343546204 0.0001608044 4374.5173040184 4912.9920349813 7016.2090521421 2837.2903856737 0.9000000000 0.0389167543 698.5949781034 0.0000000000 1520.1115786886 0.7272554698 0.6475466710 2.4024435531 2.4024435531 2.4024435531 0.0001963380 5743.0154118561 0.0001849395 4056.6423040103 1691.1325137704 0.0000042074 0.0065136115 0.0065290557 0.0000000000 74.6790835778 0.0000000000 0.0000406970 0.7639220154 0.0000000000 1.3863563430 6755.5243500000
 6770.1106500000 2613.3572621611 4590.8270588167 4018.6903191456 0.2183175772 6377756.4463337529 0.2030651484 4602632.2559891455 1912234.8877349806 0.0001672534 4320.5253445308 4844.0141758133 7032.4723596299 2852.0802141447 0.9000000000 0.0416872228 773.3318956219 0.0000000000 1500.3407384326 0.7155000008 0.6381764742 2.4265787250 2.4265787250 2.4265787250 0.0001983632 5894.6020940321 0.0001884280 4432.6183092143 1837.2252623757 0.0000043335 0.0066862730 0.0067021991 0.0000000000 76.7444780310 0.0000000000 0.0000394750 0.7821793339 0.0000000000 1.4294395327 6770.1106500000
 6784.6969000000 2637.6798576442 4747.2835638592 4072.4312836008 0.2220784225 6583628.7645094926 0.2113478815 4983773.4327725796 2057109.0036659688 0.0001553508 4352.4745776780 4891.1984961415 7048.7841849382 2892.6432480579 0.9000000000 0.0399625638 719.8873163428 0.0000000000 1539.3081070635 0.7209162868 0.6415134886 2.3274118873 2.3274118873 2.3274118873 0.0001979684 5869.7730489735 0.0001912042 4400.6216536491 1807.3296185231 0.0000040116 0.0062005222 0.0062175372 0.0000000000 71.0219741208 0.0000000000 0.0000344465 0.5789360119 0.0000000000 1.3378627169 6784.6969000000
 6800.6159000000 2661.8783456712 3957.2398732236 3850.2286487831 0.2238237740 6630392.5900325691 0.2064585761 4936598.5815503215 2039444.5814781596 0.0001557676 4386.4653610550 4928.2421046640 7066.5953047332 2948.5339131818 0.9000000000 0.0399007393 718.9960774771 0.0000000000 1565.4577473394 0.7246758495 0.6450100146 2.2633898836 2.2633898836 2.2633898836 0.0001882055 5674.6853486611 0.0001830429 4460.0299577039 1828.7299441112 0.0000040276 0.0062002940 0.0062162772 0.0000000000 71.1561252468 0.0000000000 0.0000340603 0.6141259345 0.0000000000 1.3569902070 6800.6159000000
 6817.8676500000 2647.4915395967 5665.0098851703 3707.2615039072 0.2289211731 6738108.2178195175 0.2100037765 4894894.2743565617 2012737.5808441734 0.0002310063 4503.6305549844 5051.9251376937 7085.9208780651 2993.8892021578 0.9000000000 0.0383412532 682.5730977892 0.0000000000 1554.9351833413 0.7409831632 0.6605629188 2.3436346479 2.3436346479 2.3436346479 0.0002169852 6742.0325892230 0.0002144120 6106.0737477691 2419.4651800968 0.0000022254 0.0064998214 0.0065150418 0.0000000000 80.5050369144 0.0000000000 0.0000228665 0.3536634565 0.0000000000 1.4632329295 6817.8676500000
 6835.1194000000 2799.4888639477 4294.0869948156 5801.2395278868 0.2606011500 8117796.0894851312 0.2479604241 7368620.9766073776 2937739.4470209000 0.0006955456 4558.7274327819 5202.6897272436 7105.4986671118 3007.4250333878 0.9000000000 0.0259345391 355.3846119014 0.0000000000 1787.8411680636 0.7611702770 0.6669565177 2.2749614269 2.2749614269 2.2749614269 0.0001929436 5886.3828999845 0.0001909376 4830.1123877943 1966.1189740987 0.0000040972 0.0062907523 0.0063077587 0.0000000000 72.2176451027 0.0000000000 0.0000320679 0.5418043504 0.0000000000 1.3877038140 6835.1194000000
 6852.3712000000 2641.1815587027 3881.3609153696 3593.7125690523 0.2174719562 6497254.9862032160 0.2094976982 4843889.8047735840 2001250.4508849685 0.0003584818 4445.9520771468 4979.6198099668 7124.8571947477 3015.0158253052 0.9000000000 0.0419457208 797.5480599700 0.0000000000 1584.1253405384 0.7267002421 0.6488195031 2.2452946742 2.2452946742 2.2452946742 0.0001844461 5530.8182751649 0.0001799093 4130.3070164559 1701.9919105688 0.0000039958 0.0061715309 0.0061867613 0.0000000000 70.7845649331 0.0000000000 0.0000355388 0.6868602916 0.0000000000 1.3443557061 6852.3712000000
