~Version ---------------------------------------------------
VERS.   2.0 : CWLS log ASCII Standard -VERSION 2.0
WRAP.    NO : One line per depth step
DLM . SPACE : Column Data Section Delimiter
~Well ------------------------------------------------------
STRT.ft               5569.94125 : START DEPTH
STOP.ft        8198.326850000001 : STOP DEPTH
STEP.ft        14.50250000000051 : STEP
NULL.                   -9999.25 : NULL VALUE
COMP.                            : COMPANY
WELL.                     bypass : WELL
FLD .                            : FIELD
LOC .                            : LOCATION
PROV.                            : PROVINCE
CNTY.                            : COUNTY
STAT.                            : STATE
CTRY.                            : COUNTRY
SRVC.                            : SERVICE COMPANY
DATE. 2019-07-30 20:43:31.496337 : DATE
UWI .                            : UNIQUE WELL ID
API .                            : API NUMBER
~Curve Information -----------------------------------------
Depth              .ft          : 
KICh               .psi*in^1/2  : 
KICvup             .psi*in^1/2  : 
KICvdown           .psi*in^1/2  : 
nuh                .            : 
Eh                 .psi         : 
nuv                .            : 
Ev                 .psi         : 
Gv                 .psi         : 
Cl                 .ft/min^1/2  : 
Sigma_h            .psi         : 
SigmaH             .psi         : 
SigmaV             .psi         : 
Pore Pressure      .psi         : 
Biot               .            : 
Porosity           .            : 
Permeability       .nD          : 
SoPhi              .            : 
TensileStrength    .psi         : 
Grad_SigmaH        .psi/ft      : 
Grad_Sigma_h       .psi/ft      : 
Std_KICh           .psi*in^1/2  : 
Std_KICvup         .psi*in^1/2  : 
Std_KICvdown       .psi*in^1/2  : 
Std_nuh            .            : 
Std_Eh             .psi         : 
Std_nuv            .            : 
Std_Ev             .psi         : 
Std_Gv             .psi         : 
Std_Cl             .ft/min^1/2  : 
Std_Sigma_h        .psi         : 
Std_SigmaH         .psi         : 
Std_SigmaV         .psi         : 
Std_Pore Pressure  .psi         : 
Std_Biot           .            : 
Std_Porosity       .            : 
Std_Permeability   .nD          : 
Std_SoPhi          .            : 
Std_TensileStrength.psi         : 
Std_Depth          .ft          : 
~Params ----------------------------------------------------
~Other -----------------------------------------------------
Exported from homogenization method
~ASCII -----------------------------------------------------
# ...
 6382.5272000000 2707.5765157218 3371.3128847292 3528.2887296912 0.2139901597 6525828.9889651900 0.1893175745 4918537.8076860895 2060318.4053267746 0.0006587443 3908.7076972304 4446.2597471031 6636.6382475665 2680.5563552421 0.9000000000 0.0542876271 1314.3281873613 0.0000000000 1568.1309726061 0.6966299724 0.6124075268 20.5851843492 20.5851843492 20.5851843492 0.0054739568 112285.4329057785 0.0052633321 105405.0788509402 54435.5299999865 0.0000862473 0.1374859488 0.1377285197 0.0000000000 1498.7566538157 0.0000000000 0.0009307332 13.1291485437 0.0000000000 19.7021762090 6382.5272000000
 6397.1150000000 2776.3743854230 4142.0835617106 5269.8735061100 0.2485561587 7692827.8572694641 0.2301558889 6725091.6959406873 2725086.6466815243 0.0005372363 4105.4617592994 4721.5996721515 6652.8414035256 2686.6830092954 0.9000000000 0.0430548529 771.4449796877 0.0000000000 1729.8110784349 0.7380826626 0.6417676967 20.6322593038 20.6322593038 20.6322593038 0.0054740791 112375.5478869816 0.0051832906 97171.1825322225 47460.8614691624 0.0000826845 0.1325896658 0.1328417258 0.0000000000 1442.1402399619 0.0000000000 0.0009313046 13.2302665403 0.0000000000 20.0323010019 6397.1150000000
 6411.7028000000 2633.3267239161 4008.4103045024 2962.8398886012 0.2033536078 6178542.6220541652 0.1832755388 4295876.8918040162 1812706.8925399228 0.0006320936 3959.3711670433 4472.8148117137 6668.9829935462 2692.8096633488 0.9000000000 0.0532737850 1382.0549318333 0.0000000000 1536.6343639369 0.6976017060 0.6175225662 20.6464809625 20.6464809625 20.6464809625 0.0054742120 112402.8223178259 0.0051096853 91994.7654703188 44843.6992342852 0.0000810937 0.1304323196 0.1306887060 0.0000000000 1417.1102208844 0.0000000000 0.0009314543 13.2697340576 0.0000000000 20.1302717818 6411.7028000000
 6426.2905500000 2632.8233399726 4308.8093270858 3499.9412310822 0.2059473366 6208585.9904619409 0.1896905995 4450240.3628633386 1868619.9707752219 0.0006878508 3981.0696883319 4495.9002950913 6685.0885357675 2698.9375123563 0.9000000000 0.0516737475 1289.4710369140 0.0000000000 1558.0633860931 0.6996104923 0.6194973068 20.5985166566 20.5985166566 20.5985166566 0.0054735173 112310.8862383075 0.0053472865 103461.8217399878 51649.4464748844 0.0000851141 0.1360704890 0.1363157452 0.0000000000 1481.6178548905 0.0000000000 0.0009311888 13.1497410222 0.0000000000 19.7980814173 6426.2905500000
 6440.8783000000 2741.3674100034 3912.1979264956 4517.7560106661 0.2406606252 7186707.6521633090 0.2119524738 5679713.4500761796 2325270.8464278704 0.0005740858 4125.1270632518 4704.3916506959 6701.4109225172 2705.0641936413 0.9000000000 0.0442085293 884.1238117409 0.0000000000 1685.0339803018 0.7303959851 0.6404603334 20.6081341146 20.6081341146 20.6081341146 0.0054737335 112329.3275371032 0.0052517904 99861.8052708143 49469.4088557191 0.0000837394 0.1340978527 0.1343468146 0.0000000000 1459.2573828981 0.0000000000 0.0009311531 13.1819818745 0.0000000000 19.8644250878 6440.8783000000
 6455.4661000000 2652.0122327765 3539.6634109052 4036.3908577245 0.2123079154 6311932.9506281829 0.1953849446 4663570.1786082117 1948029.3251859120 0.0006834053 4016.4407038728 4537.0949758292 6717.6839918079 2711.1908476946 0.9000000000 0.0503718644 1193.4157425658 0.0000000000 1584.0748627538 0.7028299592 0.6221767169 20.6327336215 20.6327336215 20.6327336215 0.0054738689 112376.4562678552 0.0052099143 95574.3230918519 46257.9905890318 0.0000821121 0.1318890828 0.1321424920 0.0000000000 1433.6050449656 0.0000000000 0.0009314275 13.2435202416 0.0000000000 20.0356073272 6455.4661000000
 6469.9881500000 2649.8884783189 3212.3591748767 3318.5130344141 0.2118281931 6192708.7849743310 0.1996464887 4621242.5564048579 1925727.7841300890 0.0002000067 4038.4979717018 4549.5199812815 6733.7677015439 2717.2900079550 0.9000000000 0.0501090456 1170.9898451611 0.0000000000 1585.7132627747 0.7031728460 0.6241893923 20.6302516161 20.6302516161 20.6302516161 0.0054736972 112371.6759575981 0.0052132400 94318.5554973605 45548.4148932039 0.0000816991 0.1313610856 0.1316154876 0.0000000000 1427.3002544125 0.0000000000 0.0009314980 13.2320813979 0.0000000000 20.0191951145 6469.9881500000
 6484.4444000000 2644.0747216898 3377.7415566320 3316.1671416482 0.2151744743 6288000.3016468277 0.2026442424 4677731.9360184278 1943117.3191562304 0.0002704388 4084.9637050252 4602.4202871597 6749.8439029154 2723.3615772471 0.9000000000 0.0479401213 1087.8997350549 0.0000000000 1604.2467665206 0.7097632431 0.6299635640 20.6233778185 20.6233778185 20.6233778185 0.0054735454 112358.5005919100 0.0052727100 95986.9505808917 46547.0250179325 0.0000823125 0.1322676347 0.1325202206 0.0000000000 1437.4407484438 0.0000000000 0.0009315245 13.2110955712 0.0000000000 19.9715916183 6484.4444000000
 6498.9006000000 2678.4623013408 4017.4352639842 3414.2471998002 0.2315863872 6746483.1881494364 0.2132649274 5173903.5845712312 2123216.7830829937 0.0002471828 4181.2088357406 4728.9968965877 6766.0146895685 2729.4331255102 0.9000000000 0.0432530858 875.4811359331 0.0000000000 1666.9665182279 0.7276610596 0.6433717167 20.5962979444 20.5962979444 20.5962979444 0.0054734989 112306.6309391837 0.0053261940 104148.6097813294 50965.4796072692 0.0000848952 0.1356603978 0.1359063691 0.0000000000 1477.3833063950 0.0000000000 0.0009311750 13.1425639792 0.0000000000 19.7828014300 6498.9006000000
 6513.3568500000 2685.7258155843 3588.4419589467 3591.8610364912 0.2204780242 6254531.1871069511 0.2073894116 4759657.1006953977 1969641.6954167956 0.0001954666 4117.2811444031 4629.7468392479 6782.2436278923 2735.5046952540 0.9000000000 0.0484717151 1069.7779168504 0.0000000000 1613.2663638781 0.7108081049 0.6321289067 20.6278700944 20.6278700944 20.6278700944 0.0054739009 112367.1094650553 0.0051666754 96025.7801809674 45946.2354284977 0.0000819512 0.1315438472 0.1317978613 0.0000000000 1430.2091068262 0.0000000000 0.0009313248 13.2178519507 0.0000000000 20.0027608319 6513.3568500000
 6527.8131500000 2678.7257925554 4390.8961180211 3725.4010108114 0.2137139870 6003530.5695557129 0.1965127961 4530750.9676857097 1890689.8620112450 0.0002756122 4036.1195812687 4530.7608751589 6798.2313043667 2741.5762857716 0.9000000000 0.0519138494 1238.1388882034 0.0000000000 1577.7088352694 0.6940702454 0.6182958195 20.6118761589 20.6118761589 20.6118761589 0.0054737070 112336.4783561839 0.0052606803 101954.3620286071 49333.4878561385 0.0000839833 0.1343382029 0.1345867643 0.0000000000 1462.4628086038 0.0000000000 0.0009312448 13.1826007322 0.0000000000 19.8911206805 6527.8131500000
 6542.2694000000 2647.8596344772 3694.6159810992 4276.7951395444 0.2137146607 6163832.7958241124 0.1932131460 4472797.4251331128 1870180.7600026969 0.0002780097 4081.0226791752 4588.8712695576 6814.3287888269 2747.6478908704 0.9000000000 0.0500258588 1215.2849890037 0.0000000000 1579.3795400038 0.7014188791 0.6237931258 20.6404986013 20.6404986013 20.6404986013 0.0054737925 112391.3322616829 0.0051509717 91092.1432667125 43872.4336678633 0.0000806957 0.1299702249 0.1302274637 0.0000000000 1411.3234660620 0.0000000000 0.0009315977 13.2689633265 0.0000000000 20.0896339556 6542.2694000000
 6556.7256000000 2655.7359741481 3179.3375723979 3030.3094972225 0.2156789992 6187293.6744564129 0.2033590450 4572697.3890228039 1899357.2151094831 0.0002030516 4145.1279536958 4654.0858018104 6830.3594105804 2753.7200390836 0.9000000000 0.0485064693 1105.9583333432 0.0000000000 1598.0117845082 0.7098186024 0.6321948190 20.6306732124 20.6306732124 20.6306732124 0.0054739065 112372.4830793213 0.0051623804 95315.5208214383 45696.1829508140 0.0000817839 0.1313340710 0.1315885231 0.0000000000 1427.6940072235 0.0000000000 0.0009313829 13.2222426307 0.0000000000 20.0221480343 6556.7256000000
 6571.1818500000 2660.4978301282 3294.4647277290 3432.2070912045 0.2106079962 6091133.3877345789 0.1966201992 4564231.3650569925 1906595.0906707856 0.0002824167 4068.2035932979 4571.3502276179 6846.3948273916 2759.7916078803 0.9000000000 0.0517870717 1242.3340446444 0.0000000000 1571.1252305282 0.6956663705 0.6190977036 19.0614215288 19.0614215288 19.0614215288 0.0050554013 103796.7489268968 0.0047330846 85841.6451151972 41381.5911307135 0.0000749800 0.1205566861 0.1207932141 0.0000000000 1309.9654874673 0.0000000000 0.0008602898 12.2480590816 0.0000000000 18.5463658995 6571.1818500000
