~Version ---------------------------------------------------
VERS.   2.0 : CWLS log ASCII Standard -VERSION 2.0
WRAP.    NO : One line per depth step
DLM . SPACE : Column Data Section Delimiter
~Well ------------------------------------------------------
STRT.ft               5569.94125 : START DEPTH
STOP.ft        8198.326850000001 : STOP DEPTH
STEP.ft        14.50250000000051 : STEP
NULL.                   -9999.25 : NULL VALUE
COMP.                            : COMPANY
WELL.                     bypass : WELL
FLD .                            : FIELD
LOC .                            : LOCATION
PROV.                            : PROVINCE
CNTY.                            : COUNTY
STAT.                            : STATE
CTRY.                            : COUNTRY
SRVC.                            : SERVICE COMPANY
DATE. 2019-07-30 20:43:31.496337 : DATE
UWI .                            : UNIQUE WELL ID
API .                            : API NUMBER
~Curve Information -----------------------------------------
Depth              .ft          : 
KICh               .psi*in^1/2  : 
KICvup             .psi*in^1/2  : 
KICvdown           .psi*in^1/2  : 
nuh                .            : 
Eh                 .psi         : 
nuv                .            : 
Ev                 .psi         : 
Gv                 .psi         : 
Cl                 .ft/min^1/2  : 
Sigma_h            .psi         : 
SigmaH             .psi         : 
SigmaV             .psi         : 
Pore Pressure      .psi         : 
Biot               .            : 
Porosity           .            : 
Permeability       .nD          : 
SoPhi              .            : 
TensileStrength    .psi         : 
Grad_SigmaH        .psi/ft      : 
Grad_Sigma_h       .psi/ft      : 
Std_KICh           .psi*in^1/2  : 
Std_KICvup         .psi*in^1/2  : 
Std_KICvdown       .psi*in^1/2  : 
Std_nuh            .            : 
Std_Eh             .psi         : 
Std_nuv            .            : 
Std_Ev             .psi         : 
Std_Gv             .psi         : 
Std_Cl             .ft/min^1/2  : 
Std_Sigma_h        .psi         : 
Std_SigmaH         .psi         : 
Std_SigmaV         .psi         : 
Std_Pore Pressure  .psi         : 
Std_Biot           .            : 
Std_Porosity       .            : 
Std_Permeability   .nD          : 
Std_SoPhi          .            : 
Std_TensileStrength.psi         : 
Std_Depth          .ft          : 
~Params ----------------------------------------------------
~Other -----------------------------------------------------
Exported from homogenization method
~ASCII -----------------------------------------------------
# ...
 6588.3335500000 2660.7007820084 3880.9733653614 3359.8796808264 0.2097052714 6096226.3387421239 0.1917159494 4432320.2449817760 1857842.4660185347 0.0006025003 4083.8040276653 4587.7471353737 6865.3305564922 2766.9953613374 0.9000000000 0.0526869961 1312.1521949080 0.0000000000 1555.0257705043 0.6963440907 0.6198538669 17.5702209390 17.5702209390 17.5702209390 0.0046608349 95689.0865222127 0.0043657115 80307.3851876346 38743.2639461218 0.0000694583 0.1115666594 0.1117838687 0.0000000000 1212.7344275199 0.0000000000 0.0007931006 11.2832256985 0.0000000000 17.0743666466 6588.3335500000
 6608.1806000000 2635.0914280927 3549.8232433221 3521.0556945242 0.2075399972 6310053.6671249699 0.1889674951 4449744.0471049566 1869161.5018173230 0.0009177044 4118.9643800985 4641.5188032727 6887.2894656938 2775.3306272988 0.9000000000 0.0517483699 1318.4513319803 0.0000000000 1548.5976191611 0.7023898232 0.6233129252 17.5302408644 17.5302408644 17.5302408644 0.0046605946 95612.5367465049 0.0045051613 90554.7938482366 46393.8840727905 0.0000736203 0.1173263841 0.1175325058 0.0000000000 1279.1116641859 0.0000000000 0.0007926823 11.2013389135 0.0000000000 16.7945991686 6608.1806000000
 6628.0276500000 2827.9388064983 3837.6205011371 4396.8202871279 0.2704418596 8574959.2669128794 0.2666812734 8260026.9230338037 3256189.4023095560 0.0005338882 4426.8318237907 5101.7906345533 6909.5660263697 2783.6664099037 0.9000000000 0.0356237045 441.2582775751 0.0000000000 1829.9614044005 0.7697298358 0.6678957991 17.7366388843 17.7366388843 17.7366388843 0.0047198849 96798.1701701501 0.0045993331 92902.4710045796 48702.3638234380 0.0000485605 0.1306768521 0.1307933252 0.0000000000 1540.9849983826 0.0000000000 0.0008025844 11.3087051107 0.0000000000 16.8901271337 6628.0276500000
 6647.8747000000 2748.8584965253 4704.8462017306 4149.0030445371 0.2444497277 7512659.5690561822 0.2179962570 6021984.8676028401 2457577.6255803010 0.0008038084 4298.8264239449 4902.5197191910 6931.9700038095 2792.0027777498 0.9000000000 0.0434550192 851.8507914874 0.0000000000 1695.1280767064 0.7374566971 0.6466467282 17.5416006559 17.5416006559 17.5416006559 0.0046607232 95634.2828855321 0.0044519857 88235.3528343318 44232.4156957925 0.0000724478 0.1156418622 0.1158511069 0.0000000000 1259.9884511796 0.0000000000 0.0007927835 11.2167199205 0.0000000000 16.8742550485 6647.8747000000
 6667.7217500000 2731.2543940041 4675.3432267406 3879.5332188613 0.2345008003 7243816.7978009665 0.2055425620 5678504.2847628538 2338323.0448711351 0.0006019821 4218.7915302065 4805.5725833911 6954.1597256961 2800.3380435933 0.9000000000 0.0464560842 976.4555525801 0.0000000000 1657.5102908244 0.7207218243 0.6327185939 17.4885798495 17.4885798495 17.4885798495 0.0046603457 95532.7311679801 0.0046508999 97969.4185061850 53200.7268571358 0.0000484511 0.1302009587 0.1303147623 0.0000000000 1535.8143289434 0.0000000000 0.0007922118 11.1021911159 0.0000000000 16.5043775351 6667.7217500000
 6687.5688500000 2767.4483889421 3465.5467848737 3986.4998291948 0.2513337399 8121272.4849200826 0.2415260933 7393529.6830579527 2969460.2232807195 0.0005396376 4322.1352216681 4971.1445327530 6976.5503540424 2808.6734112792 0.9000000000 0.0402504525 624.2352276134 0.0000000000 1760.9145547198 0.7433410622 0.6462939401 17.7428816540 17.7428816540 17.7428816540 0.0047198221 96810.0493817205 0.0046662695 100628.4383212835 51181.1849525127 0.0000775390 0.1228394965 0.1230413142 0.0000000000 1342.2018882604 0.0000000000 0.0008026748 11.2929617784 0.0000000000 16.9364433429 6687.5688500000
 6707.4159000000 2751.1251793516 3650.3557425948 3584.9629648197 0.2395008917 7829314.9931422900 0.2356867310 7053788.3627416221 2850462.8747868077 0.0007867123 4269.6217194886 4901.2723334780 6998.8519267461 2817.0102151459 0.9000000000 0.0439421304 745.8816222172 0.0000000000 1713.9998139320 0.7307243813 0.6365524046 17.5229427762 17.5229427762 17.5229427762 0.0046604838 95598.4838762002 0.0045982842 100781.8625491571 50292.7960965040 0.0000766568 0.1213162551 0.1215155325 0.0000000000 1326.0688615311 0.0000000000 0.0007926033 11.1558094132 0.0000000000 16.7463273299 6707.4159000000
 6727.2629500000 2743.6550962530 4981.7226436260 4625.8274033258 0.2368146179 7555432.2868360449 0.2191655483 6169438.8497738084 2520223.2763893320 0.0007225081 4307.3146206516 4918.1929348087 7021.0698950895 2825.3454809015 0.9000000000 0.0455679317 887.7357756680 0.0000000000 1674.7240861365 0.7310837961 0.6402774282 17.5079828158 17.5079828158 17.5079828158 0.0046604888 95569.9010350155 0.0045709043 97136.6809360275 50032.1324326105 0.0000482203 0.1295933926 0.1297078646 0.0000000000 1528.8288288149 0.0000000000 0.0007924159 11.1470633304 0.0000000000 16.6394745059 6727.2629500000
 6747.1100000000 2813.8019881066 3844.4155643035 4871.4981960397 0.2645990636 8376629.2381802788 0.2608863442 7836188.1349692922 3102448.9668467073 0.0006082833 4492.4849331320 5154.8790056283 7043.4294502163 2833.6807467123 0.9000000000 0.0370657810 495.1404893249 0.0000000000 1806.0112500852 0.7640128893 0.6658384009 17.7266437660 17.7266437660 17.7266437660 0.0047197546 96778.9719813695 0.0046934834 103292.9904591803 52826.4093813718 0.0000491315 0.1319063408 0.1320216613 0.0000000000 1556.5392664192 0.0000000000 0.0008025106 11.2634154725 0.0000000000 16.8223476577 6747.1100000000
 6766.9570500000 2762.6921263487 4190.2540631226 3665.5213265180 0.2461668244 7838784.5745868133 0.2381198349 6826071.4796753004 2748033.8625568333 0.0007697308 4401.5710882681 5030.6028054675 7065.8330128957 2847.4385608624 0.9000000000 0.0417786273 690.1283982602 0.0000000000 1731.3114267174 0.7434069358 0.6504505726 17.4895435748 17.4895435748 17.4895435748 0.0046603479 95534.6130225187 0.0046194078 96241.8819705388 51000.1102805845 0.0000482164 0.1296366027 0.1297509083 0.0000000000 1528.9826792797 0.0000000000 0.0007922398 11.1137494120 0.0000000000 16.5097669642 6766.9570500000
 6786.8041000000 2869.4486278143 4113.1057648204 4646.7489424897 0.2763998554 8887162.7436242457 0.2708862572 8558389.1507365312 3358806.6139486125 0.0005349242 4616.7477629843 5313.0156845364 7088.3512765664 2899.3621919640 0.9000000000 0.0355877884 419.5366645274 0.0000000000 1853.2789766459 0.7828450043 0.6802535766 17.4909098593 17.4909098593 17.4909098593 0.0046604117 95537.2027856683 0.0046262721 98592.0033798872 51902.4246881998 0.0000483590 0.1299383263 0.1300523746 0.0000000000 1532.8628408672 0.0000000000 0.0007921636 11.1126594489 0.0000000000 16.5202894351 6786.8041000000
 6806.6511500000 2838.5276336382 4618.4884008037 3831.6945087382 0.2670244651 8367689.0009023678 0.2585431186 7813203.1088891067 3095455.5388627038 0.0005953159 4588.3012287097 5248.7217044964 7110.7660582216 2967.1284942717 0.9000000000 0.0378393822 518.3972026038 0.0000000000 1808.0297743526 0.7711166018 0.6740908455 17.6933280642 17.6933280642 17.6933280642 0.0047196826 96715.2598674812 0.0047191119 99416.4189534224 54019.1029391705 0.0000490302 0.1317606595 0.1318758716 0.0000000000 1554.1655884330 0.0000000000 0.0008021015 11.2252396219 0.0000000000 16.5864196570 6806.6511500000
 6826.4982500000 2839.8112555061 3889.3535320247 4844.4136822503 0.2794584703 8732741.2026258577 0.2761760215 8513215.6107803211 3332611.6037620469 0.0006614971 4709.3562271541 5391.8903933797 7133.4184679129 3002.8327121331 0.9000000000 0.0326272848 364.6998939517 0.0000000000 1864.5681553094 0.7898471802 0.6898641228 17.4838640396 17.4838640396 17.4838640396 0.0046603260 95523.7173652073 0.0046524081 100185.8938760511 52719.6926775367 0.0000484479 0.1301363753 0.1302502023 0.0000000000 1535.3037678919 0.0000000000 0.0007921865 11.0960432588 0.0000000000 16.4708091077 6826.4982500000
 6846.3453000000 2859.0390905444 4982.2763482948 4384.6429085761 0.2798629599 8873102.4073854797 0.2738587284 8523558.7089520413 3335352.6068849200 0.0005606168 4740.2448965560 5433.5302470554 7156.0717429729 3012.2822552527 0.9000000000 0.0335226387 364.7901068553 0.0000000000 1872.2846653725 0.7936395272 0.6923759596 17.4537724693 17.4537724693 17.4537724693 0.0046603394 95466.2079615967 0.0046603394 95466.2079615974 54391.5383328555 0.0000484044 0.1301443934 0.1302579985 0.0000000000 1534.7820459119 0.0000000000 0.0007916501 11.0786592561 0.0000000000 16.2563333259 6846.3453000000
