~Version ---------------------------------------------------
VERS.   2.0 : CWLS log ASCII Standard -VERSION 2.0
WRAP.    NO : One line per depth step
DLM . SPACE : Column Data Section Delimiter
~Well ------------------------------------------------------
STRT.ft                 5533.575 : START DEPTH
STOP.ft        7763.808250000001 : STOP DEPTH
STEP.ft       14.590000000000146 : STEP
NULL.                   -9999.25 : NULL VALUE
COMP.                            : COMPANY
WELL.                     bypass : WELL
FLD .                            : FIELD
LOC .                            : LOCATION
PROV.                            : PROVINCE
CNTY.                            : COUNTY
STAT.                            : STATE
CTRY.                            : COUNTRY
SRVC.                            : SERVICE COMPANY
DATE. 2019-07-30 20:43:20.008820 : DATE
UWI .                            : UNIQUE WELL ID
API .                            : API NUMBER
~Curve Information -----------------------------------------
Depth              .ft          : 
KICh               .psi*in^1/2  : 
KICvup             .psi*in^1/2  : 
KICvdown           .psi*in^1/2  : 
nuh                .            : 
Eh                 .psi         : 
nuv                .            : 
Ev                 .psi         : 
Gv                 .psi         : 
Cl                 .ft/min^1/2  : 
Sigma_h            .psi         : 
SigmaH             .psi         : 
SigmaV             .psi         : 
Pore Pressure      .psi         : 
Biot               .            : 
Porosity           .            : 
Permeability       .nD          : 
SoPhi              .            : 
TensileStrength    .psi         : 
Grad_SigmaH        .psi/ft      : 
Grad_Sigma_h       .psi/ft      : 
Std_KICh           .psi*in^1/2  : 
Std_KICvup         .psi*in^1/2  : 
Std_KICvdown       .psi*in^1/2  : 
Std_nuh            .            : 
Std_Eh             .psi         : 
Std_nuv            .            : 
Std_Ev             .psi         : 
Std_Gv             .psi         : 
Std_Cl             .ft/min^1/2  : 
Std_Sigma_h        .psi         : 
Std_SigmaH         .psi         : 
Std_SigmaV         .psi         : 
Std_Pore Pressure  .psi         : 
Std_Biot           .            : 
Std_Porosity       .            : 
Std_Permeability   .nD          : 
Std_SoPhi          .            : 
Std_TensileStrength.psi         : 
Std_Depth          .ft          : 
~Params ----------------------------------------------------
~Other -----------------------------------------------------
Exported from homogenization method
~ASCII -----------------------------------------------------
# ...
 5937.6431500000 2726.7273118669 3346.3617907811 3216.9062340678 0.2309797204 7008923.1756469859 0.2282861044 5999863.6952840704 2441289.2265585274 0.0004778999 3772.5986805060 4341.9763119479 6158.1908802657 2493.7053345229 0.9000000000 0.0449182251 802.5168180525 0.0000000000 1696.8088902431 0.7312625906 0.6353697225 20.9484488985 20.9484488985 20.9484488985 0.0055704635 114270.7120477187 0.0055257523 111655.6717639547 54969.1778228235 0.0000882395 0.1403497388 0.1405970804 0.0000000000 1548.7949539662 0.0000000000 0.0009473344 13.3422854810 0.0000000000 20.0472722524 5937.6431500000
 5951.7094000000 2748.2306867805 4209.1768102338 3440.0039243746 0.2353145983 6825016.3725054786 0.2264933294 5789430.4211208215 2357006.4682210288 0.0004801187 3789.9210280861 4342.4131933823 6173.9220102784 2499.6130282521 0.9000000000 0.0452764104 830.8533988555 0.0000000000 1697.6634544015 0.7296077314 0.6367785746 20.9434070872 20.9434070872 20.9434070872 0.0055703798 114261.0739335165 0.0055374565 111813.3546461003 55967.3821630578 0.0000886498 0.1409716289 0.1412178277 0.0000000000 1555.8042150240 0.0000000000 0.0009473334 13.3365649846 0.0000000000 20.0114414310 5951.7094000000
 5965.7756500000 2689.3197468533 3399.6006727494 4722.2523039860 0.2120069863 6546825.4480807362 0.1969485369 5092461.2613744354 2124927.1354784318 0.0004984442 3664.4952257698 4204.6592282784 6189.6072954949 2505.5207222226 0.9000000000 0.0520984812 1187.0746548569 0.0000000000 1601.7083225057 0.7047967398 0.6142529389 20.9456904442 20.9456904442 20.9456904442 0.0055710901 114265.5242959302 0.0054314166 107878.1363418785 56527.5121597640 0.0000882053 0.1404005756 0.1406477777 0.0000000000 1549.0446702113 0.0000000000 0.0009469775 13.3370229851 0.0000000000 20.0246279360 5965.7756500000
 5979.8419000000 2848.9389411443 5689.8585829783 4510.5728325323 0.2670057521 8734709.2074230835 0.2602777515 8473151.4350463133 3358032.2100822874 0.0004384853 3955.5450030372 4644.9427577554 6205.1763564379 2511.4284163456 0.9000000000 0.0384573513 493.9138291278 0.0000000000 1842.5879067465 0.7767668168 0.6614798634 20.9257749078 20.9257749078 20.9257749078 0.0055706931 114227.4408894083 0.0054593250 105622.0019313382 56048.5732014514 0.0000631987 0.1404651734 0.1406366800 0.0000000000 1660.4171893191 0.0000000000 0.0009468863 13.3338837638 0.0000000000 19.8834850666 5979.8419000000
 5993.9081000000 2763.8489657916 3747.2690419387 4575.1715585962 0.2265069816 6771049.8328672098 0.2033629138 5440018.7354130689 2251748.3325213338 0.0004972675 3721.6088662662 4273.6684904015 6220.9300572193 2517.3360894911 0.9000000000 0.0518870806 1125.7330979806 0.0000000000 1635.0795492167 0.7130020046 0.6208985530 20.9431061959 20.9431061959 20.9431061959 0.0055711562 114260.5430998169 0.0054099866 112128.9471613516 56987.5621312837 0.0000888892 0.1410944197 0.1413403772 0.0000000000 1558.3430972975 0.0000000000 0.0009469092 13.3208921643 0.0000000000 20.0077618591 5993.9081000000
 6007.9743500000 2784.1370192642 4988.0670748703 5003.6334919058 0.2286149686 6777773.8788758321 0.2008282305 5447933.7052924130 2256594.2254848690 0.0004926904 3718.8680041591 4270.5277227923 6236.3741791721 2523.2438948409 0.9000000000 0.0519766679 1110.6283968897 0.0000000000 1632.2031910366 0.7108099126 0.6189886620 20.5996278155 20.5996278155 20.5996278155 0.0054741580 112313.0279943508 0.0053119985 104265.8554444707 51540.1360073591 0.0000849279 0.1354343049 0.1356819360 0.0000000000 1493.1327153247 0.0000000000 0.0009308597 13.1273912874 0.0000000000 19.8053608001 6007.9743500000
 6022.0406500000 2768.0995367194 3887.2419000188 5430.7010528019 0.2310940977 7140548.1825230047 0.2123240503 5943416.6333347037 2436737.5560857537 0.0004868074 3769.5091688282 4349.5256107628 6251.9467834887 2529.1524874345 0.9000000000 0.0488022890 968.8822972399 0.0000000000 1667.8063498740 0.7222677268 0.6259521295 20.9312979152 20.9312979152 20.9312979152 0.0055705349 114237.8763227827 0.0055570136 121549.3556894916 62648.2426553922 0.0000649197 0.1435545578 0.1437224279 0.0000000000 1700.0007196856 0.0000000000 0.0009469633 13.3189110665 0.0000000000 19.9271498516 6022.0406500000
 6036.1069000000 2760.8645055236 5075.1223123687 4230.1979981791 0.2351949825 7448549.9774600351 0.2306372056 6778736.1358544789 2752112.8542589820 0.0004726877 3787.8567822619 4390.8830317829 6267.5327292976 2535.0601808591 0.9000000000 0.0463298095 840.7750940654 0.0000000000 1704.6267202895 0.7274362606 0.6275330847 20.5610672256 20.5610672256 20.5610672256 0.0054733768 112239.1493032386 0.0054707904 115547.8043715075 57694.9087303608 0.0000630041 0.1395860931 0.1397527364 0.0000000000 1651.8282201833 0.0000000000 0.0009307108 13.0637688039 0.0000000000 19.5371855639 6036.1069000000
 6050.5341000000 2733.9276989979 3948.2140183474 4564.4043302428 0.2338412816 6402785.2564339004 0.2281158658 5433863.7972319340 2209712.6760077905 0.0004835182 3847.5113862715 4366.4424150562 6283.7533869529 2541.1190428855 0.9000000000 0.0444854725 806.3751823476 0.0000000000 1697.5599742751 0.7216623100 0.6358961577 20.5978231819 20.5978231819 20.5978231819 0.0054737407 112309.5137213711 0.0053764002 104621.1433666532 49544.3411404842 0.0000843267 0.1346238457 0.1348729572 0.0000000000 1483.4830864665 0.0000000000 0.0009309141 13.1408085731 0.0000000000 19.7947997092 6050.5341000000
 6065.3223000000 2726.8613303171 3641.8422614507 3270.5567205564 0.2224696424 5889979.5624559866 0.2168692975 4843461.3218910089 1990015.5535962041 0.0002612036 3789.7956107442 4271.6054944449 6300.1611474482 2547.3308009088 0.9000000000 0.0495639842 1010.7380665382 0.0000000000 1641.2734799583 0.7042668605 0.6248300458 20.2416547852 20.2416547852 20.2416547852 0.0053815348 110402.7430107015 0.0053238089 104168.2904694395 49252.5959725320 0.0000832857 0.1328948113 0.1331386465 0.0000000000 1464.6788750486 0.0000000000 0.0009152648 12.8953760155 0.0000000000 19.3926559479 6065.3223000000
 6080.1104500000 2740.2888004605 3535.3360051877 3603.3851832147 0.2223748740 5801347.3755005375 0.2161243278 4843431.4000516832 1991167.9106088770 0.0005256432 3771.5659491584 4246.1623678827 6316.5829898556 2553.5405491578 0.9000000000 0.0506948217 1046.5376327204 0.0000000000 1637.3420868967 0.6983692817 0.6203120782 20.5891302161 20.5891302161 20.5891302161 0.0054738037 112292.8680262783 0.0053676356 108379.5242967066 51077.5975478938 0.0000853301 0.1358433871 0.1360901653 0.0000000000 1498.5287264530 0.0000000000 0.0009307436 13.1228186608 0.0000000000 19.7340228322 6080.1104500000
 6094.8986000000 2755.7926399325 3298.0609726336 3050.2790075632 0.2305021029 6089644.7458923850 0.2249777790 5148141.0713521959 2100823.2184109776 0.0002416453 3845.4824667733 4340.3735142108 6332.9253615135 2559.7532419767 0.9000000000 0.0480232932 920.2801635689 0.0000000000 1667.6910511768 0.7121321943 0.6309346093 20.2451673371 20.2451673371 20.2451673371 0.0053815598 110409.4740257423 0.0052992341 103309.4888706265 49118.6433269347 0.0000831051 0.1326433125 0.1328876487 0.0000000000 1461.7766979871 0.0000000000 0.0009153072 12.9038195531 0.0000000000 19.4170364803 6094.8986000000
 6109.6868000000 2748.2906485461 3523.8932002170 3468.9636928272 0.2321433141 6196697.5200740565 0.2280527556 5321795.4314249847 2166079.0878925836 0.0005143461 3858.5404279958 4361.4606199026 6349.4055610048 2565.9630758307 0.9000000000 0.0466362459 863.0925460905 0.0000000000 1682.8442294544 0.7138599347 0.6315447181 20.5895847514 20.5895847514 20.5895847514 0.0054737023 112293.7467147920 0.0053639458 107580.3334054371 51027.5927442610 0.0000852050 0.1357065664 0.1359536014 0.0000000000 1496.7670832330 0.0000000000 0.0009308254 13.1258354832 0.0000000000 19.7369090049 6109.6868000000
 6124.4750000000 2737.4925684204 3366.2151580342 3250.2249719720 0.2231975780 5842246.7427095100 0.2149889535 4854348.1626314484 1996512.9484407736 0.0002516454 3801.4706690231 4279.0915250302 6365.8034591861 2572.1747046294 0.9000000000 0.0504386224 1044.2750396354 0.0000000000 1637.7816699670 0.6986870752 0.6207014755 20.2425870895 20.2425870895 20.2425870895 0.0053818871 110404.5345223767 0.0052813951 107945.9552400789 50921.9737642504 0.0000843471 0.1341431251 0.1343846946 0.0000000000 1480.3451592889 0.0000000000 0.0009150576 12.8982707340 0.0000000000 19.3989520486 6124.4750000000
