~Version ---------------------------------------------------
VERS.   2.0 : CWLS log ASCII Standard -VERSION 2.0
WRAP.    NO : One line per depth step
DLM . SPACE : Column Data Section Delimiter
~Well ------------------------------------------------------
STRT.ft       6025.5836500000005 : START DEPTH
STOP.ft               8231.95595 : STOP DEPTH
STEP.ft       14.389099999999416 : STEP
NULL.                   -9999.25 : NULL VALUE
COMP.                            : COMPANY
WELL.                     bypass : WELL
FLD .                            : FIELD
LOC .                            : LOCATION
PROV.                            : PROVINCE
CNTY.                            : COUNTY
STAT.                            : STATE
CTRY.                            : COUNTRY
SRVC.                            : SERVICE COMPANY
DATE. 2019-07-30 20:43:31.832888 : DATE
UWI .                            : UNIQUE WELL ID
API .                            : API NUMBER
~Curve Information -----------------------------------------
Depth              .ft          : 
KICh               .psi*in^1/2  : 
KICvup             .psi*in^1/2  : 
KICvdown           .psi*in^1/2  : 
nuh                .            : 
Eh                 .psi         : 
nuv                .            : 
Ev                 .psi         : 
Gv                 .psi         : 
Cl                 .ft/min^1/2  : 
Sigma_h            .psi         : 
SigmaH             .psi         : 
SigmaV             .psi         : 
Pore Pressure      .psi         : 
Biot               .            : 
Porosity           .            : 
Permeability       .nD          : 
SoPhi              .            : 
TensileStrength    .psi         : 
Grad_SigmaH        .psi/ft      : 
Grad_Sigma_h       .psi/ft      : 
Std_KICh           .psi*in^1/2  : 
Std_KICvup         .psi*in^1/2  : 
Std_KICvdown       .psi*in^1/2  : 
Std_nuh            .            : 
Std_Eh             .psi         : 
Std_nuv            .            : 
Std_Ev             .psi         : 
Std_Gv             .psi         : 
Std_Cl             .ft/min^1/2  : 
Std_Sigma_h        .psi         : 
Std_SigmaH         .psi         : 
Std_SigmaV         .psi         : 
Std_Pore Pressure  .psi         : 
Std_Biot           .            : 
Std_Porosity       .            : 
Std_Permeability   .nD          : 
Std_SoPhi          .            : 
Std_TensileStrength.psi         : 
Std_Depth          .ft          : 
~Params ----------------------------------------------------
~Other -----------------------------------------------------
Exported from homogenization method
~ASCII -----------------------------------------------------
# ...
 6427.9283000000 2680.0089003875 3461.4666716987 3142.2055122759 0.2142523741 5424730.6878283452 0.2076039151 4242969.5946070878 1755679.9427948145 0.0005279745 3977.4961356113 4424.2509292336 6650.9981748389 2699.7036339897 0.9000000000 0.0486055612 1475.8495007760 0.0000000000 1625.1396057689 0.6882856688 0.6187835256 10.0415802209 10.0415802209 10.0415802209 0.0063900965 63900.9650422702 0.0062724516 52547.3560182175 23952.0004515653 0.0000931856 0.1147720592 0.1147916338 0.0000000000 1316.5272294804 0.0000000000 0.0009128709 9.1287092918 0.0000000000 9.1287092918 6427.9283000000
 6442.9205500000 2673.7831685782 3347.6568663899 3827.7202163389 0.2215050391 6055066.4842399722 0.2108712609 4718645.8970082104 1940053.3939147796 0.0004219428 4047.5396359117 4543.2450395260 6667.7973878506 2706.0003773437 0.9000000000 0.0438131624 1227.6649607559 0.0000000000 1670.7063065481 0.7051530442 0.6282150470 10.0415802209 10.0415802209 10.0415802209 0.0063900965 63900.9650422702 0.0062093619 47825.5071957308 21810.8010973956 0.0000912878 0.1129258960 0.1129457905 0.0000000000 1293.2492942397 0.0000000000 0.0009128709 9.1287092918 0.0000000000 9.1287092918 6442.9205500000
 6457.9128000000 2640.7701124789 3444.2803745971 3945.7570053950 0.2051370701 5401036.3754819473 0.1984935569 4115811.8326100456 1716699.4722686396 0.0007584970 3947.2883234584 4395.4561302052 6684.4878722801 2712.2971206027 0.9000000000 0.0511316636 1693.8876470504 0.0000000000 1586.7880570865 0.6806310748 0.6112328311 10.0415802209 10.0415802209 10.0415802209 0.0063900965 63900.9650422702 0.0061468547 47843.5164874347 21822.2026357530 0.0000910846 0.1125534292 0.1125733895 0.0000000000 1289.5185505215 0.0000000000 0.0009128709 9.1287092918 0.0000000000 9.1287092918 6457.9128000000
 6472.9050000000 2611.9853208315 3038.0142065156 3274.3932105356 0.2042968491 5652012.4079185538 0.1940248114 4108409.7718772604 1716100.7030992466 0.0004672728 3994.3946323066 4463.7151667158 6701.1135503954 2718.5938428983 0.9000000000 0.0489618337 1642.7292351949 0.0000000000 1591.1421340223 0.6895999813 0.6170945862 10.0415802209 10.0415802209 10.0415802209 0.0063900965 63900.9650422702 0.0061315661 45717.5277437015 21063.4090521440 0.0000903969 0.1119232750 0.1119433476 0.0000000000 1281.3684202504 0.0000000000 0.0009128709 9.1287092918 0.0000000000 9.1287092918 6472.9050000000
 6487.8972000000 2549.0547077685 3097.3156424714 3024.6418444539 0.1947766637 5257964.0038304832 0.1795539571 3526681.6870162846 1493727.5016668555 0.0007832606 3976.9046059893 4416.9838411664 6717.7687911938 2724.8905651939 0.9000000000 0.0518382192 2028.3468847183 0.0000000000 1517.8447024471 0.6808036109 0.6129728144 10.0415802209 10.0415802209 10.0415802209 0.0063900965 63900.9650422702 0.0062038196 48158.8953999908 22068.5120130094 0.0000914289 0.1130381032 0.1130579779 0.0000000000 1294.8067411382 0.0000000000 0.0009128709 9.1287092918 0.0000000000 9.1287092918 6487.8972000000
 6502.8894500000 2746.9986536595 4039.9371388506 3543.3284592959 0.2401341038 6885952.5652689384 0.2229863685 5879930.7448113300 2381694.7022797004 0.0005199441 4103.2322555525 4658.4909605559 6734.5392178384 2731.1873086351 0.9000000000 0.0381790161 849.9746494383 0.0000000000 1776.2586921801 0.7163724674 0.6309860082 10.0415802209 10.0415802209 10.0415802209 0.0063900965 63900.9650422707 0.0063900965 63107.4469202547 29639.4217254843 0.0000595174 0.1183409042 0.1183148691 0.0000000000 1384.4150658905 0.0000000000 0.0009128709 9.1287092918 0.0000000000 9.1287092918 6502.8894500000
 6517.8817000000 2748.3347330294 3285.4337042824 4594.7030209937 0.2362868837 6756350.0872677537 0.2085452891 5424995.6331563098 2215206.6565553485 0.0006233714 4091.0146339525 4637.5180529011 6751.5920412357 2737.4840518069 0.9000000000 0.0414230482 1087.1053388832 0.0000000000 1732.1834276141 0.7115069384 0.6276601544 10.0836834673 10.0836834673 10.0836834673 0.0064168895 64168.8947919756 0.0061652511 47596.6771427291 21697.8990213329 0.0000912827 0.1128419746 0.1128620511 0.0000000000 1292.6381648433 0.0000000000 0.0009166985 9.1669849703 0.0000000000 9.1669849703 6517.8817000000
 6532.8739000000 2641.2189182620 4550.6871217875 3359.4762869827 0.2088363693 5417178.9244032018 0.1982502079 4009429.4738448989 1671494.2025938018 0.0006713409 4043.1599889083 4491.2916849645 6768.2887229486 2743.7807916116 0.9000000000 0.0495159700 1635.0952662644 0.0000000000 1592.9634129348 0.6874909502 0.6188945403 10.0415802209 10.0415802209 10.0415802209 0.0063900965 63900.9650422702 0.0062555895 53270.1386441694 24538.0306740322 0.0000935161 0.1150267082 0.1150462394 0.0000000000 1320.1212066310 0.0000000000 0.0009128709 9.1287092918 0.0000000000 9.1287092918 6532.8739000000
 6547.8661000000 2769.6010124439 4764.6612420644 5191.4545316282 0.2336967687 6656867.7181451572 0.2134934471 5632780.4747164650 2304162.6966553270 0.0008202319 4058.6756235269 4598.2626506491 6785.0970712669 2750.0775237123 0.9000000000 0.0433118580 1133.7756410154 0.0000000000 1731.6040419947 0.7022536167 0.6198470710 10.0415802209 10.0415802209 10.0415802209 0.0063900965 63900.9650422707 0.0063897232 59035.2548812712 27394.6431222660 0.0000590726 0.1176758995 0.1176497171 0.0000000000 1375.6991628368 0.0000000000 0.0009128709 9.1287092918 0.0000000000 9.1287092918 6547.8661000000
 6562.8583000000 2715.1306017998 3688.4347223247 3574.2043941113 0.2306253460 6583842.0268328404 0.2145352215 5460008.5806990741 2231216.4214165439 0.0005361742 4094.0515765678 4629.0512861418 6801.9343528459 2756.3742460079 0.9000000000 0.0417082659 1066.3992316985 0.0000000000 1720.3587459582 0.7053407333 0.6238214189 10.0415802209 10.0415802209 10.0415802209 0.0063900965 63900.9650422702 0.0063072752 50869.6004678320 23418.1553509955 0.0000927903 0.1145547015 0.1145743132 0.0000000000 1312.8726830384 0.0000000000 0.0009128709 9.1287092918 0.0000000000 9.1287092918 6562.8583000000
 6577.8505500000 2634.0017366275 3105.4771135323 3249.6586266797 0.2110264214 5858325.2028212929 0.2001382063 4413121.1376010282 1834503.6297083909 0.0010973017 4074.6477475834 4558.3964998340 6818.7535067256 2762.6709892078 0.9000000000 0.0471882600 1493.5888388496 0.0000000000 1618.5143687974 0.6929918011 0.6194497301 10.0415802209 10.0415802209 10.0415802209 0.0063900965 63900.9650422702 0.0061444326 48262.3145856251 22141.8560270986 0.0000912763 0.1127212048 0.1127411354 0.0000000000 1291.7426291093 0.0000000000 0.0009128709 9.1287092918 0.0000000000 9.1287092918 6577.8505500000
 6592.8428000000 2645.5608188629 3052.9764077323 3054.3226080428 0.2059203230 5495655.1257171417 0.1902681156 4017349.4464313406 1682233.9070077296 0.0006789795 4033.8891368199 4489.6120416293 6835.4162843224 2768.9677326210 0.9000000000 0.0516790969 1795.7905319431 0.0000000000 1568.4527440349 0.6809827229 0.6118588383 10.0415802209 10.0415802209 10.0415802209 0.0063900965 63900.9650422707 0.0061548658 54206.3802633161 25296.2389500560 0.0000583321 0.1161034866 0.1160769496 0.0000000000 1357.9534228958 0.0000000000 0.0009128709 9.1287092918 0.0000000000 9.1287092918 6592.8428000000
 6607.8350000000 2788.1275819973 4067.9782826005 4186.5936318034 0.2483618057 7373958.8679738110 0.2112269859 5944020.8004473466 2416318.1151653635 0.0007832184 4210.9818336677 4801.6726762171 6852.2004263714 2775.2644549166 0.9000000000 0.0383838413 942.0067678485 0.0000000000 1780.1873686319 0.7266635254 0.6372710326 10.0415802209 10.0415802209 10.0415802209 0.0063900965 63900.9650422702 0.0060289383 49530.8383257478 22914.2970712727 0.0000914265 0.1125080453 0.1125280137 0.0000000000 1291.0504622768 0.0000000000 0.0009128709 9.1287092918 0.0000000000 9.1287092918 6607.8350000000
 6622.8272000000 2712.2202503001 4012.4083816984 2906.9466498004 0.2276959282 6420101.9338114001 0.1905002171 4798433.1141192000 1984502.9134401253 0.0004093040 4098.3493233660 4621.2884149061 6868.9902175737 2781.5611772121 0.9000000000 0.0448353983 1371.8905911376 0.0000000000 1662.3208808400 0.6977818197 0.6188217206 10.0415802209 10.0415802209 10.0415802209 0.0063900965 63900.9650422707 0.0063656885 56991.5465545862 26483.3607615516 0.0000588530 0.1173045911 0.1172783258 0.0000000000 1371.1009938201 0.0000000000 0.0009128709 9.1287092918 0.0000000000 9.1287092918 6622.8272000000
