~Version ---------------------------------------------------
VERS.   2.0 : CWLS log ASCII Standard -VERSION 2.0
WRAP.    NO : One line per depth step
DLM . SPACE : Column Data Section Delimiter
~Well ------------------------------------------------------
STRT.ft               5569.94125 : START DEPTH
STOP.ft        8198.326850000001 : STOP DEPTH
STEP.ft        14.50250000000051 : STEP
NULL.                   -9999.25 : NULL VALUE
COMP.                            : COMPANY
WELL.                     bypass : WELL
FLD .                            : FIELD
LOC .                            : LOCATION
PROV.                            : PROVINCE
CNTY.                            : COUNTY
STAT.                            : STATE
CTRY.                            : COUNTRY
SRVC.                            : SERVICE COMPANY
DATE. 2019-07-30 20:43:31.496337 : DATE
UWI .                            : UNIQUE WELL ID
API .                            : API NUMBER
~Curve Information -----------------------------------------
Depth              .ft          : 
KICh               .psi*in^1/2  : 
KICvup             .psi*in^1/2  : 
KICvdown           .psi*in^1/2  : 
nuh                .            : 
Eh                 .psi         : 
nuv                .            : 
Ev                 .psi         : 
Gv                 .psi         : 
Cl                 .ft/min^1/2  : 
Sigma_h            .psi         : 
SigmaH             .psi         : 
SigmaV             .psi         : 
Pore Pressure      .psi         : 
Biot               .            : 
Porosity           .            : 
Permeability       .nD          : 
SoPhi              .            : 
TensileStrength    .psi         : 
Grad_SigmaH        .psi/ft      : 
Grad_Sigma_h       .psi/ft      : 
Std_KICh           .psi*in^1/2  : 
Std_KICvup         .psi*in^1/2  : 
Std_KICvdown       .psi*in^1/2  : 
Std_nuh            .            : 
Std_Eh             .psi         : 
Std_nuv            .            : 
Std_Ev             .psi         : 
Std_Gv             .psi         : 
Std_Cl             .ft/min^1/2  : 
Std_Sigma_h        .psi         : 
Std_SigmaH         .psi         : 
Std_SigmaV         .psi         : 
Std_Pore Pressure  .psi         : 
Std_Biot           .            : 
Std_Porosity       .            : 
Std_Permeability   .nD          : 
Std_SoPhi          .            : 
Std_TensileStrength.psi         : 
Std_Depth          .ft          : 
~Params ----------------------------------------------------
~Other -----------------------------------------------------
Exported from homogenization method
~ASCII -----------------------------------------------------
# ...
 7069.6362000000 2615.0772562943 4017.0086813100 3726.5716969289 0.2209698744 6425200.2333693141 0.1877311799 4254146.3337593284 1777423.2523513231 0.0006170031 4805.1913727696 5331.4287819157 7408.3501201535 3423.9903152768 0.9000000000 0.0447693632 1142.8749408307 0.0000000000 1596.1170478884 0.7541305707 0.6796942922 21.4322063623 21.4322063623 21.4322063623 0.0056728476 116558.1285366003 0.0052050476 80528.8002081992 39018.0651742019 0.0001182836 0.1436838860 0.1439520472 0.0000000000 1587.2838971233 0.0000000000 0.0009663080 13.9635542137 0.0000000000 21.0997772627 7069.6362000000
 7083.0124000000 2550.5988267327 4253.6582643459 3611.1269393123 0.2031637993 6104531.5631024484 0.1815908220 3966168.0977105033 1675691.0450058600 0.0006765413 4882.2551629324 5389.6284371788 7423.3375478972 3678.7840922462 0.9000000000 0.0478291634 1321.4781378520 0.0000000000 1535.7206858732 0.7609231966 0.6892907830 21.7564538591 21.7564538591 21.7564538591 0.0057805168 118617.3671445643 0.0056178441 114965.4514967928 56686.3318595118 0.0000914361 0.1455780803 0.1458338035 0.0000000000 1587.6446602646 0.0000000000 0.0009836634 13.9151196666 0.0000000000 20.9220415688 7083.0124000000
 7096.3886000000 2745.9221737743 21475.9510325011 19526.5822109663 0.2601704562 7869773.6321577160 0.2553316219 7319565.4729087288 2909776.2692681593 0.0008267555 5166.0482968799 5790.5490216373 7438.4649709195 3862.9823096603 0.9000000000 0.0348200530 474.7541370525 0.0000000000 1800.3930494868 0.8159853340 0.7279827231 21.2800752277 21.2800752277 21.2800752277 0.0056723598 116266.6004725500 0.0056666469 119626.0213711159 63010.3858771839 0.0000587979 0.1580328745 0.1581717351 0.0000000000 1864.0234139598 0.0000000000 0.0009642602 13.5015002974 0.0000000000 20.0435647129 7096.3886000000
 7109.7648000000 2791.8046358087 20153.3865892466 20417.0605260460 0.2646933226 8077470.0719685378 0.2641843074 7983441.4657008788 3156282.8860726967 0.0005760458 5179.3791751755 5818.0691980887 7453.7320906598 3910.2310482330 0.9000000000 0.0351819404 414.5466346952 0.0000000000 1834.1210149547 0.8183209096 0.7284881175 21.2872314136 21.2872314136 21.2872314136 0.0056723545 116280.2789514575 0.0056723545 127303.3471102531 65510.1355929325 0.0000592475 0.1589589301 0.1590970333 0.0000000000 1876.1035214195 0.0000000000 0.0009644230 13.5026887774 0.0000000000 20.0944892409 7109.7648000000
 7123.1409500000 2671.7098235587 21440.7533466556 21425.4606659295 0.2480304405 7541526.2828852097 0.2267854005 6205118.7476929352 2516833.4816251276 0.0008300708 5170.4695870083 5774.7438128690 7469.0272556547 3917.5907405746 0.9000000000 0.0364651114 647.1941083697 0.0000000000 1742.2442907950 0.8107018875 0.7258693354 21.3838381897 21.3838381897 21.3838381897 0.0056724873 116465.3490918349 0.0054064880 100438.8182433067 49314.4834201891 0.0000858168 0.1376800132 0.1379407727 0.0000000000 1497.2439279073 0.0000000000 0.0009657991 13.7794298260 0.0000000000 20.7671363194 7123.1409500000
 7136.5171000000 2582.5054562304 3219.9428476007 2962.0361446641 0.2128617902 6562645.2738287104 0.1969587775 4706922.9828536818 1964751.5051746159 0.0003240057 5057.4091048434 5598.4967478776 7484.1284054564 3924.9469920456 0.9000000000 0.0461044203 1124.0836342171 0.0000000000 1583.0253411140 0.7844858591 0.7086662911 21.7760262865 21.7760262865 21.7760262865 0.0057805609 118654.8367323241 0.0055790689 108459.3159922018 52764.3917336263 0.0000891348 0.1425211133 0.1427825358 0.0000000000 1551.7941807417 0.0000000000 0.0009838762 13.9566955182 0.0000000000 21.0591883275 7136.5171000000
 7149.8933000000 2632.1195504287 18935.6474504361 19277.6811751624 0.2252902308 6942447.6429051654 0.2153262730 5463250.3025668599 2245020.3358128476 0.0008991466 5102.5443687915 5669.1405489083 7499.1715180188 3932.3032718560 0.9000000000 0.0433005259 887.3720100619 0.0000000000 1649.0695321847 0.7928986225 0.7136532190 21.3707194893 21.3707194893 21.3707194893 0.0056724418 116440.1440604042 0.0054739517 104854.5940161960 50948.4438517685 0.0000869574 0.1391980232 0.1394557933 0.0000000000 1514.9486938080 0.0000000000 0.0009656117 13.6774951104 0.0000000000 20.6783242999 7149.8933000000
 7163.2695000000 2712.5838718547 22104.9320669609 19419.9599498871 0.2626105075 7816607.0221907822 0.2442420485 6703627.1799647538 2682088.4492420652 0.0006270630 5298.9758482402 5918.0588493759 7514.3101992948 3939.6604233639 0.9000000000 0.0332179016 527.8850346291 0.0000000000 1788.8157835096 0.8261672759 0.7397426340 21.2762651124 21.2762651124 21.2762651124 0.0056723885 116259.3121001980 0.0056723885 125516.3601126158 65255.3477096414 0.0000591432 0.1587426951 0.1588809073 0.0000000000 1873.2721074432 0.0000000000 0.0009642955 13.4939785102 0.0000000000 20.0166556739 7163.2695000000
 7176.6457000000 2777.1826807831 20256.1001818303 20143.0316151598 0.2676209390 8008525.2670996785 0.2671723420 7967295.2335127573 3143041.7697563996 0.0005161772 5241.6452543507 5873.4212861752 7529.6924435981 3947.0183766690 0.9000000000 0.0331490134 381.6675592288 0.0000000000 1841.4089422065 0.8184075865 0.7303753694 21.2781068299 21.2781068299 21.2781068299 0.0056723451 116262.8283958716 0.0056723451 120302.6329067588 63814.0463370249 0.0000588759 0.1582122069 0.1583508964 0.0000000000 1866.2336112999 0.0000000000 0.0009642867 13.4944632542 0.0000000000 20.0299129298 7176.6457000000
 7190.0219000000 2750.2543302696 3248.6105950469 3347.4147392405 0.2638799384 7948704.1697988417 0.2612989250 7567922.6787902787 2996879.6660562200 0.0004374418 5270.5151862509 5899.4281018011 7545.0212131439 3954.3746564794 0.9000000000 0.0333341800 415.8379781540 0.0000000000 1820.7414103213 0.8205021047 0.7330318683 19.5522755663 19.5522755663 19.5522755663 0.0052103843 106807.7897816701 0.0052048373 111897.8622369537 58073.5308622752 0.0000540935 0.1453217819 0.1454492318 0.0000000000 1714.3831258226 0.0000000000 0.0008858786 12.4044402972 0.0000000000 18.4484325580 7190.0219000000
 7206.2557500000 2744.2229565980 3064.3006105449 3283.8036569591 0.2655006695 7953854.6960658841 0.2633635784 7479821.1570158713 2956764.2960896045 0.0001446969 5318.0348505499 5946.5493103251 7563.6359594533 3963.3031473431 0.9000000000 0.0323519932 395.9506848906 0.0000000000 1826.6374175351 0.8251926544 0.7379747590 17.9484318037 17.9484318037 17.9484318037 0.0047813798 98025.0836114144 0.0047813798 102397.7146297787 52920.6993455465 0.0000496149 0.1333082173 0.1334252585 0.0000000000 1572.5825607567 0.0000000000 0.0008130659 11.3850765753 0.0000000000 16.9723123960 7206.2557500000
 7225.3472500000 2766.2684295044 3272.9221683492 3560.7665969553 0.2707044771 8178994.2466169465 0.2701757156 8100346.6322761597 3188249.9100317974 0.0003245784 5314.9810028846 5958.6392565443 7585.5656353355 3973.8032311500 0.9000000000 0.0313167832 349.1364784144 0.0000000000 1853.2749550065 0.8246855203 0.7356021543 17.9410840786 17.9410840786 17.9410840786 0.0047813805 98011.0258572576 0.0047813805 105911.7106733500 54908.4120167892 0.0000498674 0.1338427283 0.1339592502 0.0000000000 1579.4574813034 0.0000000000 0.0008128919 11.3800679881 0.0000000000 16.9205088597 7225.3472500000
 7244.4387500000 2755.1045322588 4581.7273944889 4012.0922512688 0.2629061108 7956822.9548490951 0.2612540928 7747920.5851598922 3070826.0681543550 0.0001425065 5274.4334361511 5904.4741721160 7607.4254622782 3984.3033149569 0.9000000000 0.0340013516 429.3244310359 0.0000000000 1820.2285789661 0.8150354190 0.7280665374 17.7149720318 17.7149720318 17.7149720318 0.0047196925 96756.6325983300 0.0047196925 108597.3506380125 55096.3379573071 0.0000494341 0.1325326057 0.1326473005 0.0000000000 1564.6200671444 0.0000000000 0.0008025167 11.2368043304 0.0000000000 16.7403804687 7244.4387500000
 7263.5303000000 2752.0858593154 3976.5185635251 4009.3528852655 0.2637812170 7952544.4534182446 0.2634902314 7711365.5027693566 3051075.9411529987 0.0001427167 5309.6614593405 5938.9273754970 7629.3030439291 3994.8045214911 0.9000000000 0.0332806378 404.8080171322 0.0000000000 1824.1085876770 0.8176364839 0.7310028650 17.9400150974 17.9400150974 17.9400150974 0.0047813867 98008.9832644121 0.0047813867 107136.6544564016 55344.6818309333 0.0000499383 0.1339867205 0.1341031095 0.0000000000 1581.3474405643 0.0000000000 0.0008128858 11.3793882970 0.0000000000 16.9128755245 7263.5303000000
