~Version ---------------------------------------------------
VERS.   2.0 : CWLS log ASCII Standard -VERSION 2.0
WRAP.    NO : One line per depth step
DLM . SPACE : Column Data Section Delimiter
~Well ------------------------------------------------------
STRT.ft               5337.35725 : START DEPTH
STOP.ft        7806.412649999999 : STOP DEPTH
STEP.ft       15.433500000000095 : STEP
NULL.                   -9999.25 : NULL VALUE
COMP.                            : COMPANY
WELL.                     bypass : WELL
FLD .                            : FIELD
LOC .                            : LOCATION
PROV.                            : PROVINCE
CNTY.                            : COUNTY
STAT.                            : STATE
CTRY.                            : COUNTRY
SRVC.                            : SERVICE COMPANY
DATE. 2019-07-30 20:43:33.131485 : DATE
UWI .                            : UNIQUE WELL ID
API .                            : API NUMBER
~Curve Information -----------------------------------------
Depth              .ft          : 
KICh               .psi*in^1/2  : 
KICvup             .psi*in^1/2  : 
KICvdown           .psi*in^1/2  : 
nuh                .            : 
Eh                 .psi         : 
nuv                .            : 
Ev                 .psi         : 
Gv                 .psi         : 
Cl                 .ft/min^1/2  : 
Sigma_h            .psi         : 
SigmaH             .psi         : 
SigmaV             .psi         : 
Pore Pressure      .psi         : 
Biot               .            : 
Porosity           .            : 
Permeability       .nD          : 
SoPhi              .            : 
TensileStrength    .psi         : 
Grad_SigmaH        .psi/ft      : 
Grad_Sigma_h       .psi/ft      : 
Std_KICh           .psi*in^1/2  : 
Std_KICvup         .psi*in^1/2  : 
Std_KICvdown       .psi*in^1/2  : 
Std_nuh            .            : 
Std_Eh             .psi         : 
Std_nuv            .            : 
Std_Ev             .psi         : 
Std_Gv             .psi         : 
Std_Cl             .ft/min^1/2  : 
Std_Sigma_h        .psi         : 
Std_SigmaH         .psi         : 
Std_SigmaV         .psi         : 
Std_Pore Pressure  .psi         : 
Std_Biot           .            : 
Std_Porosity       .            : 
Std_Permeability   .nD          : 
Std_SoPhi          .            : 
Std_TensileStrength.psi         : 
Std_Depth          .ft          : 
~Params ----------------------------------------------------
~Other -----------------------------------------------------
Exported from homogenization method
~ASCII -----------------------------------------------------
# ...
 5553.4262500000 2875.7708844938 3617.3046810773 3634.1507252986 0.2604892841 7213378.5114902426 0.2563064088 6688605.9897979284 2661152.2554436615 0.0004380334 3662.9937976705 4235.2619321595 5743.9103303279 2332.3338915346 0.9000000000 0.0428778321 647.1810654498 0.0000000000 1763.9027420862 0.7626394484 0.6595916886 19.8828569087 19.8828569087 19.8828569087 0.0052940013 108550.7136649937 0.0052394412 114591.7433524943 55074.5690821388 0.0000618808 0.1332867921 0.1334679714 0.0000000000 1591.1216481199 0.0000000000 0.0008999183 12.6372200473 0.0000000000 18.8693667135 5553.4262500000
 5568.8597500000 2861.7071087455 3372.6478854096 3833.8636696265 0.2458692858 6640633.5356455361 0.2379572219 5977509.1039173361 2412859.7307329890 0.0004557427 3560.3246930616 4093.3367522995 5761.0939701044 2338.8158411896 0.9000000000 0.0486218591 869.9083073842 0.0000000000 1703.4110021728 0.7350403738 0.6393274122 19.9079821411 19.9079821411 19.9079821411 0.0052944570 108598.8124128081 0.0052047815 106709.2756260953 51056.7047801608 0.0000895276 0.1359021621 0.1361575387 0.0000000000 1462.3627977744 0.0000000000 0.0009000404 12.6768826759 0.0000000000 19.0454667139 5568.8597500000
 5584.2932500000 2735.0994769322 3582.3075319513 3350.0647852593 0.2156409610 6050730.1408414962 0.2125961457 5068917.6170811430 2089732.3575123099 0.0004645820 3434.1625229620 3931.9024260363 5778.1050519728 2345.2977908446 0.9000000000 0.0516135946 1063.7529739164 0.0000000000 1642.2688118961 0.7041002773 0.6149681561 20.2457845385 20.2457845385 20.2457845385 0.0053818214 110410.6557755123 0.0053776285 103222.7079992314 50534.3957223439 0.0000897810 0.1369541352 0.1372161025 0.0000000000 1470.9517924805 0.0000000000 0.0009151436 12.9040747358 0.0000000000 19.4213547617 5584.2932500000
 5599.2128000000 2710.7414709323 3651.3272717933 3372.7761692541 0.2117828605 6095562.6151518729 0.2100647763 5064211.3754136665 2091311.9225291165 0.0004643186 3431.4715976880 3934.4959276871 5794.5521559036 2351.5648159049 0.9000000000 0.0513565260 1058.0401170735 0.0000000000 1639.1729083311 0.7026873363 0.6128489344 20.5861214784 20.5861214784 20.5861214784 0.0054736963 112287.1031631740 0.0054555915 106533.9927639459 52168.1897407850 0.0000918426 0.1399048726 0.1401700948 0.0000000000 1503.4399139159 0.0000000000 0.0009307728 13.1137499432 0.0000000000 19.7131146283 5599.2128000000
 5613.6184000000 2751.6262170545 3288.4565749702 3578.5541322897 0.2150658330 5848698.2379772635 0.2093884350 4801595.4785946831 1984709.9629939913 0.0004753635 3452.2654657463 3933.6137251573 5810.4537875142 2357.6150538679 0.9000000000 0.0535157165 1154.2723437511 0.0000000000 1619.7720820104 0.7007269545 0.6149804315 20.5893333975 20.5893333975 20.5893333975 0.0054741266 112293.2580148532 0.0053544923 108427.2022859706 51560.3616105736 0.0000916989 0.1393724212 0.1396386799 0.0000000000 1498.9896002730 0.0000000000 0.0009305836 13.1149497047 0.0000000000 19.7354114791 5613.6184000000
 5628.0240500000 2823.1095098359 5235.6812519540 4128.6826358756 0.2340200248 6122596.8489632411 0.2266502139 5318057.0775953289 2167093.8200465664 0.0004671437 3539.0206331285 4035.1711595291 5826.2428896621 2363.6651671213 0.9000000000 0.0510774107 1003.0803636133 0.0000000000 1665.8275240021 0.7169783078 0.6288211638 20.9451192445 20.9451192445 20.9451192445 0.0055707871 114264.3279978690 0.0054552332 110736.6235520089 52346.0662570381 0.0000932946 0.1417788261 0.1420498166 0.0000000000 1524.9285736751 0.0000000000 0.0009470677 13.3315887278 0.0000000000 20.0242863595 5628.0240500000
 5642.4297000000 2751.8710451562 3789.7247040812 4294.5171515606 0.2142085218 5845782.8161588022 0.2081393265 4849870.6828779448 2006755.7523472363 0.0004768473 3448.2471213148 3929.6951355059 5842.1201661884 2369.7152805159 0.9000000000 0.0545730100 1195.0823835734 0.0000000000 1612.7471483253 0.6964544256 0.6111280609 20.6049652302 20.6049652302 20.6049652302 0.0054742516 112323.1995918031 0.0054188828 103273.5680944610 49585.5857882096 0.0000902326 0.1377878106 0.1380573112 0.0000000000 1479.3096164825 0.0000000000 0.0009307437 13.1468064838 0.0000000000 19.8443838391 5642.4297000000
 5656.8353000000 2732.3774912057 3258.8251793350 3391.6507066656 0.1993490026 5326486.2868861184 0.1942791350 4435624.4446799140 1856501.5715187248 0.0004834577 3332.5982614962 3776.7130500600 5857.8057854855 2375.7653727023 0.9000000000 0.0597772159 1436.6965191997 0.0000000000 1563.4564845072 0.6676370885 0.5891276809 20.6104826293 20.6104826293 20.6104826293 0.0054747832 112333.7724846033 0.0052839361 102407.6308343374 48319.4467998759 0.0000893320 0.1363236071 0.1365960472 0.0000000000 1463.9731234607 0.0000000000 0.0009306176 13.1345995357 0.0000000000 19.8826806535 5656.8353000000
 5671.2409500000 2730.9128506844 3539.3434952509 3558.6302881626 0.2004418031 5254118.3325571530 0.1890928951 4139930.8064188645 1740034.5287265540 0.0004921397 3372.8131457593 3810.4951990663 5873.3933953935 2381.8163060455 0.9000000000 0.0601043468 1485.7965899977 0.0000000000 1543.7097714220 0.6718979554 0.5947222443 20.6298890357 20.6298890357 20.6298890357 0.0054763964 112370.9861344073 0.0050784425 99057.1237055936 46924.3273148555 0.0000879404 0.1342225264 0.1344994122 0.0000000000 1441.3967991331 0.0000000000 0.0009304908 13.0986842765 0.0000000000 20.0165085653 5671.2409500000
 5685.6466000000 2782.6510935336 4060.2049703002 3473.4140630533 0.1895179409 4980768.6920913039 0.1698962538 3957782.5350984777 1690560.9119301422 0.0004997597 3233.5613753660 3652.2829869440 5888.7239169299 2387.8669754818 0.9000000000 0.0716592882 1955.0206609876 0.0000000000 1446.3676595784 0.6423689765 0.5687235952 20.6219071789 20.6219071789 20.6219071789 0.0054756896 112355.6833739106 0.0051342021 101756.1861321881 48526.5693772601 0.0000890930 0.1357654499 0.1360391196 0.0000000000 1458.8369524987 0.0000000000 0.0009305269 13.1034772991 0.0000000000 19.9613537133 5685.6466000000
 5700.0522000000 2736.1123485507 4204.8429536126 4461.0584585493 0.1985922441 5732341.5089407228 0.1863768519 4584176.5758369928 1931583.6336823681 0.0004890170 3363.4122966338 3841.6684789999 5904.1164924355 2393.9170676681 0.9000000000 0.0620048761 1563.7719295297 0.0000000000 1531.2699191249 0.6739707540 0.5900669290 20.9604157940 20.9604157940 20.9604157940 0.0055713541 114293.6471021149 0.0054384736 110645.4016186749 54120.9580802124 0.0000941113 0.1429290328 0.1431980113 0.0000000000 1537.7495316076 0.0000000000 0.0009471125 13.3336623817 0.0000000000 20.1302339936 5700.0522000000
 5714.4578000000 2753.4394383481 3608.6446116720 4275.4727752916 0.2234174758 6421202.1737048328 0.2189809691 5582124.8929949766 2285534.1859681243 0.0004572825 3530.5018736911 4055.3596839625 5919.8533552194 2399.9671598545 0.9000000000 0.0494933406 964.0305037879 0.0000000000 1669.6120650121 0.7096665731 0.6178192223 20.5840963542 20.5840963542 20.5840963542 0.0054741394 112283.2263921084 0.0054406960 114300.1924104483 55391.2118831471 0.0000944886 0.1430671681 0.1433265016 0.0000000000 1540.9729146054 0.0000000000 0.0009305143 13.1034289935 0.0000000000 19.6989191889 5714.4578000000
 5728.8634000000 2769.8253927024 3392.1402196015 3559.2530622216 0.2131279236 5876989.1047025034 0.2065219956 5151471.0641367519 2133582.6966703688 0.0004708653 3425.5149507369 3909.9641988797 5935.6548606621 2406.0172520409 0.9000000000 0.0563900837 1249.1844715333 0.0000000000 1612.6341229325 0.6825026058 0.5979397154 20.6009922427 20.6009922427 20.6009922427 0.0054746270 112315.5881107022 0.0053100960 107530.2593573284 51164.6134433123 0.0000913561 0.1388732102 0.1391405488 0.0000000000 1493.5536267633 0.0000000000 0.0009305474 13.1203410163 0.0000000000 19.8167410529 5728.8634000000
 5743.2690500000 2787.9292368345 3441.7275187788 3373.1306618494 0.2079978861 5357342.0541888978 0.1954809720 4496394.5103438795 1879297.4221319710 0.0004896850 3399.0524976803 3842.5418544005 5951.2714588036 2412.0677756721 0.9000000000 0.0611904737 1486.8846388802 0.0000000000 1558.3995351236 0.6690513401 0.5918323638 20.6104597797 20.6104597797 20.6104597797 0.0054745590 112333.7330898397 0.0052951912 100889.8272340926 48399.6132177069 0.0000891604 0.1362124022 0.1364850713 0.0000000000 1462.1872065278 0.0000000000 0.0009307608 13.1364077370 0.0000000000 19.8823694127 5743.2690500000
