~Version ---------------------------------------------------
VERS.   2.0 : CWLS log ASCII Standard -VERSION 2.0
WRAP.    NO : One line per depth step
DLM . SPACE : Column Data Section Delimiter
~Well ------------------------------------------------------
STRT.ft               6039.97275 : START DEPTH
STOP.ft               8231.95595 : STOP DEPTH
STEP.ft       14.389100000000326 : STEP
NULL.                   -9999.25 : NULL VALUE
COMP.                            : COMPANY
WELL.                     bypass : WELL
FLD .                            : FIELD
LOC .                            : LOCATION
PROV.                            : PROVINCE
CNTY.                            : COUNTY
STAT.                            : STATE
CTRY.                            : COUNTRY
SRVC.                            : SERVICE COMPANY
DATE. 2019-07-30 20:43:31.491401 : DATE
UWI .                            : UNIQUE WELL ID
API .                            : API NUMBER
~Curve Information -----------------------------------------
Depth              .ft          : 
KICh               .psi*in^1/2  : 
KICvup             .psi*in^1/2  : 
KICvdown           .psi*in^1/2  : 
nuh                .            : 
Eh                 .psi         : 
nuv                .            : 
Ev                 .psi         : 
Gv                 .psi         : 
Cl                 .ft/min^1/2  : 
Sigma_h            .psi         : 
SigmaH             .psi         : 
SigmaV             .psi         : 
Pore Pressure      .psi         : 
Biot               .            : 
Porosity           .            : 
Permeability       .nD          : 
SoPhi              .            : 
TensileStrength    .psi         : 
Grad_SigmaH        .psi/ft      : 
Grad_Sigma_h       .psi/ft      : 
Std_KICh           .psi*in^1/2  : 
Std_KICvup         .psi*in^1/2  : 
Std_KICvdown       .psi*in^1/2  : 
Std_nuh            .            : 
Std_Eh             .psi         : 
Std_nuv            .            : 
Std_Ev             .psi         : 
Std_Gv             .psi         : 
Std_Cl             .ft/min^1/2  : 
Std_Sigma_h        .psi         : 
Std_SigmaH         .psi         : 
Std_SigmaV         .psi         : 
Std_Pore Pressure  .psi         : 
Std_Biot           .            : 
Std_Porosity       .            : 
Std_Permeability   .nD          : 
Std_SoPhi          .            : 
Std_TensileStrength.psi         : 
Std_Depth          .ft          : 
~Params ----------------------------------------------------
~Other -----------------------------------------------------
Exported from homogenization method
~ASCII -----------------------------------------------------
# ...
 7108.0864500000 2672.9070387277 18539.0971654350 19217.4927493182 0.2730137490 8011643.3882656824 0.2353478638 6319931.7514776262 2519017.8997105337 0.0019499385 5353.1267589193 5982.4713668999 7413.7729619248 3908.9596961652 0.9000000000 0.0214859645 295.0710328725 0.0000000000 1504.7245699487 0.8416430229 0.7531037779 2.4296734251 2.4296734251 2.4296734251 0.0002216197 6703.6034039083 0.0002159242 5741.7631442371 2301.1219499950 0.0000024194 0.0070875869 0.0071012572 0.0000000000 87.8575570497 0.0000000000 0.0000275669 0.4335976568 0.0000000000 1.4272139656 7108.0864500000
 7123.2974000000 2691.6926650496 4914.6276241374 5891.2360097084 0.2218301744 6544970.2880307073 0.1992565797 4903219.9675628990 2040251.1529742321 0.0003380542 5013.3199982793 5548.9893920292 7431.0279963857 3917.7791737065 0.9000000000 0.0421476931 931.5807771027 0.0000000000 1614.6756457658 0.7789916777 0.7037920385 2.4190668251 2.4190668251 2.4190668251 0.0002096922 6361.3487896592 0.0002051274 5382.1959069099 2169.7594518946 0.0000045580 0.0069893664 0.0070072156 0.0000000000 80.3402600937 0.0000000000 0.0000332982 0.7788761652 0.0000000000 1.4925587490 7123.2974000000
 7138.5083500000 2731.5388588696 18219.3659372918 18689.9477926886 0.2611654167 7787346.1560118077 0.2414297257 6669039.7937138546 2675385.9291164959 0.0006917424 5245.4533139992 5862.9255387356 7448.1353250593 3926.1451915649 0.9000000000 0.0265688408 434.3688818597 0.0000000000 1626.8748893455 0.8213096142 0.7348108396 2.3869014716 2.3869014716 2.3869014716 0.0002108270 6186.3209109467 0.0001977542 5030.1493760480 2042.9154007402 0.0000042131 0.0064763241 0.0064943616 0.0000000000 74.3076868642 0.0000000000 0.0000323242 0.5989478238 0.0000000000 1.3654513313 7138.5083500000
 7153.7193000000 2560.5046046412 22444.7050740538 18101.6574207477 0.2461210518 6724376.5378748104 0.2091983664 4425242.3324325997 1826986.4080002641 0.0006241441 5372.1986193878 5911.8232833229 7465.3409242107 3934.5112848432 0.9000000000 0.0314652124 567.1069430647 0.0000000000 1246.7404348731 0.8263985537 0.7509658115 2.2735201892 2.2735201892 2.2735201892 0.0002428596 6821.1826532447 0.0002296892 4873.9247592976 1937.5807063646 0.0000041060 0.0058286195 0.0058512440 0.0000000000 76.2703905938 0.0000000000 0.0000162789 0.1833487126 0.0000000000 1.0099076831 7153.7193000000
 7168.9302500000 2603.9084888285 16419.7740505295 22784.6476654239 0.2302385526 6110030.0416941214 0.1774682910 3795075.2464155206 1612107.2492147554 0.0015499332 5157.1269007939 5653.7809870168 7482.7628184026 3942.8772522500 0.9000000000 0.0426715248 1419.7034215050 0.0000000000 1427.8390464683 0.7886505782 0.7193718897 2.3270015505 2.3270015505 2.3270015505 0.0001583035 4601.5732809229 0.0001360572 3205.9251927066 1382.8486849759 0.0000060212 0.0093093896 0.0093163192 0.0000000000 107.6308875257 0.0000000000 0.0000570855 2.1293073900 0.0000000000 1.5672584509 7168.9302500000
 7184.1412000000 2682.4146792695 5820.9317616317 4589.0468950945 0.2133480512 6073794.1616462367 0.1629427030 4154052.7664516461 1773129.8348355074 0.0002727732 4886.2474914010 5386.8288502079 7499.4028154760 3951.2432346246 0.9000000000 0.0497840483 1546.2963472934 0.0000000000 1680.6929839146 0.7498222404 0.6801435767 2.3874721769 2.3874721769 2.3874721769 0.0001890057 5637.8273426822 0.0001737722 4532.1599497144 1864.2511357701 0.0000049866 0.0076716508 0.0076843672 0.0000000000 88.4460635535 0.0000000000 0.0000433804 1.3322289358 0.0000000000 1.5305751389 7184.1412000000
 7199.3521500000 2580.2674007370 4537.5098044463 7376.4835855510 0.1899363732 5222970.0307676550 0.1417240880 3287239.3958282438 1433492.7277473016 0.0004921125 4765.2264588632 5204.1549720596 7516.2326854693 3959.6093635567 0.9000000000 0.0607999211 2294.7916720793 0.0000000000 1697.6380315958 0.7228643444 0.6618965651 2.3162885335 2.3162885335 2.3162885335 0.0001687005 4901.0708902397 0.0001491164 3503.4903029512 1492.7974495663 0.0000054032 0.0083502696 0.0083590306 0.0000000000 96.4080465930 0.0000000000 0.0000517303 1.7606064990 0.0000000000 1.4848814654 7199.3521500000
 7214.5631000000 2597.9208534602 3949.9628780846 4446.0707837503 0.1954094246 5521437.1876235772 0.1563850685 3644801.6065484849 1571771.6595260806 0.0006707774 4849.7737541846 5311.6604579326 7532.8354811066 3967.9753308461 0.9000000000 0.0554226315 1781.9401302495 0.0000000000 1633.2706814624 0.7362414583 0.6722200204 2.2550826420 2.2550826420 2.2550826420 0.0001619851 4392.7826628435 0.0001304573 2699.1313501231 1176.6165836929 0.0000054799 0.0084924466 0.0084992072 0.0000000000 98.0910855815 0.0000000000 0.0000549767 1.9308345172 0.0000000000 1.3471483697 7214.5631000000
 7229.7740500000 2435.6924031731 3786.2483172019 3119.7522975362 0.1825830610 4693061.2494036900 0.1403903867 2644764.6413608049 1159275.1977911836 0.0004723228 4877.5039963958 5274.3523366389 7549.4762089794 3976.3412981398 0.9000000000 0.0590276608 2008.9625169418 0.0000000000 1304.9357293092 0.7295321126 0.6746412768 2.2367282241 2.2367282241 2.2367282241 0.0001818756 4855.7243083923 0.0001511164 3014.0045730804 1279.9363050861 0.0000055322 0.0079120686 0.0079203986 0.0000000000 104.7446341541 0.0000000000 0.0000454739 1.3136131143 0.0000000000 1.1526044872 7229.7740500000
 7244.9850000000 2530.2657559963 4343.7700532405 4101.7144998669 0.2216100841 6065735.5660879500 0.1828299413 3834340.2065203805 1614199.0898485417 0.0008818117 5206.4967446504 5703.0328853417 7566.3673558670 3984.7074216439 0.9000000000 0.0412000347 831.5979988865 0.0000000000 1291.4657890918 0.7871697299 0.7186345789 2.3663402969 2.3663402969 2.3663402969 0.0002138664 6249.3432522917 0.0002012854 4955.0870754179 1997.8558047679 0.0000041310 0.0063687487 0.0063874410 0.0000000000 72.9751521845 0.0000000000 0.0000310421 0.5960159777 0.0000000000 1.3124594136 7244.9850000000
 7260.1959500000 2679.7748204165 5156.6484599923 4286.1982612789 0.2605830999 7264066.1705747778 0.1902677779 4761856.8822228415 1965319.9141044093 0.0004288306 5362.9850313305 5939.2315454228 7583.5447858775 3993.0734094465 0.9000000000 0.0301833162 588.2566100442 0.0000000000 1450.4525848306 0.8180538909 0.7386832350 2.3571945193 2.3571945193 2.3571945193 0.0002162094 6246.4503026947 0.0001975115 4887.9773923075 1966.4435842501 0.0000048017 0.0067403329 0.0067568784 0.0000000000 89.1324863665 0.0000000000 0.0000301159 0.5704749599 0.0000000000 1.2677382332 7260.1959500000
 7275.4069000000 2616.8305481082 4365.6110918143 5454.7863235321 0.2329048683 6530902.8798887199 0.1924604388 4459198.9939850373 1858846.3615334642 0.0005147697 5231.7155238832 5761.4322155732 7600.7984087832 4001.4393768490 0.9000000000 0.0376985894 684.2862090272 0.0000000000 1403.3920300391 0.7919051532 0.7190959345 2.3666378927 2.3666378927 2.3666378927 0.0002154833 6259.3425754997 0.0002028359 4898.1851417281 1987.3072935633 0.0000047627 0.0066858433 0.0067026161 0.0000000000 88.3573072555 0.0000000000 0.0000301280 0.5004863541 0.0000000000 1.2732701875 7275.4069000000
 7290.6178500000 2635.6936482160 3785.8186451172 4696.4379646111 0.2591635612 7527430.5549865728 0.2372991503 5911085.6771720601 2380258.9245840176 0.0002260560 5453.3018711472 6051.1138462576 7618.0299776950 4009.8054647079 0.9000000000 0.0247166013 334.7164137329 0.0000000000 1400.8681459036 0.8299864251 0.7479889885 2.3296313364 2.3296313364 2.3296313364 0.0002150689 6108.2280877414 0.0001966465 4637.7815040648 1881.3216890912 0.0000045909 0.0064646650 0.0064810842 0.0000000000 85.3433376641 0.0000000000 0.0000294206 0.5396020526 0.0000000000 1.1928722412 7290.6178500000
 7305.8288000000 2551.5655656498 6169.8158122218 4673.2595995828 0.2421776907 6483096.9119744049 0.1894085337 4045473.0360047175 1689181.6088504153 0.0002505310 5392.9941229916 5914.9079329691 7635.3251726841 4018.1714879857 0.9000000000 0.0331653869 610.1155436623 0.0000000000 1188.5815695122 0.8096149109 0.7381769092 2.3134841794 2.3134841794 2.3134841794 0.0002279947 6454.5623897982 0.0002128386 4835.0219339852 1943.9532732149 0.0000043236 0.0060941943 0.0061136191 0.0000000000 80.1845212024 0.0000000000 0.0000233598 0.3194324160 0.0000000000 1.1068594473 7305.8288000000
