~Version ---------------------------------------------------
VERS.   2.0 : CWLS log ASCII Standard -VERSION 2.0
WRAP.    NO : One line per depth step
DLM . SPACE : Column Data Section Delimiter
~Well ------------------------------------------------------
STRT.ft                 5533.575 : START DEPTH
STOP.ft        7763.808250000001 : STOP DEPTH
STEP.ft       14.590000000000146 : STEP
NULL.                   -9999.25 : NULL VALUE
COMP.                            : COMPANY
WELL.                     bypass : WELL
FLD .                            : FIELD
LOC .                            : LOCATION
PROV.                            : PROVINCE
CNTY.                            : COUNTY
STAT.                            : STATE
CTRY.                            : COUNTRY
SRVC.                            : SERVICE COMPANY
DATE. 2019-07-30 20:43:20.008820 : DATE
UWI .                            : UNIQUE WELL ID
API .                            : API NUMBER
~Curve Information -----------------------------------------
Depth              .ft          : 
KICh               .psi*in^1/2  : 
KICvup             .psi*in^1/2  : 
KICvdown           .psi*in^1/2  : 
nuh                .            : 
Eh                 .psi         : 
nuv                .            : 
Ev                 .psi         : 
Gv                 .psi         : 
Cl                 .ft/min^1/2  : 
Sigma_h            .psi         : 
SigmaH             .psi         : 
SigmaV             .psi         : 
Pore Pressure      .psi         : 
Biot               .            : 
Porosity           .            : 
Permeability       .nD          : 
SoPhi              .            : 
TensileStrength    .psi         : 
Grad_SigmaH        .psi/ft      : 
Grad_Sigma_h       .psi/ft      : 
Std_KICh           .psi*in^1/2  : 
Std_KICvup         .psi*in^1/2  : 
Std_KICvdown       .psi*in^1/2  : 
Std_nuh            .            : 
Std_Eh             .psi         : 
Std_nuv            .            : 
Std_Ev             .psi         : 
Std_Gv             .psi         : 
Std_Cl             .ft/min^1/2  : 
Std_Sigma_h        .psi         : 
Std_SigmaH         .psi         : 
Std_SigmaV         .psi         : 
Std_Pore Pressure  .psi         : 
Std_Biot           .            : 
Std_Porosity       .            : 
Std_Permeability   .nD          : 
Std_SoPhi          .            : 
Std_TensileStrength.psi         : 
Std_Depth          .ft          : 
~Params ----------------------------------------------------
~Other -----------------------------------------------------
Exported from homogenization method
~ASCII -----------------------------------------------------
# ...
 7347.3643000000 2744.1953052931 21310.1911569736 20382.0342311309 0.2594048930 7697572.7155197337 0.2584248026 7288909.2764400886 2894562.6615753588 0.0007279426 5359.1438775729 5970.3510245426 7729.7083071896 4040.9130448881 0.9000000000 0.0346739882 448.7476216381 0.0000000000 1805.7012178373 0.8125840479 0.7293967821 20.2325692111 20.2325692111 20.2325692111 0.0053816545 110385.4685266016 0.0052219535 111247.4886732944 55686.7530726247 0.0000616863 0.1366307920 0.1367955010 0.0000000000 1617.2651005962 0.0000000000 0.0009152547 12.8899748910 0.0000000000 19.3248796193 7347.3643000000
 7362.3214500000 2647.1547147576 4528.3175455980 6148.2899677654 0.2048868613 5528986.6256464506 0.1500283428 3567445.2385208942 1543083.5988379882 0.0002745931 4962.0069984144 5420.8871474999 7746.5311197967 4049.1394102132 0.9000000000 0.0599991933 1604.0322134756 0.0000000000 1447.8394091407 0.7363013398 0.6739731526 21.4520236419 21.4520236419 21.4520236419 0.0056764216 116596.2617822495 0.0048954396 87465.2556951619 41981.5040882946 0.0001016570 0.1368332705 0.1370889804 0.0000000000 1572.3712674315 0.0000000000 0.0009653971 13.6784149640 0.0000000000 21.2321733358 7362.3214500000
 7375.8616500000 2592.8463632392 3946.4045173749 2928.8400187407 0.2107341408 6183568.3134466847 0.1827147138 4159544.9428122598 1756786.6902011172 0.0003942911 5201.8758542414 5712.6046843785 7761.2268141592 4056.5857829551 0.9000000000 0.0489166338 1281.4233479198 0.0000000000 1539.6304239286 0.7744999778 0.7052567010 22.6907271886 22.6907271886 22.6907271886 0.0060166127 123548.8084482374 0.0056458559 102295.5474647147 49435.5250418728 0.0001127079 0.1513450403 0.1516045888 0.0000000000 1740.5909246731 0.0000000000 0.0010244898 14.6306677711 0.0000000000 22.0950780020 7375.8616500000
 7387.9850000000 2597.1448790000 3386.7280193765 2839.7539395532 0.2235536292 6751928.4766892847 0.2103917813 4974246.6582829002 2054433.2649506654 0.0002475067 5330.4229148174 5882.2523006045 7774.8794012443 4063.2539937229 0.9000000000 0.0420580369 925.5102434201 0.0000000000 1628.8307088197 0.7961916951 0.7214988816 22.2205298242 22.2205298242 22.2205298242 0.0058949478 121030.0571711145 0.0056151219 103903.3665250391 50303.5652428539 0.0000885549 0.1419160654 0.1421906136 0.0000000000 1561.7317302505 0.0000000000 0.0010037523 14.2524651979 0.0000000000 21.5684120517 7387.9850000000
 7400.1083500000 2601.2365020075 2909.5271851029 3510.5185543320 0.2205392813 6572547.4930693610 0.2036629347 4774054.7394198328 1982279.9439137361 0.0001634309 5299.3589460901 5837.8543139839 7788.6039477459 4069.9228848581 0.9000000000 0.0439908232 1028.3874515061 0.0000000000 1607.7441585296 0.7888876808 0.7161191020 22.6878523494 22.6878523494 22.6878523494 0.0060171394 123543.4087504459 0.0055649596 102927.7084158943 50054.5677865858 0.0000893708 0.1432695408 0.1435529089 0.0000000000 1576.5655922429 0.0000000000 0.0010241328 14.6248417391 0.0000000000 22.0713450321 7400.1083500000
 7412.2316500000 2618.3795988534 4886.0493536591 3809.3005639537 0.2264660251 6435159.8551293472 0.1899800922 4421611.4984447081 1851706.3405222369 0.0002588160 5299.9895402260 5824.6807850849 7802.1851632537 4076.5900101458 0.9000000000 0.0453930598 1181.2730012713 0.0000000000 1593.3822356792 0.7858201228 0.7150329065 22.7026578113 22.7026578113 22.7026578113 0.0060165878 123571.7226606755 0.0055746939 96586.9077960835 46952.5448432742 0.0001103400 0.1487217523 0.1489860069 0.0000000000 1707.8635533350 0.0000000000 0.0010247519 14.6997520920 0.0000000000 22.1760991465 7412.2316500000
 7424.3550000000 2537.1395962860 3196.9758381207 3632.5078537218 0.2032862587 6076951.6076996690 0.1813832691 3943916.3135099593 1668703.1391947540 0.0006204500 5256.3826868945 5761.4122726568 7815.8336213835 4083.2571621822 0.9000000000 0.0481488138 1387.0206544085 0.0000000000 1517.3448543317 0.7760151922 0.7079918305 22.7178341977 22.7178341977 22.7178341977 0.0060168058 123600.8313714700 0.0055046700 95584.7953443345 46380.6763444339 0.0001098394 0.1480438624 0.1483094900 0.0000000000 1700.1614940902 0.0000000000 0.0010248774 14.7635138370 0.0000000000 22.2805906761 7424.3550000000
 7436.4783500000 2559.5968280473 4151.3231811027 4589.6630094099 0.2167600850 6521673.2003154634 0.1925719108 4386655.3953508111 1837303.9343003437 0.0001741310 5345.6727619495 5881.6595419948 7829.4755507230 4089.9252225054 0.9000000000 0.0435926917 1160.6929668961 0.0000000000 1576.5691958411 0.7909200115 0.7188446615 22.2442699624 22.2442699624 22.2442699624 0.0058952799 121075.7076434851 0.0054313236 99045.8880233558 48345.3987141931 0.0001100850 0.1477659906 0.1480213175 0.0000000000 1699.8245837318 0.0000000000 0.0010039188 14.4567818325 0.0000000000 21.7278675374 7436.4783500000
 7448.6016500000 2685.9178604646 4648.6164391823 3783.6126272751 0.2490601383 7233833.3723697811 0.2121411137 5566451.6776321633 2283724.6751862373 0.0002059195 5404.9083419894 5984.0504625661 7843.1566843280 4096.5942373364 0.9000000000 0.0389036365 821.3855817979 0.0000000000 1713.3404596321 0.8033790426 0.7256272514 22.5455036847 22.5455036847 22.5455036847 0.0060164534 123270.7828897099 0.0060177571 125438.9745322751 66076.0671152750 0.0000693939 0.1537664263 0.1539487509 0.0000000000 1819.4299318974 0.0000000000 0.0010223474 14.3087292713 0.0000000000 21.0774223000 7448.6016500000
 7460.7250000000 2851.1329186660 4093.1857062180 5036.7635826845 0.2924055833 8566341.2982375566 0.2915136454 8554010.9841170646 3311902.9134535776 0.0000782539 5684.8080886063 6347.6295286598 7857.0858650544 4103.2613899566 0.9000000000 0.0274764652 237.7011361578 0.0000000000 1937.2142016932 0.8508059912 0.7619645663 22.5551708181 22.5551708181 22.5551708181 0.0060164345 123289.2308257041 0.0060164345 129917.8247855577 67710.7202781636 0.0000698652 0.1545744993 0.1547559529 0.0000000000 1830.0324122612 0.0000000000 0.0010225062 14.3083658656 0.0000000000 21.1473571107 7460.7250000000
 7472.8483500000 2792.4431796697 3217.4312809734 3345.1047836553 0.2660641017 7805945.7681600312 0.2652917287 7554168.0018590102 2984468.4793744385 0.0004742203 5480.7491407602 6097.3013167200 7870.9982525229 4109.9285423523 0.9000000000 0.0344723515 413.2142296246 0.0000000000 1830.0674084720 0.8159273454 0.7334217000 22.5895436569 22.5895436569 22.5895436569 0.0060164420 123354.9666937583 0.0059949355 132031.0768960462 66156.7435191408 0.0000698281 0.1544056223 0.1545875611 0.0000000000 1828.5072146163 0.0000000000 0.0010231469 14.3378833170 0.0000000000 21.3907063857 7472.8483500000
 7484.9716500000 2698.6696527150 3120.9612169878 3520.1670272927 0.2569501462 7707023.0732820584 0.2501248778 6712586.1801580442 2680816.7659825762 0.0001897678 5532.4436300181 6145.5962754453 7884.8740568141 4116.5964230036 0.9000000000 0.0334367484 487.1541778184 0.0000000000 1783.1135422158 0.8210580564 0.7391402251 22.1638918509 22.1638918509 22.1638918509 0.0058948785 120921.5283448265 0.0058617096 123201.3056012212 60698.2498752286 0.0000676435 0.1499146214 0.1500947728 0.0000000000 1773.9042683412 0.0000000000 0.0010029442 14.0869097343 0.0000000000 21.1750541768 7484.9716500000
 7497.0950000000 2754.6797805884 3106.7641168679 3049.3895116173 0.2547673943 7714992.6660042237 0.2512081881 7022161.5934709441 2802389.1006846237 0.0001157255 5472.0462443755 6086.9006549111 7898.7139879715 4123.2656177310 0.9000000000 0.0372157302 521.8428374367 0.0000000000 1783.1410065964 0.8119012304 0.7298888762 22.6225750109 22.6225750109 22.6225750109 0.0060165008 123418.3348616804 0.0058170192 115051.2366921349 58947.4800346838 0.0000682176 0.1515335149 0.1517191784 0.0000000000 1791.8675314971 0.0000000000 0.0010234582 14.4995861003 0.0000000000 21.6175299127 7497.0950000000
 7509.2183500000 2602.5290054794 3409.1124366654 3532.6372406477 0.2255806383 6878002.7879726039 0.2024056387 4807620.9732872825 1995242.1427389821 0.0002602107 5449.2056113257 6010.4092215104 7912.4514763666 4129.9327695429 0.9000000000 0.0421177181 1002.9614777144 0.0000000000 1622.7883439010 0.8004041088 0.7256688190 22.7103862202 22.7103862202 22.7103862202 0.0060165910 123586.5504711626 0.0055522747 94697.2018598419 46072.7527755329 0.0001095885 0.1478966844 0.1481624983 0.0000000000 1697.5431580152 0.0000000000 0.0010248796 14.7667933814 0.0000000000 22.2291894617 7509.2183500000
