~Version ---------------------------------------------------
VERS.   2.0 : CWLS log ASCII Standard -VERSION 2.0
WRAP.    NO : One line per depth step
DLM . SPACE : Column Data Section Delimiter
~Well ------------------------------------------------------
STRT.ft               6039.97275 : START DEPTH
STOP.ft               8231.95595 : STOP DEPTH
STEP.ft       14.389100000000326 : STEP
NULL.                   -9999.25 : NULL VALUE
COMP.                            : COMPANY
WELL.                     bypass : WELL
FLD .                            : FIELD
LOC .                            : LOCATION
PROV.                            : PROVINCE
CNTY.                            : COUNTY
STAT.                            : STATE
CTRY.                            : COUNTRY
SRVC.                            : SERVICE COMPANY
DATE. 2019-07-30 20:43:31.491401 : DATE
UWI .                            : UNIQUE WELL ID
API .                            : API NUMBER
~Curve Information -----------------------------------------
Depth              .ft          : 
KICh               .psi*in^1/2  : 
KICvup             .psi*in^1/2  : 
KICvdown           .psi*in^1/2  : 
nuh                .            : 
Eh                 .psi         : 
nuv                .            : 
Ev                 .psi         : 
Gv                 .psi         : 
Cl                 .ft/min^1/2  : 
Sigma_h            .psi         : 
SigmaH             .psi         : 
SigmaV             .psi         : 
Pore Pressure      .psi         : 
Biot               .            : 
Porosity           .            : 
Permeability       .nD          : 
SoPhi              .            : 
TensileStrength    .psi         : 
Grad_SigmaH        .psi/ft      : 
Grad_Sigma_h       .psi/ft      : 
Std_KICh           .psi*in^1/2  : 
Std_KICvup         .psi*in^1/2  : 
Std_KICvdown       .psi*in^1/2  : 
Std_nuh            .            : 
Std_Eh             .psi         : 
Std_nuv            .            : 
Std_Ev             .psi         : 
Std_Gv             .psi         : 
Std_Cl             .ft/min^1/2  : 
Std_Sigma_h        .psi         : 
Std_SigmaH         .psi         : 
Std_SigmaV         .psi         : 
Std_Pore Pressure  .psi         : 
Std_Biot           .            : 
Std_Porosity       .            : 
Std_Permeability   .nD          : 
Std_SoPhi          .            : 
Std_TensileStrength.psi         : 
Std_Depth          .ft          : 
~Params ----------------------------------------------------
~Other -----------------------------------------------------
Exported from homogenization method
~ASCII -----------------------------------------------------
# ...
 7534.8272500000 2651.7632194553 3788.7570768374 3430.2895575091 0.2571994886 7632490.6432073060 0.2495474484 6479352.7358063459 2588178.7881297572 0.0001454499 5589.3350036302 6196.4375925617 7897.5146463350 4144.1205811821 0.9000000000 0.0252036966 293.2010914979 0.0000000000 1461.7674526654 0.8223728809 0.7418000199 2.3717954097 2.3717954097 2.3717954097 0.0002236669 6609.1716456906 0.0002176100 5468.9651289261 2201.3536656603 0.0000021066 0.0061845420 0.0061996315 0.0000000000 76.3855540702 0.0000000000 0.0000254849 0.3089820192 0.0000000000 1.2923562039 7534.8272500000
 7550.1363500000 2638.5412764093 3743.9391396003 4273.8829109925 0.2391304415 7059144.5737981172 0.2257968877 5682350.0661307983 2310649.3995175520 0.0003330592 5456.4646890562 6026.1500375231 7914.9460800542 4152.5406443716 0.9000000000 0.0323460077 431.6954340374 0.0000000000 1466.5804606933 0.7981511536 0.7226975032 2.3027652406 2.3027652406 2.3027652406 0.0001989977 5623.3300158133 0.0001803165 4081.0048260308 1689.9952265192 0.0000046194 0.0065282340 0.0065419980 0.0000000000 86.2122399483 0.0000000000 0.0000362286 0.6257294647 0.0000000000 1.1992440394 7550.1363500000
 7565.4454500000 2475.0297916832 4817.1429851605 3717.3962463646 0.2138834085 5776717.4289463563 0.1829944940 3553821.4068856123 1501376.2039678551 0.0002288237 5458.8016065776 5934.6889437421 7932.1565479198 4160.9606056202 0.9000000000 0.0426531045 799.6580913868 0.0000000000 1196.5728639992 0.7844467299 0.7215439782 2.2215298677 2.2215298677 2.2215298677 0.0001985955 5343.8575069771 0.0001727546 3308.0406661261 1386.6786819104 0.0000041344 0.0059052827 0.0059188254 0.0000000000 77.6153926649 0.0000000000 0.0000351195 0.5876025416 0.0000000000 1.0368807998 7565.4454500000
 7580.7545500000 2474.3668703503 3585.6486991563 3831.4592163489 0.2164388167 5749811.1221493138 0.1827913180 3450911.8979012407 1458545.5520542562 0.0004140910 5514.2764086217 5986.9521439981 7949.3915238631 4169.3806382723 0.9000000000 0.0407326248 697.5175132437 0.0000000000 1139.2507341075 0.7897567590 0.7274046894 2.2613504391 2.2613504391 2.2613504391 0.0001985451 5390.8892519438 0.0001718436 3398.8432351256 1423.2184475964 0.0000042765 0.0060996463 0.0061130271 0.0000000000 80.2691264005 0.0000000000 0.0000356711 0.6460898594 0.0000000000 1.0681334623 7580.7545500000
 7596.0636500000 2489.9960103562 4435.6014205616 4415.0947435701 0.2272471243 6089709.9988675127 0.1908577481 3743544.3282830738 1569646.5104324862 0.0002121220 5596.0610055454 6092.2699497957 7966.6376841830 4177.8006300583 0.9000000000 0.0368964245 628.8666129243 0.0000000000 1125.7759308957 0.8020298711 0.7367053863 2.2389230103 2.2389230103 2.2389230103 0.0001895459 5135.4131721683 0.0001629747 3162.8563216424 1338.3746185076 0.0000045855 0.0065462976 0.0065576068 0.0000000000 86.3335958607 0.0000000000 0.0000401882 0.8317652403 0.0000000000 1.0951003713 7596.0636500000
 7611.3727500000 2503.1659814862 4132.5754048161 3764.8247978507 0.2015373777 5576058.4076019842 0.1726516536 3423694.7086580326 1457753.7964098994 0.0003291840 5369.5541409019 5833.6311235214 7983.7697149911 4186.2206321730 0.9000000000 0.0497558334 1259.3407854792 0.0000000000 1395.9759459929 0.7664361364 0.7054646142 2.2223225643 2.2223225643 2.2223225643 0.0001782114 4925.9111172484 0.0001582963 3045.2962988550 1290.1492044073 0.0000054336 0.0077627018 0.0077715322 0.0000000000 102.7039874928 0.0000000000 0.0000457483 1.2070937991 0.0000000000 1.2391190582 7611.3727500000
 7626.6818500000 2486.5947710063 3708.2838065382 4268.1890952652 0.1944323934 5348508.5968134673 0.1665267143 3277921.6430589929 1403700.0598335380 0.0002577697 5308.4934071997 5756.2800400967 8000.7158393997 4194.6406544963 0.9000000000 0.0522848796 1369.8678206492 0.0000000000 1379.3550416027 0.7547554957 0.6960423303 2.3102135511 2.3102135511 2.3102135511 0.0001778936 5063.8901172426 0.0001564620 3380.4102548985 1439.8185769624 0.0000044435 0.0068788079 0.0068900839 0.0000000000 79.1367275698 0.0000000000 0.0000462286 1.1646543743 0.0000000000 1.3311734333 7626.6818500000
 7641.9909500000 2638.7050474378 7069.6729843772 5316.2667234605 0.2396601979 6756211.0953284763 0.2001924064 4763840.5905047851 1976923.3609995728 0.0001840239 5536.0610963100 6081.0661796976 8017.6952985189 4203.0606260737 0.9000000000 0.0353519495 742.6887199470 0.0000000000 1451.0019480227 0.7957437034 0.7244265444 2.4118282769 2.4118282769 2.4118282769 0.0002459298 7367.9025235566 0.0002426951 6491.8487792468 2549.5545937340 0.0000019363 0.0056884557 0.0057089406 0.0000000000 69.9195964098 0.0000000000 0.0000165664 0.2071935693 0.0000000000 1.3457560226 7641.9909500000
 7657.3000000000 2666.9365971707 3546.4795929500 7125.1757659874 0.2685330662 7781684.2687174808 0.2296551502 5884134.6933436636 2370170.4203270599 0.0001703326 5778.0439971330 6391.4836051519 8035.2623411777 4211.4806514959 0.9000000000 0.0235244617 388.1761724694 0.0000000000 1467.9969833268 0.8346915499 0.7545798124 2.3695164509 2.3695164509 2.3695164509 0.0002551062 7685.3942255915 0.0002484345 6740.6039562644 2598.8214447714 0.0000021118 0.0062160982 0.0062365404 0.0000000000 76.5592090097 0.0000000000 0.0000165464 0.3308037643 0.0000000000 1.3058060248 7657.3000000000
 7672.6090500000 2668.2678845028 4987.8156975135 6557.0305216597 0.3139776971 9247324.7784684785 0.2662349718 7221262.3484275397 2809434.3492925200 0.0001294752 6234.6575760672 6938.4233095782 8053.0194051254 4219.9005647376 0.9000000000 0.0114299551 197.7619920276 0.0000000000 1422.1713904214 0.9043108106 0.8125863752 2.2430839973 2.2430839973 2.2430839973 0.0002208608 6232.1543517542 0.0002026013 4445.8137754566 1769.5480234266 0.0000043899 0.0062219946 0.0062397187 0.0000000000 81.8667586197 0.0000000000 0.0000283901 0.5438212103 0.0000000000 1.0857975866 7672.6090500000
 7687.9181500000 2399.8834788529 4285.6284524941 3618.4098136587 0.2120022092 5505172.5759541402 0.1783881878 3032138.2249085656 1286208.2850373683 0.0002648100 5680.7744727040 6134.9958045036 8070.5870490440 4228.3206485848 0.9000000000 0.0427575643 794.7662506457 0.0000000000 1044.3842578205 0.7980048285 0.7389223405 2.1968258525 2.1968258525 2.1968258525 0.0001956736 5181.8669013295 0.0001683937 2977.3257024085 1255.0297245730 0.0000040462 0.0058039081 0.0058167994 0.0000000000 76.1971194460 0.0000000000 0.0000367382 0.6185539895 0.0000000000 0.9725641146 7687.9181500000
 7703.2272500000 2447.0400495466 3959.2917771696 3772.2325669268 0.2191333160 5826526.8196375053 0.1895169114 3429754.9014191306 1441206.7666515175 0.0002369000 5709.7317064105 6187.6553873889 8087.8192638800 4236.7405586383 0.9000000000 0.0392550641 639.2540051198 0.0000000000 1090.2732172260 0.8032549458 0.7412129386 2.2028944190 2.2028944190 2.2028944190 0.0002108196 5630.0262752078 0.0001868717 3368.8261400013 1390.8876282529 0.0000037456 0.0053850958 0.0054015343 0.0000000000 70.3603870209 0.0000000000 0.0000292921 0.4205580896 0.0000000000 0.9211412096 7703.2272500000
 7718.5363500000 2491.8407104430 4557.3754088987 4234.7322795806 0.2513457878 6917155.1364315785 0.2284704653 4327747.3804073147 1757170.2053010331 0.0001893677 6096.1305562500 6648.9078304375 8105.2573657863 4245.1606730229 0.9000000000 0.0260395737 314.8090587213 0.0000000000 1075.0925883259 0.8614208095 0.7898039576 2.2708478800 2.2708478800 2.2708478800 0.0002277550 6471.0829280417 0.0002221262 4403.9113351511 1767.2254338338 0.0000041149 0.0058660868 0.0058863879 0.0000000000 76.7336983107 0.0000000000 0.0000232149 0.2537967093 0.0000000000 1.0892243223 7718.5363500000
 7733.8454500000 2531.9742758120 4074.5464048973 4153.9889980648 0.2532601722 7252404.5902986526 0.2478208233 5016774.6174893873 2008475.7344414247 0.0003835364 6084.8788643431 6663.5619463527 8122.8057005378 4253.5805525390 0.9000000000 0.0255732813 286.9512234351 0.0000000000 1268.9105595757 0.8616104355 0.7867856817 2.2570414175 2.2570414175 2.2570414175 0.0002277813 6469.2601135351 0.0002234127 4394.3456210351 1759.8340417597 0.0000041020 0.0058518200 0.0058721568 0.0000000000 76.5203628139 0.0000000000 0.0000229572 0.2593093552 0.0000000000 1.0826513939 7733.8454500000
