~Version ---------------------------------------------------
VERS.   2.0 : CWLS log ASCII Standard -VERSION 2.0
WRAP.    NO : One line per depth step
DLM . SPACE : Column Data Section Delimiter
~Well ------------------------------------------------------
STRT.ft                 5553.236 : START DEPTH
STOP.ft        7956.265999999999 : STOP DEPTH
STEP.ft        14.83744999999999 : STEP
NULL.                   -9999.25 : NULL VALUE
COMP.                            : COMPANY
WELL.                     bypass : WELL
FLD .                            : FIELD
LOC .                            : LOCATION
PROV.                            : PROVINCE
CNTY.                            : COUNTY
STAT.                            : STATE
CTRY.                            : COUNTRY
SRVC.                            : SERVICE COMPANY
DATE. 2019-07-30 20:43:21.016623 : DATE
UWI .                            : UNIQUE WELL ID
API .                            : API NUMBER
~Curve Information -----------------------------------------
Depth              .ft          : 
KICh               .psi*in^1/2  : 
KICvup             .psi*in^1/2  : 
KICvdown           .psi*in^1/2  : 
nuh                .            : 
Eh                 .psi         : 
nuv                .            : 
Ev                 .psi         : 
Gv                 .psi         : 
Cl                 .ft/min^1/2  : 
Sigma_h            .psi         : 
SigmaH             .psi         : 
SigmaV             .psi         : 
Pore Pressure      .psi         : 
Biot               .            : 
Porosity           .            : 
Permeability       .nD          : 
SoPhi              .            : 
TensileStrength    .psi         : 
Grad_SigmaH        .psi/ft      : 
Grad_Sigma_h       .psi/ft      : 
Std_KICh           .psi*in^1/2  : 
Std_KICvup         .psi*in^1/2  : 
Std_KICvdown       .psi*in^1/2  : 
Std_nuh            .            : 
Std_Eh             .psi         : 
Std_nuv            .            : 
Std_Ev             .psi         : 
Std_Gv             .psi         : 
Std_Cl             .ft/min^1/2  : 
Std_Sigma_h        .psi         : 
Std_SigmaH         .psi         : 
Std_SigmaV         .psi         : 
Std_Pore Pressure  .psi         : 
Std_Biot           .            : 
Std_Porosity       .            : 
Std_Permeability   .nD          : 
Std_SoPhi          .            : 
Std_TensileStrength.psi         : 
Std_Depth          .ft          : 
~Params ----------------------------------------------------
~Other -----------------------------------------------------
Exported from homogenization method
~ASCII -----------------------------------------------------
# ...
 5966.3297500000 2943.5284015663 4868.9572460067 5119.4772364185 0.2294017240 5085705.2244110769 0.2139687043 4807237.4830800137 1977946.8530855321 0.0005030699 3525.6913782072 3939.3645596377 6161.4607518642 2505.7532260764 0.9000000000 0.0617509438 1433.6790239813 0.0000000000 1614.6628692973 0.6602659800 0.5909313642 19.5916330678 19.5916330678 19.5916330678 0.0052130748 106883.0849202777 0.0049474929 111033.0173199479 50904.2337485129 0.0000924258 0.1335794658 0.1338706835 0.0000000000 1395.4991014232 0.0000000000 0.0008851819 12.4097746833 0.0000000000 18.7260722455 5966.3297500000
 5982.4593000000 2913.9166552037 4594.3180876551 3948.8512685798 0.2107376010 4562638.0916334260 0.1973874580 4254577.4099047706 1776236.2589357649 0.0004789111 3412.5343941605 3789.3822006449 6178.5052132549 2512.5275134535 0.9000000000 0.0693030185 1806.2785135327 0.0000000000 1539.6038822648 0.6334154585 0.5704233365 19.3083456625 19.3083456625 19.3083456625 0.0051325611 105281.5343120476 0.0047791157 101236.4604988597 46784.0793795618 0.0000878980 0.1277486101 0.1280441123 0.0000000000 1331.8573333567 0.0000000000 0.0008721243 12.2788629135 0.0000000000 18.5502433412 5982.4593000000
 5998.5888500000 2884.3323212498 4312.3280056800 3712.5824538409 0.2270102582 5299722.0023215432 0.2083441746 4581964.6990233809 1893776.1320892081 0.0005331495 3618.8787343885 4050.8003069017 6195.7375455121 2519.3028604110 0.9000000000 0.0603792190 1408.5217852596 0.0000000000 1588.5741370669 0.6752922076 0.6032883441 19.5804174570 19.5804174570 19.5804174570 0.0052117252 106861.6294560438 0.0050048448 108803.7412442579 50936.1217475835 0.0000921110 0.1334241064 0.1337155541 0.0000000000 1392.7433385092 0.0000000000 0.0008854269 12.4344374301 0.0000000000 18.6469134801 5998.5888500000
 6014.7184000000 2922.4550077311 4273.3101934112 4697.1136688533 0.2293614116 5116530.5689473096 0.2086638908 4625557.1212469675 1908222.8130905968 0.0005430730 3577.2611542385 3993.4553279474 6213.2003321486 2526.0768346394 0.9000000000 0.0610433118 1428.1314935131 0.0000000000 1604.4786324323 0.6639471813 0.5947512280 19.5922575641 19.5922575641 19.5922575641 0.0052120769 106884.2912438606 0.0049265045 106883.5503368956 49372.1079312261 0.0000909187 0.1318058312 0.1321009957 0.0000000000 1375.4199612626 0.0000000000 0.0008854323 12.4456913622 0.0000000000 18.7300646016 6014.7184000000
 6030.8479500000 2882.4840233613 4114.6143445299 3418.4285241373 0.2248683500 5233152.1402435806 0.2065936033 4559188.5111850239 1885420.2748047502 0.0005042170 3612.2365772616 4039.4785857648 6230.4601714480 2532.8508087045 0.9000000000 0.0607191627 1421.8177850918 0.0000000000 1589.8885986297 0.6698027573 0.5989599816 19.6165366111 19.6165366111 19.6165366111 0.0052119195 106930.8088707685 0.0048054834 99123.5165246030 46024.7209000985 0.0000878965 0.1280654279 0.1283695281 0.0000000000 1333.9539184592 0.0000000000 0.0008858357 12.4933975563 0.0000000000 18.8988773117 6030.8479500000
 6046.9775000000 2886.2567611650 4775.2268050358 4488.3756698007 0.2328452917 5519611.9483074937 0.2095810354 4668341.9904230665 1925778.7027355228 0.0005121758 3701.4345548502 4149.1478231230 6247.8831816929 2539.6253329903 0.9000000000 0.0581447201 1330.4928844109 0.0000000000 1601.1828025063 0.6861523502 0.6121131681 19.2908313517 19.2908313517 19.2908313517 0.0051322201 105247.9916745753 0.0048572179 105910.8478248542 48990.6501342084 0.0000898304 0.1301630535 0.1304528655 0.0000000000 1358.5318022572 0.0000000000 0.0008720168 12.2565027498 0.0000000000 18.4279749655 6046.9775000000
 6063.1070500000 2899.9486884628 3642.8852387309 4367.8412452613 0.2195318128 4865143.5812038127 0.2042254674 4389234.9330195123 1821540.4471469179 0.0004911514 3556.4728323041 3955.4081884754 6265.3014789083 2546.4004430392 0.9000000000 0.0644985629 1581.4851901300 0.0000000000 1567.6313580813 0.6523731407 0.5865759590 19.6038393804 19.6038393804 19.6038393804 0.0052121626 106906.4653791542 0.0048439511 103973.1705929642 47632.9608580636 0.0000894813 0.1299234843 0.1302230681 0.0000000000 1355.0008975871 0.0000000000 0.0008855726 12.4587624351 0.0000000000 18.8111576376 6063.1070500000
 6079.2366000000 2901.2516974403 3511.6927579573 3754.1595632030 0.2282226147 5208577.5363161573 0.2108921073 4595513.6144729443 1895613.7062091571 0.0005036627 3657.3692116488 4081.4435996444 6282.5916029471 2553.1744172205 0.9000000000 0.0606006088 1401.8088884132 0.0000000000 1594.6107933521 0.6713743630 0.6016165273 19.5883061427 19.5883061427 19.5883061427 0.0052115891 106876.7369701722 0.0049254240 105148.8852076402 49182.9763924506 0.0000905076 0.1313771522 0.1316732391 0.0000000000 1370.3221840608 0.0000000000 0.0008856034 12.4497822216 0.0000000000 18.7019955668 6079.2366000000
 6095.3661500000 2924.5233182847 5067.7361339253 4865.0306514197 0.2429963081 5788496.4084296376 0.2185103918 5091854.5387237947 2080374.6044326695 0.0005402314 3764.7314747606 4230.4204209492 6300.0894823866 2559.9483913327 0.9000000000 0.0545737141 1165.1407542980 0.0000000000 1655.2510259797 0.6940387693 0.6176382816 19.5922479216 19.5922479216 19.5922479216 0.0052118385 106884.2737735952 0.0049098953 105748.2243412292 49231.5799867820 0.0000906249 0.1314647637 0.1317606989 0.0000000000 1371.5512300026 0.0000000000 0.0008855408 12.4502783401 0.0000000000 18.7299568814 6095.3661500000
 6111.4957000000 2921.4139364293 3427.1105080237 3774.7781250099 0.2279055909 5135451.3766644672 0.2105451217 4652855.0793564646 1919161.1192875619 0.0004895451 3639.6720943570 4057.9006141110 6317.5470693270 2566.7231525270 0.9000000000 0.0621854215 1458.6506669334 0.0000000000 1594.0857010713 0.6639783145 0.5955452271 19.2986756836 19.2986756836 19.2986756836 0.0051325302 105263.0222424665 0.0048203789 104500.0433550226 48407.4806284012 0.0000892695 0.1294431060 0.1297346214 0.0000000000 1350.6699072954 0.0000000000 0.0008720000 12.2628706087 0.0000000000 18.4824766320 6111.4957000000
 6127.6252500000 2853.5228484098 3844.3329198055 3772.8755688568 0.2137364644 5076043.6540705152 0.1927761249 4140292.5688662268 1735071.4672233574 0.0004860543 3637.8597857841 4056.0760792549 6334.8135133067 2573.4980256673 0.9000000000 0.0652567687 1698.0958110931 0.0000000000 1517.8072811052 0.6619327902 0.5936818323 20.2626892213 20.2626892213 20.2626892213 0.0053830982 110443.0527182150 0.0049326793 102282.1680170042 47559.9220059657 0.0000907309 0.1321549494 0.1324693156 0.0000000000 1376.7131549959 0.0000000000 0.0009148430 12.8969189269 0.0000000000 19.5385959680 6127.6252500000
 6142.7191500000 2873.1078737114 3789.2163141753 3332.0438195956 0.2226128026 5280670.0979562206 0.2042746391 4555066.9162146440 1889385.9627299930 0.0005560391 3672.9452163828 4104.8620167703 6350.9960024559 2579.8370967329 0.9000000000 0.0618302756 1480.0595237383 0.0000000000 1571.8689857994 0.6682483631 0.5979347463 20.9516306621 20.9516306621 20.9516306621 0.0055715877 114276.8008687267 0.0052431172 112161.8502955894 51656.1530624680 0.0000962822 0.1397788052 0.1400969874 0.0000000000 1457.8586541102 0.0000000000 0.0009467976 13.3256662963 0.0000000000 20.0696539433 6142.7191500000
 6156.7775000000 2907.6492497763 3495.4844054163 4599.3327473043 0.2254851521 5040571.1485529309 0.2131717389 4632260.0925507778 1908681.9665386493 0.0003429269 3656.5263611055 4067.8386597534 6366.1678326344 2585.7415020201 0.9000000000 0.0614651224 1424.2934726271 0.0000000000 1601.2318283284 0.6607090576 0.5939026319 20.9352348422 20.9352348422 20.9352348422 0.0055721004 114245.3989310905 0.0053416632 119817.3624827903 55035.5826694119 0.0000993770 0.1435849459 0.1438944852 0.0000000000 1500.1826440357 0.0000000000 0.0009463840 13.2878765473 0.0000000000 19.9552498959 6156.7775000000
 6170.8358500000 2922.7534366163 3381.7217678010 3239.0692522389 0.2195335656 4841303.5466136904 0.2091993001 4652814.2828649096 1923306.5702435237 0.0005114119 3573.3467880263 3970.3267222545 6381.1635928867 2591.6459074710 0.9000000000 0.0653726718 1582.1233107222 0.0000000000 1585.9487123735 0.6434017723 0.5790701414 20.9466403080 20.9466403080 20.9466403080 0.0055723320 114267.2365954658 0.0052796382 117572.3807515478 53777.5021997241 0.0000982945 0.1421725231 0.1424852737 0.0000000000 1484.8397956994 0.0000000000 0.0009464782 13.2918129741 0.0000000000 20.0350633073 6170.8358500000
