~Version ---------------------------------------------------
VERS.   2.0 : CWLS log ASCII Standard -VERSION 2.0
WRAP.    NO : One line per depth step
DLM . SPACE : Column Data Section Delimiter
~Well ------------------------------------------------------
STRT.ft               6011.19455 : START DEPTH
STOP.ft                8162.3221 : STOP DEPTH
STEP.ft       14.389100000000326 : STEP
NULL.                   -9999.25 : NULL VALUE
COMP.                            : COMPANY
WELL.                     bypass : WELL
FLD .                            : FIELD
LOC .                            : LOCATION
PROV.                            : PROVINCE
CNTY.                            : COUNTY
STAT.                            : STATE
CTRY.                            : COUNTRY
SRVC.                            : SERVICE COMPANY
DATE. 2019-07-30 20:43:20.875901 : DATE
UWI .                            : UNIQUE WELL ID
API .                            : API NUMBER
~Curve Information -----------------------------------------
Depth              .ft          : 
KICh               .psi*in^1/2  : 
KICvup             .psi*in^1/2  : 
KICvdown           .psi*in^1/2  : 
nuh                .            : 
Eh                 .psi         : 
nuv                .            : 
Ev                 .psi         : 
Gv                 .psi         : 
Cl                 .ft/min^1/2  : 
Sigma_h            .psi         : 
SigmaH             .psi         : 
SigmaV             .psi         : 
Pore Pressure      .psi         : 
Biot               .            : 
Porosity           .            : 
Permeability       .nD          : 
SoPhi              .            : 
TensileStrength    .psi         : 
Grad_SigmaH        .psi/ft      : 
Grad_Sigma_h       .psi/ft      : 
Std_KICh           .psi*in^1/2  : 
Std_KICvup         .psi*in^1/2  : 
Std_KICvdown       .psi*in^1/2  : 
Std_nuh            .            : 
Std_Eh             .psi         : 
Std_nuv            .            : 
Std_Ev             .psi         : 
Std_Gv             .psi         : 
Std_Cl             .ft/min^1/2  : 
Std_Sigma_h        .psi         : 
Std_SigmaH         .psi         : 
Std_SigmaV         .psi         : 
Std_Pore Pressure  .psi         : 
Std_Biot           .            : 
Std_Porosity       .            : 
Std_Permeability   .nD          : 
Std_SoPhi          .            : 
Std_TensileStrength.psi         : 
Std_Depth          .ft          : 
~Params ----------------------------------------------------
~Other -----------------------------------------------------
Exported from homogenization method
~ASCII -----------------------------------------------------
# ...
 6412.9361000000 2723.5983489420 3572.9176160514 3122.5878260449 0.2184980600 6285395.0072477264 0.1988791891 4643141.1230644984 1933930.1695704802 0.0006381793 4071.2669672522 4587.0983184528 6787.0578407237 2693.3282026654 0.9000000000 0.0529150572 1257.9793856179 0.0000000000 1575.2546972847 0.7152883246 0.6348522586 20.2610869013 20.2610869013 20.2610869013 0.0053817828 110439.9863918187 0.0051150798 100518.7260030208 48428.9540450709 0.0000844504 0.1268706516 0.1270898050 0.0000000000 1549.9178584542 0.0000000000 0.0009154041 12.9474582339 0.0000000000 19.5273325597 6412.9361000000
 6427.9283000000 2770.5944431752 3902.6974380557 3370.3163964930 0.2407002901 6958749.0236127889 0.2258920245 5765538.6351285735 2346401.0724558164 0.0003848212 4178.0645450732 4738.9372295527 6803.6745307687 2699.6249249610 0.9000000000 0.0455516934 859.7207915232 0.0000000000 1685.6212097250 0.7372417688 0.6499861775 20.2321863737 20.2321863737 20.2321863737 0.0053814152 110384.6432273286 0.0052450070 106542.0239123057 52173.0164845962 0.0000865766 0.1296625936 0.1298767536 0.0000000000 1585.8627243446 0.0000000000 0.0009152468 12.8843499368 0.0000000000 19.3253583066 6427.9283000000
 6442.9205500000 2775.9904361209 3292.4741872489 3557.0450289080 0.2426923522 6824691.0169424377 0.2286028078 5553226.9284600029 2256225.7194799809 0.0004723624 4238.0988657678 4787.2847527508 6820.4825147126 2705.9216677895 0.9000000000 0.0449491859 836.8800882909 0.0000000000 1687.4115484674 0.7430302323 0.6577915765 20.2345990644 20.2345990644 20.2345990644 0.0053814632 110389.2704825511 0.0052455399 107466.3657576804 52246.8690655907 0.0000867359 0.1298273459 0.1300412577 0.0000000000 1588.2373195694 0.0000000000 0.0009152591 12.8927146094 0.0000000000 19.3419710668 6442.9205500000
 6457.9128000000 2745.5508724788 3241.4642247273 3789.7383597635 0.2330575972 6499987.8061579587 0.2129633423 5003160.9392352896 2056983.1439344506 0.0006669822 4187.1333096673 4714.2772014893 6837.2752680671 2712.2184115740 0.9000000000 0.0475272451 1004.6445377870 0.0000000000 1641.2834920413 0.7300001328 0.6483725376 20.2787354925 20.2787354925 20.2787354925 0.0053819531 110473.8097625358 0.0049663720 92199.9289948310 43828.2171149528 0.0001167727 0.1367435853 0.1369991381 0.0000000000 1602.4851674798 0.0000000000 0.0009155728 12.9905326378 0.0000000000 19.6497091181 6457.9128000000
 6472.9050000000 2732.9557018082 3824.3654882452 3416.5008953248 0.2235660604 6134565.8639031621 0.2069088020 4646618.1991437152 1923706.9465756749 0.0004454508 4141.5817366048 4642.9495059937 6853.8517293186 2718.5151338696 0.9000000000 0.0509317290 1148.1720308606 0.0000000000 1600.1016169961 0.7172899194 0.6398335425 20.2460580682 20.2460580682 20.2460580682 0.0053815226 110411.1848562336 0.0051979559 101756.5575241990 48475.2524221826 0.0000846411 0.1271831184 0.1274015865 0.0000000000 1553.5009345671 0.0000000000 0.0009153873 12.9031549210 0.0000000000 19.4230806136 6472.9050000000
 6487.8972000000 2789.0848988603 3787.8707906413 4078.8639277910 0.2406644393 6478565.6976433974 0.2287311975 5304116.2271926170 2157381.8922447758 0.0006616836 4243.3774350250 4765.5626039185 6870.5456528368 2724.8118561652 0.9000000000 0.0464564433 882.5548226972 0.0000000000 1675.6920370153 0.7345311519 0.6540451096 20.2529551222 20.2529551222 20.2529551222 0.0053816806 110424.3987852815 0.0051332396 100583.9811039842 47823.2820893675 0.0000842183 0.1265662601 0.1267858581 0.0000000000 1545.9400640798 0.0000000000 0.0009153642 12.9225783957 0.0000000000 19.4710514956 6487.8972000000
 6502.8894500000 2719.4139673694 3503.8748604805 3353.0542629608 0.2248250866 6244550.8164969897 0.2089929826 4679856.8666217858 1934067.5888741568 0.0006472753 4199.2710548323 4709.1031022625 6887.2435519422 2731.1085990809 0.9000000000 0.0491198419 1086.3730105605 0.0000000000 1611.0362376416 0.7241554910 0.6457546429 20.2556224820 20.2556224820 20.2556224820 0.0053815455 110429.5258234014 0.0051544964 97541.4396946066 46882.8778647272 0.0000835758 0.1258917945 0.1261125990 0.0000000000 1536.2797123184 0.0000000000 0.0009155693 12.9312928886 0.0000000000 19.4890169384 6502.8894500000
 6517.8817000000 2765.4443810269 3896.7872200546 4677.7562315754 0.2423392835 6631802.7537694601 0.2285535407 5300176.2999667153 2154773.8159199678 0.0006713253 4310.3473196942 4844.1630688695 6903.9985814206 2737.4053427782 0.9000000000 0.0440951613 834.0698161020 0.0000000000 1685.6780905625 0.7432112597 0.6613110698 20.2590715356 20.2590715356 20.2590715356 0.0053817422 110436.1128170627 0.0051063373 99323.6420982385 47149.9089367986 0.0000838283 0.1260593068 0.1262798483 0.0000000000 1539.3922071884 0.0000000000 0.0009153982 12.9374059906 0.0000000000 19.5137410211 6517.8817000000
 6532.8739000000 2728.2983705630 4039.3212707749 3797.4550958386 0.2263817949 6262220.6463764152 0.2131188872 4880996.9095518207 2011305.9217291689 0.0006090289 4192.0824553714 4702.7081571166 6920.6596193257 2743.7020650738 0.9000000000 0.0490337858 1051.3632758821 0.0000000000 1624.0774579845 0.7198528900 0.6416903984 20.2682426372 20.2682426372 20.2682426372 0.0053817522 110453.6940137951 0.0050801173 95973.3484369568 45776.2832934810 0.0000829760 0.1250366780 0.1252591163 0.0000000000 1525.6835590021 0.0000000000 0.0009155655 12.9602916748 0.0000000000 19.5771657509 6532.8739000000
 6547.8661000000 2732.0865110795 3820.2116044706 3746.1473509397 0.2248876155 6171925.6312245047 0.2076955589 4639885.7825913159 1920279.7806465325 0.0008958094 4211.7389372972 4715.6158279515 6937.3132245647 2749.9987873694 0.9000000000 0.0504644715 1134.4033294543 0.0000000000 1602.2433432716 0.7201759712 0.6432231315 20.2537284628 20.2537284628 20.2537284628 0.0053815989 110425.8852916305 0.0051159026 98942.5917748567 46945.3975973839 0.0000836984 0.1259152041 0.1261359461 0.0000000000 1537.3692385528 0.0000000000 0.0009154160 12.9291722905 0.0000000000 19.4762599106 6547.8661000000
 6562.8583000000 2794.1707054134 4346.0524169671 3996.4835979413 0.2429909627 6496001.6353312479 0.2282758209 5254696.2461904446 2137141.8912491482 0.0005906480 4316.0257417297 4838.6362699131 6953.9877988554 2756.2955096650 0.9000000000 0.0461302666 879.4946466544 0.0000000000 1677.0680496614 0.7372757492 0.6576442069 20.2511319875 20.2511319875 20.2511319875 0.0053817558 110420.9140569498 0.0051007467 100472.9883671490 47768.2933408987 0.0000841281 0.1263959380 0.1266158103 0.0000000000 1544.0531987242 0.0000000000 0.0009153100 12.9171073839 0.0000000000 19.4580781421 6562.8583000000
 6577.8505500000 2763.3933056961 3810.0363008584 3980.0007622512 0.2262054956 6110183.6289120251 0.2102746521 4757591.2110218937 1965055.7929219303 0.0010915393 4197.0556250853 4695.3557591838 6970.6347345804 2762.5922526897 0.9000000000 0.0519464067 1153.6340126988 0.0000000000 1604.8411378041 0.7138130797 0.6380588299 20.2677085461 20.2677085461 20.2677085461 0.0053817633 110452.6698029376 0.0050501684 96136.9369052941 45837.6461500467 0.0000829729 0.1249758653 0.1251984057 0.0000000000 1525.2397413218 0.0000000000 0.0009155235 12.9617454458 0.0000000000 19.5734870960 6577.8505500000
 6592.8428000000 2740.8674368365 3195.3823102541 3681.1338159831 0.2213292392 6105655.5467771776 0.2031572677 4578924.1261912324 1902362.7557636921 0.0006398173 4197.9373220207 4697.8562096576 6987.1984555960 2768.8889962781 0.9000000000 0.0529829517 1241.2033335716 0.0000000000 1578.3833382667 0.7125691226 0.6367416074 20.2662595549 20.2662595549 20.2662595549 0.0053819450 110449.8982146132 0.0050171508 97607.6548224739 46390.8914268496 0.0000832774 0.1252594968 0.1254815135 0.0000000000 1529.5728153032 0.0000000000 0.0009153870 12.9550212316 0.0000000000 19.5632485264 6592.8428000000
 6607.8350000000 2749.2397393995 3391.7775957417 3377.1777826188 0.2245168801 6261394.0772619275 0.2046905626 4731074.8819426671 1961294.8567041268 0.0009031285 4219.8038047961 4731.1396776794 7003.7310182249 2775.1857185737 0.9000000000 0.0521838085 1200.9727897911 0.0000000000 1591.0077652556 0.7159893789 0.6386061100 20.2906076254 20.2906076254 20.2906076254 0.0053820202 110496.5727669262 0.0049005284 89751.6703174092 43147.2290139401 0.0001156187 0.1355752039 0.1358330915 0.0000000000 1587.9975068424 0.0000000000 0.0009157138 13.0276551276 0.0000000000 19.7316841132 6607.8350000000
