~Version ---------------------------------------------------
VERS.   2.0 : CWLS log ASCII Standard -VERSION 2.0
WRAP.    NO : One line per depth step
DLM . SPACE : Column Data Section Delimiter
~Well ------------------------------------------------------
STRT.ft                 5533.575 : START DEPTH
STOP.ft        7763.808250000001 : STOP DEPTH
STEP.ft       14.590000000000146 : STEP
NULL.                   -9999.25 : NULL VALUE
COMP.                            : COMPANY
WELL.                     bypass : WELL
FLD .                            : FIELD
LOC .                            : LOCATION
PROV.                            : PROVINCE
CNTY.                            : COUNTY
STAT.                            : STATE
CTRY.                            : COUNTRY
SRVC.                            : SERVICE COMPANY
DATE. 2019-07-30 20:43:20.008820 : DATE
UWI .                            : UNIQUE WELL ID
API .                            : API NUMBER
~Curve Information -----------------------------------------
Depth              .ft          : 
KICh               .psi*in^1/2  : 
KICvup             .psi*in^1/2  : 
KICvdown           .psi*in^1/2  : 
nuh                .            : 
Eh                 .psi         : 
nuv                .            : 
Ev                 .psi         : 
Gv                 .psi         : 
Cl                 .ft/min^1/2  : 
Sigma_h            .psi         : 
SigmaH             .psi         : 
SigmaV             .psi         : 
Pore Pressure      .psi         : 
Biot               .            : 
Porosity           .            : 
Permeability       .nD          : 
SoPhi              .            : 
TensileStrength    .psi         : 
Grad_SigmaH        .psi/ft      : 
Grad_Sigma_h       .psi/ft      : 
Std_KICh           .psi*in^1/2  : 
Std_KICvup         .psi*in^1/2  : 
Std_KICvdown       .psi*in^1/2  : 
Std_nuh            .            : 
Std_Eh             .psi         : 
Std_nuv            .            : 
Std_Ev             .psi         : 
Std_Gv             .psi         : 
Std_Cl             .ft/min^1/2  : 
Std_Sigma_h        .psi         : 
Std_SigmaH         .psi         : 
Std_SigmaV         .psi         : 
Std_Pore Pressure  .psi         : 
Std_Biot           .            : 
Std_Porosity       .            : 
Std_Permeability   .nD          : 
Std_SoPhi          .            : 
Std_TensileStrength.psi         : 
Std_Depth          .ft          : 
~Params ----------------------------------------------------
~Other -----------------------------------------------------
Exported from homogenization method
~ASCII -----------------------------------------------------
# ...
 6139.2632000000 2743.9378479509 3212.9466809932 3243.2274609442 0.2156238181 5807051.3177344650 0.2048795605 4779432.3606298435 1981402.9424368835 0.0005006607 3740.8620998480 4218.5634439203 6382.0919090820 2578.3856234024 0.9000000000 0.0542527608 1215.9724816150 0.0000000000 1601.4823174580 0.6871449075 0.6093340484 20.2792722054 20.2792722054 20.2792722054 0.0053825774 110474.8484169219 0.0050750530 98147.2205160488 47341.6342609117 0.0000816094 0.1303900253 0.1306389411 0.0000000000 1436.5494384263 0.0000000000 0.0009152965 12.9565606013 0.0000000000 19.6530892008 6139.2632000000
 6154.0514000000 2687.1796511947 3040.6337302433 3229.3285134525 0.1926375316 5642967.3397158254 0.1739873510 4179829.4345487198 1779157.4524451706 0.0006103836 3623.7374756339 4096.8877153324 6398.1815237927 2584.5961672820 0.9000000000 0.0633222732 1730.0684196584 0.0000000000 1474.6992386063 0.6657220502 0.5888377006 20.6516478017 20.6516478017 20.6516478017 0.0054752530 112412.7228076620 0.0049789606 92059.7115498709 44321.2601375116 0.0000805384 0.1291555194 0.1294157526 0.0000000000 1421.0617811964 0.0000000000 0.0009310415 13.2093566990 0.0000000000 20.1661551317 6154.0514000000
 6168.8395500000 2699.5766537855 5687.3974913871 3701.3992443582 0.2143717670 6479520.7853529816 0.1948813931 4812086.1924162172 2010827.9236226010 0.0002577959 3841.0076612305 4374.5774428504 6414.2109056125 2590.8081499314 0.9000000000 0.0520210455 1239.7807875590 0.0000000000 1584.6215680399 0.7091410641 0.6226467118 20.2422840874 20.2422840874 20.2422840874 0.0053814549 110403.9527109201 0.0053243158 104162.9516894979 51181.8820451637 0.0000840143 0.1339822179 0.1342240874 0.0000000000 1477.0308223696 0.0000000000 0.0009154415 12.8868482582 0.0000000000 19.3968906625 6168.8395500000
 6183.6277000000 2733.1036706921 3701.4736055076 4481.5689682326 0.2268815491 6225952.7634126935 0.2200697574 5121593.0689274482 2097585.0003160932 0.0005194922 3902.6330560652 4410.0946580428 6430.7235758118 2597.0178983243 0.9000000000 0.0477408817 945.2696763591 0.0000000000 1656.6340912885 0.7131889033 0.6311235484 20.6008373901 20.6008373901 20.6008373901 0.0054738151 112315.2885686430 0.0053388463 104994.7909129024 49711.6930894412 0.0000843945 0.1346357578 0.1348848796 0.0000000000 1484.0461741363 0.0000000000 0.0009309144 13.1479265579 0.0000000000 19.8157640986 6183.6277000000
 6198.4159000000 2730.8824388359 3538.8919851823 3603.0548663085 0.2115343032 5562443.3087771088 0.2036577791 4661250.8832583353 1935854.7401095487 0.0005042777 3731.0752005712 4190.1990812507 6447.0433285641 2603.2303663732 0.9000000000 0.0554497480 1261.0209711178 0.0000000000 1592.5463283518 0.6760112824 0.6019401184 20.2573486971 20.2573486971 20.2573486971 0.0053822272 110432.8111111876 0.0052094626 104734.1416297274 49341.8961560701 0.0000832891 0.1326687433 0.1329131510 0.0000000000 1463.2407464430 0.0000000000 0.0009150979 12.9232474267 0.0000000000 19.5017934069 6198.4159000000
 6213.2041000000 2743.2276836207 3113.3946750038 3321.0014791915 0.2144587111 5573620.2048729416 0.2085031309 4805780.5155344391 1988079.2208416481 0.0004981316 3740.4043459259 4199.3429787579 6463.1969032352 2609.4404458961 0.9000000000 0.0548080765 1205.5009593860 0.0000000000 1608.7228827621 0.6758739792 0.6020089290 20.5997162951 20.5997162951 20.5997162951 0.0054741015 112313.1436782566 0.0053521370 107896.6231033577 50882.7179504166 0.0000852200 0.1356884015 0.1359355723 0.0000000000 1496.7519743213 0.0000000000 0.0009307528 13.1412770637 0.0000000000 19.8078626440 6213.2041000000
 6227.9923000000 2693.1704784425 3944.1612841059 3114.0121805474 0.2131154552 5871504.4397201417 0.2059937534 4611750.4273232473 1912063.2276006863 0.0005444674 3860.1689715194 4344.1710848074 6479.4102061963 2615.6518290258 0.9000000000 0.0512628444 1140.0605642256 0.0000000000 1604.2758857365 0.6975235157 0.6198095286 20.2569764214 20.2569764214 20.2569764214 0.0053816967 110432.1126767295 0.0052264258 100927.9052811435 48220.0213071876 0.0000824214 0.1316658174 0.1319120963 0.0000000000 1450.5875326956 0.0000000000 0.0009153998 12.9392851757 0.0000000000 19.4986800463 6227.9923000000
 6242.7804500000 2762.5425614143 3380.4187221342 4040.9606145619 0.2224319026 5758194.5841855137 0.2131288088 4951484.7662666366 2039564.2979075997 0.0004963941 3812.7822785045 4283.8264791657 6495.7727887200 2621.8629722547 0.9000000000 0.0528060105 1121.4757205016 0.0000000000 1630.0508538795 0.6862048912 0.6107506597 20.2539537008 20.2539537008 20.2539537008 0.0053820396 110426.3040520047 0.0052173528 104691.8876174802 49253.1898279100 0.0000832504 0.1326268555 0.1328713073 0.0000000000 1462.6874433515 0.0000000000 0.0009151347 12.9227260001 0.0000000000 19.4782727860 6242.7804500000
 6257.5686000000 2728.8168113216 3453.7339395889 3831.8040012913 0.2203615810 5824167.3593812659 0.2125669212 4808465.0590976272 1982298.0534441550 0.0005243919 3869.6002481108 4346.8495691306 6512.0213668785 2628.0732504970 0.9000000000 0.0512437361 1088.7705206951 0.0000000000 1624.4263711127 0.6946547209 0.6183871877 20.5915821067 20.5915821067 20.5915821067 0.0054737896 112297.5606987079 0.0053685353 108814.9020979716 51360.0049681422 0.0000855080 0.1360805577 0.1363269349 0.0000000000 1501.3446435375 0.0000000000 0.0009307945 13.1266947834 0.0000000000 19.7512481350 6257.5686000000
 6272.3568000000 2711.0820853900 4163.6766743898 3788.9362068378 0.2169266654 5950567.3308569072 0.2087941262 4751396.4892296279 1964464.0380050912 0.0006106435 3894.6698737269 4383.6531050254 6528.3582413887 2634.2854984379 0.9000000000 0.0507082698 1097.8889865708 0.0000000000 1618.3507534302 0.6988845254 0.6209260726 20.2719202346 20.2719202346 20.2719202346 0.0053816555 110460.7400935807 0.0051967071 94342.1967472479 45342.9544646647 0.0000805992 0.1293454517 0.1295963175 0.0000000000 1422.5758285002 0.0000000000 0.0009156745 12.9744960455 0.0000000000 19.6027374493 6272.3568000000
 6287.1450000000 2722.2429521275 3026.6817761503 3373.2173731695 0.2228830086 6080529.8151815115 0.2142833148 4879720.7400695933 2009191.0886451555 0.0005166448 3951.2653748731 4448.4944452462 6544.7715043138 2640.4952683897 0.9000000000 0.0494429535 1034.5657712820 0.0000000000 1631.3549045269 0.7075539764 0.6284673528 20.5875183777 20.5875183777 20.5875183777 0.0054736941 112289.7773318416 0.0053584871 108972.6826489695 51356.1719423633 0.0000854928 0.1360289680 0.1362753952 0.0000000000 1500.8917209536 0.0000000000 0.0009307841 13.1199037755 0.0000000000 19.7229053754 6287.1450000000
 6301.9332000000 2772.7965329597 4643.6140710240 4281.3667275292 0.2334857773 6094208.3795199599 0.2250468020 5251259.3721996835 2142365.0883441535 0.0004072814 3956.4953713435 4450.5593072068 6561.1709008162 2646.7074907697 0.9000000000 0.0482528273 939.3740903509 0.0000000000 1671.5396992911 0.7062212762 0.6278224865 20.2354491808 20.2354491808 20.2354491808 0.0053815748 110390.8661751607 0.0052945554 107719.4257124896 51187.4946488349 0.0000844047 0.1342661746 0.1345074523 0.0000000000 1481.5649536265 0.0000000000 0.0009151903 12.8826665868 0.0000000000 19.3490571562 6301.9332000000
 6316.7214000000 2730.5754661959 3291.9186376697 3414.6724973606 0.2268555722 6126402.0265179658 0.2201409092 5052977.3097963966 2070346.9628944625 0.0003386430 3980.6206760533 4479.9787231739 6577.6176444314 2652.9178159614 0.9000000000 0.0481890962 960.9151494379 0.0000000000 1650.9312876533 0.7092253148 0.6301719554 20.2643414176 20.2643414176 20.2643414176 0.0053816828 110446.2095011259 0.0051820303 98073.5260724276 46822.8972079545 0.0000815205 0.1304421249 0.1306907962 0.0000000000 1436.2282404472 0.0000000000 0.0009155214 12.9518149529 0.0000000000 19.5503874641 6316.7214000000
 6331.5095500000 2703.2516976971 3202.4639913993 3150.9396431427 0.2201922261 6169630.7393415961 0.2111924826 4833394.6350952936 1995168.5680040347 0.0005329600 3988.2112525414 4493.8390222792 6594.0433485482 2659.1289328582 0.9000000000 0.0492921327 1055.4820470070 0.0000000000 1621.2379659669 0.7097579158 0.6298989555 20.6000512077 20.6000512077 20.6000512077 0.0054736176 112313.7902304915 0.0053210256 103402.9515649184 49096.6727250481 0.0000839344 0.1340286005 0.1342788461 0.0000000000 1476.8314411400 0.0000000000 0.0009310455 13.1487776629 0.0000000000 19.8100205183 6331.5095500000
