~Version ---------------------------------------------------
VERS.   2.0 : CWLS log ASCII Standard -VERSION 2.0
WRAP.    NO : One line per depth step
DLM . SPACE : Column Data Section Delimiter
~Well ------------------------------------------------------
STRT.ft               5337.35725 : START DEPTH
STOP.ft        7806.412649999999 : STOP DEPTH
STEP.ft       15.433500000000095 : STEP
NULL.                   -9999.25 : NULL VALUE
COMP.                            : COMPANY
WELL.                     bypass : WELL
FLD .                            : FIELD
LOC .                            : LOCATION
PROV.                            : PROVINCE
CNTY.                            : COUNTY
STAT.                            : STATE
CTRY.                            : COUNTRY
SRVC.                            : SERVICE COMPANY
DATE. 2019-07-30 20:43:33.131485 : DATE
UWI .                            : UNIQUE WELL ID
API .                            : API NUMBER
~Curve Information -----------------------------------------
Depth              .ft          : 
KICh               .psi*in^1/2  : 
KICvup             .psi*in^1/2  : 
KICvdown           .psi*in^1/2  : 
nuh                .            : 
Eh                 .psi         : 
nuv                .            : 
Ev                 .psi         : 
Gv                 .psi         : 
Cl                 .ft/min^1/2  : 
Sigma_h            .psi         : 
SigmaH             .psi         : 
SigmaV             .psi         : 
Pore Pressure      .psi         : 
Biot               .            : 
Porosity           .            : 
Permeability       .nD          : 
SoPhi              .            : 
TensileStrength    .psi         : 
Grad_SigmaH        .psi/ft      : 
Grad_Sigma_h       .psi/ft      : 
Std_KICh           .psi*in^1/2  : 
Std_KICvup         .psi*in^1/2  : 
Std_KICvdown       .psi*in^1/2  : 
Std_nuh            .            : 
Std_Eh             .psi         : 
Std_nuv            .            : 
Std_Ev             .psi         : 
Std_Gv             .psi         : 
Std_Cl             .ft/min^1/2  : 
Std_Sigma_h        .psi         : 
Std_SigmaH         .psi         : 
Std_SigmaV         .psi         : 
Std_Pore Pressure  .psi         : 
Std_Biot           .            : 
Std_Porosity       .            : 
Std_Permeability   .nD          : 
Std_SoPhi          .            : 
Std_TensileStrength.psi         : 
Std_Depth          .ft          : 
~Params ----------------------------------------------------
~Other -----------------------------------------------------
Exported from homogenization method
~ASCII -----------------------------------------------------
# ...
 6364.5491500000 2642.4725377852 3957.0576320573 3822.6606063880 0.1980382250 6164033.3963280842 0.1839630758 4651404.1083816774 1964133.7470507037 0.0006382804 3817.9607244519 4332.4713024599 6633.4602953018 2673.0059288475 0.9000000000 0.0567837852 1460.8826716108 0.0000000000 1527.9198496079 0.6807192780 0.5998792113 20.2987656506 20.2987656506 20.2987656506 0.0053823323 110512.2314378320 0.0050674783 93187.7113623371 45629.1750810083 0.0000859269 0.1316491502 0.1319222984 0.0000000000 1411.8040238521 0.0000000000 0.0009157014 13.0374248864 0.0000000000 19.7874401857 6364.5491500000
 6379.8375000000 2617.3050083914 4323.9012234142 3782.3048238271 0.2012211720 6433735.6786685698 0.1851284739 4710373.9296338521 1985915.2122171263 0.0005721656 3888.2690563658 4423.8686469110 6650.1937048514 2679.4260567489 0.9000000000 0.0532282271 1349.5923540326 0.0000000000 1548.0679370779 0.6934140010 0.6094620837 19.9576385015 19.9576385015 19.9576385015 0.0052944612 108693.9946034685 0.0050644029 94207.0718166479 46467.9464164009 0.0000856488 0.1310595932 0.1313250005 0.0000000000 1406.1155912420 0.0000000000 0.0009008589 12.8055751370 0.0000000000 19.3892514881 6379.8375000000
 6395.1258500000 2635.2228234036 3463.2978295918 3689.9929677652 0.2021565805 6237638.5294231763 0.1869854081 4540911.9988366980 1911517.8161858381 0.0006664019 3916.9227052234 4435.7934272608 6667.0910120096 2685.8485889209 0.9000000000 0.0538376511 1364.2169162557 0.0000000000 1543.7168167285 0.6936209750 0.6124856331 20.2876059206 20.2876059206 20.2876059206 0.0053821480 110490.8393406979 0.0050361398 93697.4363096584 45294.5037230761 0.0000857438 0.1312945536 0.1315683041 0.0000000000 1408.2842638385 0.0000000000 0.0009156247 13.0134685824 0.0000000000 19.7102139370 6395.1258500000
 6410.4141500000 2767.7745023976 4149.1903866530 3836.8024141278 0.2344288230 6761204.7854720559 0.2101709051 5416576.1184650129 2229854.5555585381 0.0005655844 4050.9377781256 4598.6570681849 6683.9326687447 2692.2684437119 0.9000000000 0.0492939082 1031.0848578047 0.0000000000 1648.1936202562 0.7173728500 0.6319307432 19.8669379291 19.8669379291 19.8669379291 0.0052938598 108520.2705596283 0.0052683783 116080.2012950488 58057.0392142419 0.0000623906 0.1342764054 0.1344561145 0.0000000000 1603.3282162637 0.0000000000 0.0008998055 12.6164940332 0.0000000000 18.7566425135 6410.4141500000
 6425.7025000000 2889.9534147655 4089.0844484690 4063.6107382569 0.2787267032 8090511.8119405974 0.2754597638 7832235.1787351454 3068024.2800212321 0.0005893800 4358.7889583609 4991.4895808934 6701.0951717516 2698.6904263363 0.9000000000 0.0362636349 436.8570854551 0.0000000000 1838.6895946687 0.7768006037 0.6783365645 20.1781229355 20.1781229355 20.1781229355 0.0053812923 110281.1950301336 0.0053603156 118506.1092152653 59332.3310918292 0.0000634369 0.1365048494 0.1366873673 0.0000000000 1630.0147203478 0.0000000000 0.0009145218 12.8034109476 0.0000000000 18.9446454547 6425.7025000000
 6440.9908500000 2929.6192985004 3872.2356015421 4412.9063570688 0.2833805503 8057855.3913980229 0.2804160449 7871512.2466421435 3071564.3102983907 0.0006158468 4398.8506704287 5026.7124055440 6718.4622626435 2705.1111037852 0.9000000000 0.0367179972 434.5266062412 0.0000000000 1843.8086110335 0.7804253294 0.6829462691 19.8413597940 19.8413597940 19.8413597940 0.0052937734 108471.3704473892 0.0052939208 108471.3704473914 58061.8422776632 0.0000619450 0.1336948135 0.1338750789 0.0000000000 1594.5635873728 0.0000000000 0.0008995064 12.5904352680 0.0000000000 18.5749669759 6440.9908500000
 6456.2791500000 2902.8959701800 3503.4860416637 3816.6691183403 0.2803039273 8139388.0906946464 0.2797454356 8086407.6773286667 3159057.8841078598 0.0007008853 4368.5452725620 5004.2840153078 6735.8179425147 2711.5320121269 0.9000000000 0.0362440950 413.1616550429 0.0000000000 1848.5316981247 0.7751034147 0.6766351285 19.8694976794 19.8694976794 19.8694976794 0.0052938236 108525.1682451671 0.0052557088 112556.4778868264 56521.2986528599 0.0000619653 0.1335478788 0.1337285906 0.0000000000 1593.8014713991 0.0000000000 0.0008998976 12.6170492270 0.0000000000 18.7746780055 6456.2791500000
 6471.5675000000 2831.3005264607 4895.0395193379 3915.3263012606 0.2600979311 7585268.8718539802 0.2552673575 6747656.9641886102 2686931.2714850302 0.0006400440 4328.1437567991 4930.1024367265 6753.0997108855 2717.9537423798 0.9000000000 0.0403810389 603.4799041026 0.0000000000 1761.7396826025 0.7618096291 0.6687937284 20.2137052667 20.2137052667 20.2137052667 0.0053813292 110349.2480823393 0.0053165755 113793.8298224432 55460.5969598478 0.0000626844 0.1351446807 0.1353293494 0.0000000000 1612.7237403707 0.0000000000 0.0009150537 12.8413024910 0.0000000000 19.1963822490 6471.5675000000
 6486.8558500000 2774.3604439101 3272.0822829032 4107.7169320538 0.2412779933 7153705.2583116041 0.2279802487 5798738.7291459600 2359185.9673146890 0.0005878307 4235.9589342770 4812.2766726835 6770.3255377318 2724.3736186496 0.9000000000 0.0455093355 860.4316705745 0.0000000000 1679.3022605514 0.7418504101 0.6530064845 20.2514036229 20.2514036229 20.2514036229 0.0053815870 110421.4322242204 0.0051484472 102250.6849061555 49474.6875712254 0.0000888000 0.1352169992 0.1354824013 0.0000000000 1453.3533829431 0.0000000000 0.0009153949 12.9221862773 0.0000000000 19.4600533755 6486.8558500000
 6501.5431500000 2808.6033238564 4141.1664389566 3882.2344050046 0.2537652551 7209158.0121986177 0.2438059652 6219995.8174187820 2499281.3559626755 0.0002360424 4292.4335846052 4867.4342063713 6786.7222665045 2730.5436552537 0.9000000000 0.0422194907 703.4745908621 0.0000000000 1732.9139625602 0.7486582945 0.6602176569 20.8993563820 20.8993563820 20.8993563820 0.0055701567 114176.7695645995 0.0055674049 122402.7621707589 60291.0885420607 0.0000655214 0.1410441235 0.1412334996 0.0000000000 1683.9778202783 0.0000000000 0.0009468544 13.2634798333 0.0000000000 19.7017873672 6501.5431500000
 6515.6294000000 2866.0964980945 3589.7446729879 3922.4798989371 0.2740498887 7765067.0364166638 0.2693998549 7220004.3630542541 2842604.4882742665 0.0001329777 4424.9806999934 5034.4597404431 6802.6991402430 2736.4596579631 0.9000000000 0.0368079752 480.0194544945 0.0000000000 1812.8294801276 0.7726743544 0.6791332699 20.9424465422 20.9424465422 20.9424465422 0.0055704206 114259.2481180797 0.0054145206 112844.9479088238 55171.6514958330 0.0000643531 0.1389309944 0.1391236272 0.0000000000 1657.2194769932 0.0000000000 0.0009473209 13.3371706951 0.0000000000 20.0042588143 6515.6294000000
 6529.7156000000 2717.5106898459 3904.6844583112 4391.2199674863 0.2240819601 6762141.3206689274 0.2064215403 5212428.1059533842 2159959.1522377753 0.0002715517 4129.0893545386 4681.5148898504 6818.4986895675 2742.3756404140 0.9000000000 0.0503971874 1135.7201866374 0.0000000000 1607.2087929988 0.7169554046 0.6323536288 20.9785981969 20.9785981969 20.9785981969 0.0055711789 114328.4850529696 0.0052403163 105556.6523152122 51012.2349783634 0.0000917125 0.1395391640 0.1398148916 0.0000000000 1500.3145379978 0.0000000000 0.0009473994 13.4000789599 0.0000000000 20.2566158384 6529.7156000000
 6543.8018500000 2789.7601137330 4927.1912598776 4301.4949410377 0.2300920470 6697181.6348129129 0.2128426176 5523193.2158579808 2276071.3771852199 0.0002624127 4097.9154934489 4642.3610616558 6834.0095714444 2748.2916435828 0.9000000000 0.0524211922 1145.9095485405 0.0000000000 1625.2280016030 0.7094287339 0.6262285423 20.9579091556 20.9579091556 20.9579091556 0.0055707132 114288.8671728904 0.0053622603 111601.5381981747 54023.6870542260 0.0000941002 0.1427075354 0.1429769208 0.0000000000 1536.2311635263 0.0000000000 0.0009473086 13.3744388932 0.0000000000 20.1120170285 6543.8018500000
 6557.8881000000 2834.1512755402 5455.4681385745 4742.5512872305 0.2517395135 7203697.4006483750 0.2354140417 6361332.4256373774 2572325.5532337716 0.0001624343 4229.7009165252 4805.1958436307 6849.5756507322 2754.2076470588 0.9000000000 0.0458766703 832.6548421295 0.0000000000 1717.3568397290 0.7327352602 0.6449791232 20.9182207027 20.9182207027 20.9182207027 0.0055704012 114212.9188320430 0.0054563923 112795.6056123334 56806.2038672804 0.0000645408 0.1393453733 0.1395372176 0.0000000000 1662.0175468493 0.0000000000 0.0009469209 13.3151211074 0.0000000000 19.8327330781 6557.8881000000
