~Version ---------------------------------------------------
VERS.   2.0 : CWLS log ASCII Standard -VERSION 2.0
WRAP.    NO : One line per depth step
DLM . SPACE : Column Data Section Delimiter
~Well ------------------------------------------------------
STRT.ft               6011.19455 : START DEPTH
STOP.ft                8162.3221 : STOP DEPTH
STEP.ft       14.389100000000326 : STEP
NULL.                   -9999.25 : NULL VALUE
COMP.                            : COMPANY
WELL.                     bypass : WELL
FLD .                            : FIELD
LOC .                            : LOCATION
PROV.                            : PROVINCE
CNTY.                            : COUNTY
STAT.                            : STATE
CTRY.                            : COUNTRY
SRVC.                            : SERVICE COMPANY
DATE. 2019-07-30 20:43:20.875901 : DATE
UWI .                            : UNIQUE WELL ID
API .                            : API NUMBER
~Curve Information -----------------------------------------
Depth              .ft          : 
KICh               .psi*in^1/2  : 
KICvup             .psi*in^1/2  : 
KICvdown           .psi*in^1/2  : 
nuh                .            : 
Eh                 .psi         : 
nuv                .            : 
Ev                 .psi         : 
Gv                 .psi         : 
Cl                 .ft/min^1/2  : 
Sigma_h            .psi         : 
SigmaH             .psi         : 
SigmaV             .psi         : 
Pore Pressure      .psi         : 
Biot               .            : 
Porosity           .            : 
Permeability       .nD          : 
SoPhi              .            : 
TensileStrength    .psi         : 
Grad_SigmaH        .psi/ft      : 
Grad_Sigma_h       .psi/ft      : 
Std_KICh           .psi*in^1/2  : 
Std_KICvup         .psi*in^1/2  : 
Std_KICvdown       .psi*in^1/2  : 
Std_nuh            .            : 
Std_Eh             .psi         : 
Std_nuv            .            : 
Std_Ev             .psi         : 
Std_Gv             .psi         : 
Std_Cl             .ft/min^1/2  : 
Std_Sigma_h        .psi         : 
Std_SigmaH         .psi         : 
Std_SigmaV         .psi         : 
Std_Pore Pressure  .psi         : 
Std_Biot           .            : 
Std_Porosity       .            : 
Std_Permeability   .nD          : 
Std_SoPhi          .            : 
Std_TensileStrength.psi         : 
Std_Depth          .ft          : 
~Params ----------------------------------------------------
~Other -----------------------------------------------------
Exported from homogenization method
~ASCII -----------------------------------------------------
 6011.1945500000 2781.7332207300 3075.4178492763 3057.4059364754 0.2185890448 5664025.9847639250 0.2070048533 4705878.7885999111 1948897.6470784666 0.0005166376 3700.4250563099 4165.2270343813 6343.8005372152 2524.5973407649 0.9000000000 0.0561994802 1272.5409869822 0.0000000000 1594.3674114269 0.6929117000 0.6155889691 20.5946690081 20.5946690081 20.5946690081 0.0054742427 112303.4739149806 0.0052507846 108120.6956222978 50790.5130801062 0.0001271922 0.1473633580 0.1476083529 0.0000000000 1734.2479886749 0.0000000000 0.0009305894 13.1264702199 0.0000000000 19.7727501218 6011.1945500000
 6025.5836500000 2772.6220535077 3610.5532383299 3397.3010766104 0.2140966173 5657059.5881764321 0.2001250554 4557823.2795062261 1898441.9312321413 0.0005540389 3694.6557228242 4160.6037789995 6359.4892695043 2530.6404037779 0.9000000000 0.0578810411 1378.4490200286 0.0000000000 1568.6821780291 0.6904897551 0.6131614691 20.9841965826 20.9841965826 20.9841965826 0.0055711307 114339.1949120366 0.0052075500 98826.8353897406 46946.5578204217 0.0001229391 0.1436291081 0.1438897157 0.0000000000 1684.7182662108 0.0000000000 0.0009474509 13.4173253598 0.0000000000 20.2961042309 6025.5836500000
 6039.9727500000 2762.3891491329 3550.3427904814 3561.7704756174 0.2231748439 6026079.9757053209 0.2108128358 4789071.4391214773 1977327.8562379519 0.0003519716 3821.9568853847 4314.6158053885 6375.2137323004 2536.6834667908 0.9000000000 0.0525849374 1150.6941627968 0.0000000000 1610.3415733097 0.7143435880 0.6327771736 20.5919380717 20.5919380717 20.5919380717 0.0054738938 112298.2427295958 0.0052683237 106318.2791566402 50167.1367986826 0.0000867136 0.1300241082 0.1302451602 0.0000000000 1589.5443972141 0.0000000000 0.0009307359 13.1273975090 0.0000000000 19.7537223707 6039.9727500000
 6054.3618500000 2796.8856275198 3316.8619229978 3605.0604919159 0.2255026107 5874996.2836481472 0.2164181087 5019678.3021849729 2063222.1458491322 0.0005306258 3769.7678641756 4249.1627044913 6391.0435394102 2542.7265298038 0.9000000000 0.0537542532 1138.5979931036 0.0000000000 1626.5871575518 0.7018349431 0.6226532139 20.5886266073 20.5886266073 20.5886266073 0.0054738253 112291.8980472570 0.0052859673 107536.0058241700 50700.7828761345 0.0000870649 0.1304646183 0.1306848932 0.0000000000 1595.3332126971 0.0000000000 0.0009307130 13.1215517059 0.0000000000 19.7307019685 6054.3618500000
 6068.7509500000 2800.3441289732 3884.2905299074 4068.8469293386 0.2343779227 6204607.5131626092 0.2239557538 5217137.6632157173 2129834.2730079158 0.0007558165 3878.6232933863 4381.2738511308 6406.8781380187 2548.7703882105 0.9000000000 0.0497362353 983.1595186255 0.0000000000 1658.8657643458 0.7219399654 0.6391139339 20.5825753243 20.5825753243 20.5825753243 0.0054737814 112280.3197107275 0.0052997025 109350.2893467250 51971.0876810014 0.0000877415 0.1313162248 0.1315350133 0.0000000000 1606.5320930293 0.0000000000 0.0009306832 13.1079020912 0.0000000000 19.6880759857 6068.7509500000
 6083.1400000000 2802.4541737365 4288.0649669127 3751.2867915951 0.2344326425 6238078.0039060479 0.2237540669 5307001.1709857797 2167146.8586418396 0.0003300094 3870.7138159095 4376.0534990095 6422.8020528915 2554.8142535965 0.9000000000 0.0501849911 996.1337662460 0.0000000000 1658.6572088398 0.7193741224 0.6363019454 20.5895513045 20.5895513045 20.5895513045 0.0054739082 112293.6770234079 0.0052795766 107824.9346123886 50920.5479097963 0.0000871747 0.1305901068 0.1308101775 0.0000000000 1597.0661692962 0.0000000000 0.0009307014 13.1214574219 0.0000000000 19.7368724132 6083.1400000000
 6097.5290500000 2796.3301838392 3160.8524138213 3809.4624261240 0.2211016567 5814655.1671976773 0.2103825839 4994654.1154758567 2062618.0397991440 0.0004421901 3739.7957143506 4215.9768034055 6438.6363536489 2560.8572950358 0.9000000000 0.0560749918 1244.7319182870 0.0000000000 1607.5821199459 0.6914238159 0.6133297084 20.9738716677 20.9738716677 20.9738716677 0.0055710657 114319.4160663701 0.0053305946 104365.9754170622 49686.4451911705 0.0001265517 0.1473232159 0.1475771872 0.0000000000 1730.4925782514 0.0000000000 0.0009473505 13.3956761236 0.0000000000 20.2242052030 6097.5290500000
 6111.9181500000 2703.6950637170 3314.5191460346 4036.9622197752 0.2064900720 5736432.7041757675 0.1906030527 4223031.7295407308 1773302.9106454563 0.0005772094 3786.0758944430 4261.5404537861 6454.3615214234 2566.9003580488 0.9000000000 0.0565015942 1415.6140010078 0.0000000000 1540.4700338659 0.6972509038 0.6194578856 20.6252655037 20.6252655037 20.6252655037 0.0054744824 112362.1201022019 0.0050953476 97130.3683305996 46107.2243724199 0.0001207715 0.1410523019 0.1413085813 0.0000000000 1654.7099776626 0.0000000000 0.0009309521 13.1881323817 0.0000000000 19.9846243163 6111.9181500000
 6126.3072500000 2764.3240115671 3196.4632786164 3107.9727831080 0.2198962394 5850835.5788221285 0.2075056462 4757462.5843633600 1969415.1851233765 0.0003478038 3809.8904081939 4289.5078862980 6470.0724797291 2572.9434210618 0.9000000000 0.0545316690 1223.7846564381 0.0000000000 1598.2841781123 0.7001783801 0.6218901947 20.5979380188 20.5979380188 20.5979380188 0.0054743084 112309.7341082046 0.0052286319 106882.7127658433 50215.7454323840 0.0001264048 0.1465722361 0.1468185852 0.0000000000 1724.3681310401 0.0000000000 0.0009306308 13.1272384420 0.0000000000 19.7955852547 6126.3072500000
 6140.6963500000 2812.2522896674 4182.3778678462 3839.5523286172 0.2230337864 5692161.5988115910 0.2104920911 4896910.5749191539 2021961.0607027363 0.0002629646 3766.2349192444 4231.6481941953 6485.7802818215 2578.9880763217 0.9000000000 0.0564486174 1258.4085658417 0.0000000000 1607.4580784474 0.6891153630 0.6133237510 20.5866303152 20.5866303152 20.5866303152 0.0054741673 112288.0780654606 0.0052885377 111213.1886991067 52254.9510557393 0.0000880799 0.1316509735 0.1318692366 0.0000000000 1611.4697791282 0.0000000000 0.0009305251 13.1095221450 0.0000000000 19.7166523137 6140.6963500000
 6155.0854500000 2795.2447822575 3747.4937767124 3471.7415958912 0.2204822655 5735056.4776919717 0.2099760534 4903639.2336676409 2026034.8083260912 0.0003358164 3774.7477411766 4244.6485860786 6501.4687027674 2585.0311656045 0.9000000000 0.0561220541 1250.2881396421 0.0000000000 1604.8825803807 0.6896165164 0.6132730036 20.9619644931 20.9619644931 20.9619644931 0.0055709300 114296.5941467535 0.0053213877 108095.5752133017 51036.5621260251 0.0000882035 0.1322085682 0.1324337845 0.0000000000 1616.5345534098 0.0000000000 0.0009472042 13.3726071255 0.0000000000 20.1417078728 6155.0854500000
 6169.4745500000 2778.9621601041 3936.1734645092 3571.0204040709 0.2216799345 5826270.5093227727 0.2051677050 4652381.2870778553 1928678.7859235827 0.0003608382 3849.4319349538 4326.3383934246 6517.2120845931 2591.0742286175 0.9000000000 0.0552798185 1268.6412708320 0.0000000000 1589.0478542842 0.7012490867 0.6239481019 20.5883997380 20.5883997380 20.5883997380 0.0054738896 112291.4996552403 0.0052484596 107063.0036986302 51038.2841574670 0.0000870784 0.1304571973 0.1306774807 0.0000000000 1595.4224677074 0.0000000000 0.0009307127 13.1255820825 0.0000000000 19.7278401292 6169.4745500000
 6183.8636500000 2823.9774788570 3984.8814788379 4171.0979192415 0.2403338004 6283835.9702147124 0.2269782494 5453997.7011603098 2218927.2012342629 0.0003214784 3942.0124091664 4448.6369942568 6533.0996758298 2597.1172916305 0.9000000000 0.0492691774 947.3939326094 0.0000000000 1676.6286358952 0.7193944184 0.6374675498 20.5800575748 20.5800575748 20.5800575748 0.0054737761 112275.4996294692 0.0052815333 110544.3674903828 52043.3914063945 0.0000878833 0.1314076236 0.1316262347 0.0000000000 1608.2481933348 0.0000000000 0.0009306163 13.1067976250 0.0000000000 19.6704394723 6183.8636500000
 6198.2527500000 2824.7847292330 3465.2815013975 3380.1036951499 0.2380387418 6198273.8521598047 0.2250161804 5237561.8248571521 2136292.5600242889 0.0003406775 3969.2267627442 4469.8794194583 6548.9700335248 2603.1611237673 0.9000000000 0.0504916340 999.9087001553 0.0000000000 1657.3354061203 0.7211515244 0.6403783329 20.5865235247 20.5865235247 20.5865235247 0.0054737415 112287.8817786566 0.0052300382 106650.6276491446 50469.2928735475 0.0000867841 0.1300411133 0.1302620853 0.0000000000 1590.2157836526 0.0000000000 0.0009307525 13.1180296119 0.0000000000 19.7156141774 6198.2527500000
