~Version ---------------------------------------------------
VERS.   2.0 : CWLS log ASCII Standard -VERSION 2.0
WRAP.    NO : One line per depth step
DLM . SPACE : Column Data Section Delimiter
~Well ------------------------------------------------------
STRT.ft               6039.97275 : START DEPTH
STOP.ft               8231.95595 : STOP DEPTH
STEP.ft       14.389100000000326 : STEP
NULL.                   -9999.25 : NULL VALUE
COMP.                            : COMPANY
WELL.                     bypass : WELL
FLD .                            : FIELD
LOC .                            : LOCATION
PROV.                            : PROVINCE
CNTY.                            : COUNTY
STAT.                            : STATE
CTRY.                            : COUNTRY
SRVC.                            : SERVICE COMPANY
DATE. 2019-07-30 20:43:31.491401 : DATE
UWI .                            : UNIQUE WELL ID
API .                            : API NUMBER
~Curve Information -----------------------------------------
Depth              .ft          : 
KICh               .psi*in^1/2  : 
KICvup             .psi*in^1/2  : 
KICvdown           .psi*in^1/2  : 
nuh                .            : 
Eh                 .psi         : 
nuv                .            : 
Ev                 .psi         : 
Gv                 .psi         : 
Cl                 .ft/min^1/2  : 
Sigma_h            .psi         : 
SigmaH             .psi         : 
SigmaV             .psi         : 
Pore Pressure      .psi         : 
Biot               .            : 
Porosity           .            : 
Permeability       .nD          : 
SoPhi              .            : 
TensileStrength    .psi         : 
Grad_SigmaH        .psi/ft      : 
Grad_Sigma_h       .psi/ft      : 
Std_KICh           .psi*in^1/2  : 
Std_KICvup         .psi*in^1/2  : 
Std_KICvdown       .psi*in^1/2  : 
Std_nuh            .            : 
Std_Eh             .psi         : 
Std_nuv            .            : 
Std_Ev             .psi         : 
Std_Gv             .psi         : 
Std_Cl             .ft/min^1/2  : 
Std_Sigma_h        .psi         : 
Std_SigmaH         .psi         : 
Std_SigmaV         .psi         : 
Std_Pore Pressure  .psi         : 
Std_Biot           .            : 
Std_Porosity       .            : 
Std_Permeability   .nD          : 
Std_SoPhi          .            : 
Std_TensileStrength.psi         : 
Std_Depth          .ft          : 
~Params ----------------------------------------------------
~Other -----------------------------------------------------
Exported from homogenization method
~ASCII -----------------------------------------------------
# ...
 7321.0397500000 2703.0818493965 3883.8272584179 4893.2405077915 0.2734115239 8143224.2319560647 0.2573639763 6968253.9389701914 2754979.4871257604 0.0001933569 5532.1659439486 6171.6469034676 7652.7383359130 4026.5374553363 0.9000000000 0.0200639531 229.4295847757 0.0000000000 1497.0531329113 0.8430014198 0.7556530401 2.4958789240 2.4958789240 2.4958789240 0.0002433794 7488.4262776775 0.0002418404 7149.5950810336 2812.7876497541 0.0000021164 0.0061657558 0.0061854737 0.0000000000 76.1256665547 0.0000000000 0.0000192743 0.2299832571 0.0000000000 1.4795997008 7321.0397500000
 7336.2507000000 2745.4620592566 4618.3255889578 3800.4583552345 0.2581218652 7856154.2802816704 0.2514547839 7269370.4848335823 2900270.3847408602 0.0001867610 5328.0978345448 5952.5329149253 7670.1575154233 4034.9035078233 0.9000000000 0.0255698648 300.0775230438 0.0000000000 1610.6388485307 0.8113862460 0.7262698690 2.3988798215 2.3988798215 2.3988798215 0.0002358069 6955.7648659278 0.0002293130 5946.4862392187 2362.0688291850 0.0000020109 0.0059089136 0.0059263905 0.0000000000 72.8108237584 0.0000000000 0.0000215671 0.2663123319 0.0000000000 1.2829615101 7336.2507000000
 7351.4616500000 2551.6556105117 5023.7383847092 7164.9134255907 0.2604583553 7070627.4227703251 0.2164939930 4695648.2663549082 1917613.3396697477 0.0004457036 5621.0847571787 6182.0416022273 7687.6203776106 4043.2695666430 0.9000000000 0.0258956054 390.7532258012 0.0000000000 1203.9095882114 0.8409268655 0.7646213807 2.2751946520 2.2751946520 2.2751946520 0.0002180117 6031.2368326451 0.0001982007 4212.1139567752 1710.7360345263 0.0000042322 0.0060061425 0.0060232416 0.0000000000 78.9400278229 0.0000000000 0.0000278188 0.4673356478 0.0000000000 1.0862529327 7351.4616500000
 7366.6726000000 2600.6147071781 5076.3045253656 6039.3037047126 0.2450896970 6930527.1891740877 0.2157418892 4893080.0902743284 2004044.0240987919 0.0004358577 5469.9359754170 6026.5647232139 7704.9535273573 4051.6355339886 0.9000000000 0.0306940631 460.4241508606 0.0000000000 1317.2344439140 0.8180850501 0.7425246475 2.3569615437 2.3569615437 2.3569615437 0.0002168824 6292.1189985095 0.0002047570 4811.1095956357 1952.7546149624 0.0000046103 0.0064803586 0.0064978375 0.0000000000 85.5195645073 0.0000000000 0.0000287075 0.4154180516 0.0000000000 1.2441170898 7366.6726000000
 7381.8835500000 2558.2758449769 5135.0195670019 4782.3705297694 0.2308025390 6425475.3163639251 0.1976301458 4304031.6183710340 1789038.4617459844 0.0004467435 5371.0464193818 5893.1021604747 7722.1868102529 4060.0015509437 0.9000000000 0.0370354940 640.8057210284 0.0000000000 1312.3374472418 0.7983195780 0.7275983674 2.3909873653 2.3909873653 2.3909873653 0.0002319401 6913.8322720060 0.0002210851 5772.4950232232 2277.5116272730 0.0000023289 0.0068422063 0.0068571843 0.0000000000 84.6785864248 0.0000000000 0.0000245976 0.4268424098 0.0000000000 1.3479153050 7381.8835500000
 7397.0945000000 2664.1139104692 4667.2018471710 6172.7502098350 0.2719539676 7779689.3250392014 0.2219126799 5646988.1429001372 2277994.4905277789 0.0002121962 5602.3543799677 6213.9873103640 7739.5500358765 4068.3676451252 0.9000000000 0.0242647662 343.1122440101 0.0000000000 1445.7052839573 0.8400578511 0.7573722872 2.2894041274 2.2894041274 2.2894041274 0.0002042750 5652.3576954563 0.0001794945 3826.2077768697 1595.0973045478 0.0000042658 0.0060521250 0.0060670329 0.0000000000 79.6774438097 0.0000000000 0.0000333602 0.5088430072 0.0000000000 1.1115720727 7397.0945000000
 7412.3545500000 2674.9503857620 4085.1226541746 3553.5280792430 0.2494059105 7173113.7223650329 0.2048664499 5292001.1328007970 2170584.0809086887 0.0001506192 5372.1460509780 5946.2680126149 7756.8631513907 4076.7605790837 0.9000000000 0.0303849271 441.0042859481 0.0000000000 1469.8225935604 0.8022104140 0.7247556785 2.5205931113 2.5205931113 2.5205931113 0.0002465902 7665.7790108957 0.0002453454 7588.3131779347 2979.9349031352 0.0000021239 0.0061651816 0.0061859195 0.0000000000 76.1561741585 0.0000000000 0.0000176316 0.1934558414 0.0000000000 1.5406809080 7412.3545500000
 7427.6636500000 2812.2468833737 3920.0642155152 3630.1964629637 0.2765045893 8605795.0842618886 0.2749070398 8581090.4520999119 3365575.3055388569 0.0002813757 5495.8069417117 6169.9756957110 7774.3819270148 4085.1806831394 0.9000000000 0.0188789320 203.8807273722 0.0000000000 1727.8070551306 0.8306751606 0.7399105830 2.5402365862 2.5402365862 2.5402365862 0.0002451378 7651.3810728324 0.0002451279 7632.1653505186 3001.6384052925 0.0000021604 0.0062670040 0.0062873578 0.0000000000 77.4650723219 0.0000000000 0.0000186728 0.2033889107 0.0000000000 1.5590453757 7427.6636500000
 7442.9727500000 2797.0428299191 4099.1568708827 4000.0316322008 0.2743328251 8495543.2758547328 0.2727597455 8449192.8857359588 3319241.5416331948 0.0002646446 5488.7255110496 6155.3914799998 7791.9700260809 4093.6005729844 0.9000000000 0.0195611687 214.1353367814 0.0000000000 1693.4462567493 0.8270071229 0.7374372708 2.5226751105 2.5226751105 2.5226751105 0.0002427300 7554.6461301277 0.0002424820 7546.2662031401 2972.0686811364 0.0000021541 0.0062493097 0.0062691895 0.0000000000 77.2630357361 0.0000000000 0.0000190345 0.2110443972 0.0000000000 1.5385435314 7442.9727500000
 7458.2818500000 2817.1668215169 4154.8515705295 3655.0386826419 0.2643702997 8283130.4816512428 0.2628369479 8254774.2822719999 3268558.8068945054 0.0001206726 5403.5429632708 6058.6619963335 7809.5017918300 4102.0207075775 0.9000000000 0.0233003322 259.8726452785 0.0000000000 1755.3619482432 0.8123401768 0.7245023816 2.5541732508 2.5541732508 2.5541732508 0.0002465294 7755.8890966682 0.0002465294 7755.9424979166 3046.4068364456 0.0000021850 0.0063335700 0.0063543193 0.0000000000 78.3047282908 0.0000000000 0.0000183249 0.2020668953 0.0000000000 1.6012746316 7458.2818500000
 7473.5909500000 2815.2557463961 3574.9045399357 3824.0273324691 0.2795171819 8725177.3452982903 0.2781314327 8703479.9982479494 3404927.9118472929 0.0002681109 5561.3354416817 6243.2471399832 7827.0503605689 4110.4405870936 0.9000000000 0.0178374170 193.2220879403 0.0000000000 1743.7761914417 0.8353744782 0.7441316335 2.5318182165 2.5318182165 2.5318182165 0.0002515941 7887.1092300157 0.0002515941 7887.1092300159 3082.7521748955 0.0000021309 0.0061785128 0.0062004791 0.0000000000 76.2985972988 0.0000000000 0.0000159873 0.1690595415 0.0000000000 1.5805455654 7473.5909500000
 7488.9000000000 2814.6795133641 3332.0836184050 3918.6097901330 0.2788551716 8757862.5042777043 0.2784461421 8751835.9363394193 3422949.1333926646 0.0002845740 5570.5122835012 6255.3327932065 7844.6644981226 4118.8606842789 0.9000000000 0.0179361652 188.8203473872 0.0000000000 1768.6603362401 0.8352805877 0.7438358482 2.5468907261 2.5468907261 2.5468907261 0.0002534809 7945.6710180380 0.0002534809 7945.7519659003 3103.3273336156 0.0000021372 0.0061969472 0.0062191737 0.0000000000 76.5170090258 0.0000000000 0.0000157472 0.1670915952 0.0000000000 1.5875966692 7488.9000000000
 7504.2090500000 2804.1485997589 3360.9358222300 3416.1304180628 0.2805125574 8726377.2416449059 0.2798731736 8716865.5326461252 3405559.7169930036 0.0001138822 5595.4257245499 6276.9010596677 7862.2887324698 4127.2805567440 0.9000000000 0.0172031444 183.1118103703 0.0000000000 1714.9079173367 0.8364507196 0.7456383061 2.5016062506 2.5016062506 2.5016062506 0.0002492581 7677.2493904996 0.0002492039 7529.1893426469 2948.6540339926 0.0000020623 0.0059975626 0.0060188727 0.0000000000 73.9789191857 0.0000000000 0.0000164641 0.1742238352 0.0000000000 1.4821156794 7504.2090500000
 7519.5181500000 2761.5436943022 4781.3235850542 4711.7204709873 0.2792142496 8537510.6075073387 0.2766923325 8307864.3734488934 3252829.1823365679 0.0001178361 5620.8834102562 6288.2861233019 7879.9187266399 4135.7006504710 0.9000000000 0.0177153015 195.4090742442 0.0000000000 1629.3885442515 0.8362618452 0.7475057973 2.4617935096 2.4617935096 2.4617935096 0.0002454321 7486.7849957896 0.0002444308 7114.0688523274 2795.1107170930 0.0000020608 0.0060108812 0.0060310344 0.0000000000 74.1295930575 0.0000000000 0.0000182469 0.2095245880 0.0000000000 1.4411423136 7519.5181500000
