~Version ---------------------------------------------------
VERS.   2.0 : CWLS log ASCII Standard -VERSION 2.0
WRAP.    NO : One line per depth step
DLM . SPACE : Column Data Section Delimiter
~Well ------------------------------------------------------
STRT.ft       6025.5836500000005 : START DEPTH
STOP.ft               8231.95595 : STOP DEPTH
STEP.ft       14.389099999999416 : STEP
NULL.                   -9999.25 : NULL VALUE
COMP.                            : COMPANY
WELL.                     bypass : WELL
FLD .                            : FIELD
LOC .                            : LOCATION
PROV.                            : PROVINCE
CNTY.                            : COUNTY
STAT.                            : STATE
CTRY.                            : COUNTRY
SRVC.                            : SERVICE COMPANY
DATE. 2019-07-30 20:43:31.832888 : DATE
UWI .                            : UNIQUE WELL ID
API .                            : API NUMBER
~Curve Information -----------------------------------------
Depth              .ft          : 
KICh               .psi*in^1/2  : 
KICvup             .psi*in^1/2  : 
KICvdown           .psi*in^1/2  : 
nuh                .            : 
Eh                 .psi         : 
nuv                .            : 
Ev                 .psi         : 
Gv                 .psi         : 
Cl                 .ft/min^1/2  : 
Sigma_h            .psi         : 
SigmaH             .psi         : 
SigmaV             .psi         : 
Pore Pressure      .psi         : 
Biot               .            : 
Porosity           .            : 
Permeability       .nD          : 
SoPhi              .            : 
TensileStrength    .psi         : 
Grad_SigmaH        .psi/ft      : 
Grad_Sigma_h       .psi/ft      : 
Std_KICh           .psi*in^1/2  : 
Std_KICvup         .psi*in^1/2  : 
Std_KICvdown       .psi*in^1/2  : 
Std_nuh            .            : 
Std_Eh             .psi         : 
Std_nuv            .            : 
Std_Ev             .psi         : 
Std_Gv             .psi         : 
Std_Cl             .ft/min^1/2  : 
Std_Sigma_h        .psi         : 
Std_SigmaH         .psi         : 
Std_SigmaV         .psi         : 
Std_Pore Pressure  .psi         : 
Std_Biot           .            : 
Std_Porosity       .            : 
Std_Permeability   .nD          : 
Std_SoPhi          .            : 
Std_TensileStrength.psi         : 
Std_Depth          .ft          : 
~Params ----------------------------------------------------
~Other -----------------------------------------------------
Exported from homogenization method
~ASCII -----------------------------------------------------
# ...
 7733.8454500000 2535.8916468062 3350.8920839041 3040.8194197088 0.2154772950 5997671.4892510697 0.2126400582 4184436.9204182685 1724488.9980540378 0.0004814557 5632.5300433020 6125.9717154805 8123.6808450385 4253.5805525390 0.9000000000 0.0363075112 1039.6998027884 0.0000000000 1673.5431395675 0.7920990606 0.7282961729 9.9183659813 9.9183659813 9.9183659813 0.0063116874 63116.8744267210 0.0061924182 42808.9803231025 19669.9887363646 0.0000889611 0.1106951901 0.1107149904 0.0000000000 1264.9244389985 0.0000000000 0.0009016696 9.0166963467 0.0000000000 9.0166963467 7733.8454500000
 7749.1545500000 2508.7959282169 3266.8869289058 3384.6795225442 0.2103418658 5943811.7909162696 0.2052830953 4052112.7874271693 1679309.5030177967 0.0002810859 5608.3743298722 6099.4596966528 8141.2335803782 4262.0006974610 0.9000000000 0.0374959251 1168.6244135051 0.0000000000 1649.0595174456 0.7871129240 0.7237401569 9.9589320647 9.9589320647 9.9589320647 0.0063375022 63375.0222297637 0.0062986346 44713.9786980484 20575.3761422435 0.0000901786 0.1121465537 0.1121662580 0.0000000000 1281.7600739781 0.0000000000 0.0009053575 9.0535746043 0.0000000000 9.0535746043 7749.1545500000
 7764.4636500000 2451.4726498408 2786.1793405124 2827.9662529112 0.2045641333 5918928.1656271163 0.2000246632 3827069.3866698523 1594047.0238674816 0.0002907050 5648.0710445327 6139.4461404534 8158.7615871820 4270.4205769771 0.9000000000 0.0365928242 1254.2699565685 0.0000000000 1624.4337463200 0.7907109128 0.7274257823 9.9183659813 9.9183659813 9.9183659813 0.0063116874 63116.8744267210 0.0061205025 38990.8389111504 18102.0955446557 0.0000876042 0.1093058505 0.1093259024 0.0000000000 1247.8035181267 0.0000000000 0.0009016696 9.0166963467 0.0000000000 9.0166963467 7764.4636500000
 7779.7727500000 2468.2563844563 2961.6443904008 2910.4487284061 0.2074276459 5958494.3846882461 0.1994136179 3904895.6294781175 1625841.3717033253 0.0002901212 5640.7243378142 6134.2109997224 8176.3637324024 4278.8406913617 0.9000000000 0.0369639812 1265.8624705948 0.0000000000 1627.1583557360 0.7884820286 0.7250500136 9.9589320647 9.9589320647 9.9589320647 0.0063375022 63375.0222297637 0.0062341350 45729.2549761518 20982.3443262178 0.0000902694 0.1120146418 0.1120343693 0.0000000000 1281.3076210871 0.0000000000 0.0009053575 9.0535746043 0.0000000000 9.0535746043 7779.7727500000
 7795.0818500000 2536.9732025836 3228.3046317721 3056.0797637284 0.2124189167 5801896.0069218529 0.2018329362 3984782.3698975518 1654243.1559771034 0.0005049783 5605.2544318944 6083.7933202965 8193.8445429889 4287.2606014152 0.9000000000 0.0398620511 1300.4722377128 0.0000000000 1627.2912429823 0.7804656112 0.7190757634 9.9183659813 9.9183659813 9.9183659813 0.0063116874 63116.8744267210 0.0060549507 41810.8164212231 19229.7342609063 0.0000881788 0.1095828433 0.1096028446 0.0000000000 1252.8379365371 0.0000000000 0.0009016696 9.0166963467 0.0000000000 9.0166963467 7795.0818500000
 7810.3909500000 2435.9381043392 2891.5597865017 2994.2205592777 0.2044584329 5840133.0422572037 0.1916632784 3615439.0219634362 1515659.4994179844 0.0004102034 5681.7681012014 6166.6443644656 8211.3622217004 4295.6806852624 0.9000000000 0.0371915082 1450.2536345332 0.0000000000 1588.7237389263 0.7895436226 0.7274627016 9.9589320647 9.9589320647 9.9589320647 0.0063375022 63375.0222297637 0.0059295736 38194.7068727184 17656.2894748698 0.0000869098 0.1081552391 0.1081756704 0.0000000000 1235.9220407527 0.0000000000 0.0009053575 9.0535746043 0.0000000000 9.0535746043 7810.3909500000
 7825.7000000000 2414.9629792330 2805.7197597680 2868.8292154112 0.2021524496 5809236.0771305840 0.1903846314 3534896.4469178212 1484636.8780141410 0.0005075919 5704.0689481849 6187.3051699523 8228.9652087352 4304.1005985041 0.9000000000 0.0368797770 1484.1811082438 0.0000000000 1579.3036602783 0.7906391978 0.7288892940 9.9183659813 9.9183659813 9.9183659813 0.0063116874 63116.8744267210 0.0060285869 39511.0600454137 18228.7432903210 0.0000874014 0.1088313721 0.1088515115 0.0000000000 1243.3428965924 0.0000000000 0.0009016696 9.0166963467 0.0000000000 9.0166963467 7825.7000000000
 7841.0090500000 2441.9585597828 2591.4726932733 2842.4509618732 0.2040894050 5784664.3520433679 0.1931502116 3601230.6763197044 1508874.8833254876 0.0003165047 5706.1152308640 6186.5334064756 8246.5646846225 4312.5206239263 0.9000000000 0.0375088321 1443.4434187619 0.0000000000 1589.6635594559 0.7889971006 0.7277271579 9.9589320647 9.9589320647 9.9589320647 0.0063375022 63375.0222297637 0.0059654711 39186.8582418086 18065.5751930900 0.0000873083 0.1086094231 0.1086297690 0.0000000000 1241.2783107390 0.0000000000 0.0009053575 9.0535746043 0.0000000000 9.0535746043 7841.0090500000
 7856.3181500000 2446.5641409147 2990.5779417719 2737.5349451371 0.2055017927 5825206.2264208617 0.1944523136 3664804.2931033098 1533669.8865417663 0.0003036052 5715.9514654126 6199.1698448047 8264.1505626371 4320.9405955037 0.9000000000 0.0372628772 1417.3333144619 0.0000000000 1595.6360830242 0.7890680757 0.7275610988 9.9183659813 9.9183659813 9.9183659813 0.0063116874 63116.8744267210 0.0059967675 39562.2965140617 18260.7109254354 0.0000873109 0.1086530547 0.1086732272 0.0000000000 1241.5924914396 0.0000000000 0.0009016696 9.0166963467 0.0000000000 9.0166963467 7856.3181500000
 7871.6272500000 2393.0903785719 3231.9294040340 2985.0280331914 0.2011655065 5744696.0985002816 0.1845494211 3385082.1345050768 1428499.9468829723 0.0003349691 5736.1828018111 6214.4429638943 8281.7636588569 4329.3606178270 0.9000000000 0.0369087797 1660.0363123190 0.0000000000 1555.0987723273 0.7894737348 0.7287162641 9.9589320647 9.9589320647 9.9589320647 0.0063375022 63375.0222297637 0.0058786302 38682.2928456981 17821.2695832956 0.0000868600 0.1079493979 0.1079698682 0.0000000000 1234.1913832292 0.0000000000 0.0009053575 9.0535746043 0.0000000000 9.0535746043 7871.6272500000
 7886.9363500000 2452.0603675242 2905.4010343660 3357.7499564753 0.2077726405 5762910.6211961722 0.1907173172 3542476.2071340955 1486695.5000021209 0.0005524853 5750.4956808562 6227.6476238707 8299.3910952619 4337.7806199417 0.9000000000 0.0375274904 1525.7392175260 0.0000000000 1577.3487922074 0.7896155551 0.7291165322 9.9589320647 9.9589320647 9.9589320647 0.0063375022 63375.0222297616 0.0056046808 36830.6188441170 16960.6198793283 0.0001324359 0.1182696770 0.1183039217 0.0000000000 1333.5167169022 0.0000000000 0.0009053575 9.0535746043 0.0000000000 9.0535746043 7886.9363500000
 7902.2454500000 2372.8476185000 2734.4609259314 2923.7459725017 0.1928385529 5255718.3977368586 0.1645476542 2953826.6430880385 1267909.6446755545 0.0003814054 5614.7548972503 6055.3609109590 8316.9197052665 4346.2006117277 0.9000000000 0.0440918014 2524.3837630274 0.0000000000 1443.6046075876 0.7662835772 0.7105265121 9.6107446233 9.6107446233 9.6107446233 0.0061159284 61159.2839662713 0.0053436427 35745.2190912463 16473.3656725129 0.0001275281 0.1136847327 0.1137179108 0.0000000000 1282.6569068824 0.0000000000 0.0008737041 8.7370405666 0.0000000000 8.7370405666 7902.2454500000
 7918.6042000000 2427.0069788580 2825.7888902839 3151.7740718683 0.1919066698 5170760.0008028280 0.1639381085 3016241.6587766423 1293694.9827945984 0.0006040319 5558.4019876700 5992.2245454230 8335.4383579949 4355.1979569489 0.9000000000 0.0479213389 2494.1572007708 0.0000000000 1446.0248993504 0.7567273719 0.7019421412 9.2966968020 9.2966968020 9.2966968020 0.0059160798 59160.7978309949 0.0049931388 33947.9568354685 15584.8955714324 0.0001216931 0.1081930859 0.1082257068 0.0000000000 1221.8918347580 0.0000000000 0.0008451543 8.4515425473 0.0000000000 8.4515425473 7918.6042000000
 7936.0126000000 2404.0358452143 3233.3232170837 2806.9964760114 0.1874873726 5020379.3871167069 0.1577270106 2873450.8822079375 1240254.2884259357 0.0004371774 5527.2213243953 5949.9946104821 8354.9624599387 4364.7725417040 0.9000000000 0.0502897532 2814.7036627234 0.0000000000 1402.5206242356 0.7497461144 0.6964733554 9.3300782265 9.3300782265 9.3300782265 0.0059373225 59373.2250775967 0.0050296453 34537.2111334223 15865.1215048791 0.0001225994 0.1089481578 0.1089807857 0.0000000000 1230.6327848881 0.0000000000 0.0008481889 8.4818892968 0.0000000000 8.4818892968 7936.0126000000
