~Version ---------------------------------------------------
VERS.   2.0 : CWLS log ASCII Standard -VERSION 2.0
WRAP.    NO : One line per depth step
DLM . SPACE : Column Data Section Delimiter
~Well ------------------------------------------------------
STRT.ft               6185.69585 : START DEPTH
STOP.ft        7989.874549999998 : STOP DEPTH
STEP.ft       13.981649999999718 : STEP
NULL.                   -9999.25 : NULL VALUE
COMP.                            : COMPANY
WELL.                     bypass : WELL
FLD .                            : FIELD
LOC .                            : LOCATION
PROV.                            : PROVINCE
CNTY.                            : COUNTY
STAT.                            : STATE
CTRY.                            : COUNTRY
SRVC.                            : SERVICE COMPANY
DATE. 2019-07-30 20:43:31.349442 : DATE
UWI .                            : UNIQUE WELL ID
API .                            : API NUMBER
~Curve Information -----------------------------------------
Depth              .ft          : 
KICh               .psi*in^1/2  : 
KICvup             .psi*in^1/2  : 
KICvdown           .psi*in^1/2  : 
nuh                .            : 
Eh                 .psi         : 
nuv                .            : 
Ev                 .psi         : 
Gv                 .psi         : 
Cl                 .ft/min^1/2  : 
Sigma_h            .psi         : 
SigmaH             .psi         : 
SigmaV             .psi         : 
Pore Pressure      .psi         : 
Biot               .            : 
Porosity           .            : 
Permeability       .nD          : 
SoPhi              .            : 
TensileStrength    .psi         : 
Grad_SigmaH        .psi/ft      : 
Grad_Sigma_h       .psi/ft      : 
Std_KICh           .psi*in^1/2  : 
Std_KICvup         .psi*in^1/2  : 
Std_KICvdown       .psi*in^1/2  : 
Std_nuh            .            : 
Std_Eh             .psi         : 
Std_nuv            .            : 
Std_Ev             .psi         : 
Std_Gv             .psi         : 
Std_Cl             .ft/min^1/2  : 
Std_Sigma_h        .psi         : 
Std_SigmaH         .psi         : 
Std_SigmaV         .psi         : 
Std_Pore Pressure  .psi         : 
Std_Biot           .            : 
Std_Porosity       .            : 
Std_Permeability   .nD          : 
Std_SoPhi          .            : 
Std_TensileStrength.psi         : 
Std_Depth          .ft          : 
~Params ----------------------------------------------------
~Other -----------------------------------------------------
Exported from homogenization method
~ASCII -----------------------------------------------------
# ...
 6983.8750000000 2581.0750239743 23277.3848060190 24980.9315800285 0.2235434822 7393731.4233778203 0.2115375798 5483871.0162221277 2263082.3294554926 0.0007915704 4590.1859743477 5194.4743818120 7259.5756683189 3072.7956169999 0.9000000000 0.0404488402 895.3688676142 0.0000000000 1644.3106886635 0.7437811218 0.6572548871 19.0194312374 19.0194312374 19.0194312374 0.0050550004 103716.3620690702 0.0049097036 95498.3022515838 48324.2140802473 0.0000705200 0.1223955174 0.1226013481 0.0000000000 1332.1602000454 0.0000000000 0.0008600498 12.1634888798 0.0000000000 18.2520785395 6983.8750000000
 7000.5621500000 2789.9788262580 22760.4443115434 22677.2138106397 0.2566866104 7664682.5291776061 0.2401113398 6793374.9522550274 2734043.6291885083 0.0005204237 4625.0657941132 5234.9778012535 7278.4225673921 3080.1370393897 0.9000000000 0.0402760053 656.1262842180 0.0000000000 1768.0329719089 0.7477939184 0.6606706283 19.2447868504 19.2447868504 19.2447868504 0.0051308937 105159.9572753639 0.0051037529 106861.1138113058 56200.3746832184 0.0000546320 0.1454002755 0.1455310302 0.0000000000 1734.3415715805 0.0000000000 0.0008720259 12.2340545824 0.0000000000 18.1011668255 7000.5621500000
 7017.2493000000 2904.2823042303 24725.7891663994 23562.6478494640 0.2998068585 8904615.2789918222 0.2966653097 8821011.6706638318 3401580.3361722655 0.0007010509 5004.8175033190 5689.8896908566 7297.3664482036 3087.4796862266 0.9000000000 0.0287238087 267.4211123887 0.0000000000 1942.8762636229 0.8108433159 0.7132164313 19.2058044526 19.2058044526 19.2058044526 0.0051308405 105085.4358002967 0.0051308405 105617.7704444145 57221.3862617411 0.0000545717 0.1452900549 0.1454206303 0.0000000000 1732.6946298872 0.0000000000 0.0008714857 12.1931371336 0.0000000000 17.8240281322 7017.2493000000
 7033.9364500000 2874.8818321819 21152.2447488682 26342.8780497346 0.2906001230 8294440.6297545815 0.2628030431 7346828.4903423749 2896448.2680895631 0.0004736091 4943.6902841330 5586.3711952733 7316.5998408487 3094.8223515170 0.9000000000 0.0323958274 433.6830257981 0.0000000000 1886.9789265822 0.7942026822 0.7028340843 18.9828803529 18.9828803529 18.9828803529 0.0050548941 103646.4751585789 0.0049491108 97460.1688146712 49690.8741153536 0.0000532772 0.1420657490 0.1421958039 0.0000000000 1693.7137988361 0.0000000000 0.0008595370 12.1371814356 0.0000000000 17.9927711870 7033.9364500000
 7050.6235500000 2694.9236849775 5270.8062441430 5679.0714318088 0.2430796580 7073909.1567416098 0.2208036054 5522520.8719663816 2256908.0141614783 0.0007951169 4696.7914204471 5265.8546426910 7335.5954323388 3143.8645432876 0.9000000000 0.0406599318 816.5440097879 0.0000000000 1695.0668003382 0.7468636788 0.6661526299 19.3080031541 19.3080031541 19.3080031541 0.0051311329 105280.9493318137 0.0049614099 98262.4137299375 49033.6777123581 0.0000716761 0.1242794341 0.1244883111 0.0000000000 1353.1681242884 0.0000000000 0.0008728793 12.3396842431 0.0000000000 18.5453706619 7050.6235500000
 7067.3107000000 2762.2962477242 22000.5436283553 21677.7344155534 0.2572367605 7736144.6917075561 0.2453066901 7105198.0258183759 2848478.2823041938 0.0006841023 4805.4173756675 5420.7465590772 7354.3936666822 3381.3047272440 0.9000000000 0.0377537516 564.9239371231 0.0000000000 1786.7387706926 0.7670168738 0.6799499243 19.2710554954 19.2710554954 19.2710554954 0.0051309100 105210.2157395131 0.0050500170 103586.9254629267 53705.2300616505 0.0000544213 0.1449373969 0.1450687576 0.0000000000 1728.5702906244 0.0000000000 0.0008724954 12.2792541742 0.0000000000 18.2864520449 7067.3107000000
 7083.9978500000 2630.8946476429 19779.6679639567 20580.2424377250 0.2368222138 7251308.7756885011 0.2189600081 5654535.8685199684 2314458.2991723530 0.0005781368 4996.3059938901 5582.5914514538 7373.3843943637 3693.9144569484 0.9000000000 0.0388888721 782.5331214934 0.0000000000 1689.3533075452 0.7880566270 0.7052946796 19.0329105074 19.0329105074 19.0329105074 0.0050548254 103742.2749064924 0.0049199365 93825.9741980236 47475.4830378831 0.0000702702 0.1221148528 0.1223213094 0.0000000000 1328.5366858104 0.0000000000 0.0008605439 12.3011724899 0.0000000000 18.3428835626 7083.9978500000
 7100.6850000000 2721.4380460759 19927.0392154889 19726.2845367803 0.2725097760 8201217.2293626936 0.2471874278 7083461.2735359259 2836359.0515557169 0.0006709158 5271.3191785604 5915.8106696409 7392.4470056858 3887.4269358489 0.9000000000 0.0309044992 511.3590630227 0.0000000000 1836.6143077125 0.8331323907 0.7423676981 19.2245166923 19.2245166923 19.2245166923 0.0051308365 105121.1605496725 0.0051308365 106230.3243558044 56689.3506263639 0.0000545749 0.1452847007 0.1454154152 0.0000000000 1732.7084943088 0.0000000000 0.0008718250 12.1969490323 0.0000000000 17.9588134217 7100.6850000000
 7117.3721500000 2823.0966109960 20382.0438271364 20519.5050281654 0.2794519782 8164711.3396740928 0.2789214998 8131382.9750371417 3178604.1836767211 0.0005055923 5281.9437644113 5920.0850529458 7411.6411626832 3914.4179709177 0.9000000000 0.0311353070 316.0619792663 0.0000000000 1884.9465464961 0.8317796131 0.7421199360 18.9497974380 18.9497974380 18.9497974380 0.0050548199 103583.0304968114 0.0050548199 107087.1291663898 56297.4668035527 0.0000538965 0.1433908612 0.1435194793 0.0000000000 1710.5049884223 0.0000000000 0.0008591214 12.0193097245 0.0000000000 17.7649063955 7117.3721500000
 7134.0593000000 2804.3649012811 21494.0732690945 19907.8215687025 0.2795556936 8153097.2990112137 0.2790047949 8113780.0074653942 3171710.8709791908 0.0006719128 5295.9762870686 5933.1581885701 7430.8346090008 3923.5947491191 0.9000000000 0.0300672326 307.4175487909 0.0000000000 1881.6901247825 0.8316665084 0.7423510325 19.2560973969 19.2560973969 19.2560973969 0.0051308803 105181.5715072193 0.0050806732 103165.1126903370 53959.7842868850 0.0000543525 0.1447899909 0.1449213781 0.0000000000 1726.5604927177 0.0000000000 0.0008722941 12.2410888050 0.0000000000 18.1818828369 7134.0593000000
 7150.7464500000 2663.8525859602 18040.9793531118 16709.5642314951 0.2288990881 6631803.4433144936 0.1919869195 4910908.3427746184 2052153.9898710251 0.0004948882 5014.3374324785 5553.9914616515 7449.8527270375 3932.7730108886 0.9000000000 0.0472952597 1157.6571259408 0.0000000000 1613.7860500077 0.7767009361 0.7012327269 19.3185747828 19.3185747828 19.3185747828 0.0051314936 105301.4250861523 0.0048048700 91408.2976342345 46668.9043125243 0.0000702379 0.1220984718 0.1223111788 0.0000000000 1328.3209819294 0.0000000000 0.0008728607 12.4674924197 0.0000000000 18.6111174161 7150.7464500000
 7167.3298500000 2834.3940367699 5794.7425564342 3952.0660533197 0.2947251969 8536700.9424884487 0.2742591533 7870984.4400727879 3087190.4764360650 0.0001405154 5476.9405724717 6136.2851934866 7468.5388270839 3941.8938022233 0.9000000000 0.0284779480 364.6947486171 0.0000000000 1917.1426722158 0.8561466155 0.7641535533 19.1996454772 19.1996454772 19.1996454772 0.0051308318 105073.6634994926 0.0051308318 105073.6634994926 56503.5471453490 0.0000544730 0.1450593382 0.1451900771 0.0000000000 1729.8188458587 0.0000000000 0.0008713710 12.1894504162 0.0000000000 17.7801940112 7167.3298500000
 7183.8095500000 2919.6711343003 3193.4180878610 3314.7777913595 0.3020885263 8819491.4754763842 0.3020395394 8818532.8492899314 3386320.9461811637 0.0001336461 5550.7571514469 6228.0913954182 7487.5336716593 3950.9576234701 0.9000000000 0.0277623657 206.0970470288 0.0000000000 1973.9510150033 0.8669622088 0.7726759894 19.2031749880 19.2031749880 19.2031749880 0.0051308326 105080.4020739067 0.0051308326 105080.4020739067 56833.1638053583 0.0000545122 0.1451565151 0.1452871918 0.0000000000 1731.0008477050 0.0000000000 0.0008714087 12.1910467952 0.0000000000 17.8056116414 7183.8095500000
 7200.2892500000 2892.8925011832 3894.5542657943 3902.3582150819 0.2883392638 8514786.0585061181 0.2877307838 8505573.9861932807 3302461.4123513117 0.0003745127 5427.4673259321 6088.3791135296 7506.4482231529 3960.0214447168 0.9000000000 0.0313988399 279.6562767165 0.0000000000 1928.3981282906 0.8455742404 0.7537846241 19.2101298834 19.2101298834 19.2101298834 0.0051308346 105093.6827941609 0.0051308346 105093.6827941609 57234.9156984936 0.0000545655 0.1452886217 0.1454192295 0.0000000000 1732.6079768091 0.0000000000 0.0008715341 12.1931593556 0.0000000000 17.8556056828 7200.2892500000
