~Version ---------------------------------------------------
VERS.   2.0 : CWLS log ASCII Standard -VERSION 2.0
WRAP.    NO : One line per depth step
DLM . SPACE : Column Data Section Delimiter
~Well ------------------------------------------------------
STRT.ft               5569.94125 : START DEPTH
STOP.ft        8198.326850000001 : STOP DEPTH
STEP.ft        14.50250000000051 : STEP
NULL.                   -9999.25 : NULL VALUE
COMP.                            : COMPANY
WELL.                     bypass : WELL
FLD .                            : FIELD
LOC .                            : LOCATION
PROV.                            : PROVINCE
CNTY.                            : COUNTY
STAT.                            : STATE
CTRY.                            : COUNTRY
SRVC.                            : SERVICE COMPANY
DATE. 2019-07-30 20:43:31.496337 : DATE
UWI .                            : UNIQUE WELL ID
API .                            : API NUMBER
~Curve Information -----------------------------------------
Depth              .ft          : 
KICh               .psi*in^1/2  : 
KICvup             .psi*in^1/2  : 
KICvdown           .psi*in^1/2  : 
nuh                .            : 
Eh                 .psi         : 
nuv                .            : 
Ev                 .psi         : 
Gv                 .psi         : 
Cl                 .ft/min^1/2  : 
Sigma_h            .psi         : 
SigmaH             .psi         : 
SigmaV             .psi         : 
Pore Pressure      .psi         : 
Biot               .            : 
Porosity           .            : 
Permeability       .nD          : 
SoPhi              .            : 
TensileStrength    .psi         : 
Grad_SigmaH        .psi/ft      : 
Grad_Sigma_h       .psi/ft      : 
Std_KICh           .psi*in^1/2  : 
Std_KICvup         .psi*in^1/2  : 
Std_KICvdown       .psi*in^1/2  : 
Std_nuh            .            : 
Std_Eh             .psi         : 
Std_nuv            .            : 
Std_Ev             .psi         : 
Std_Gv             .psi         : 
Std_Cl             .ft/min^1/2  : 
Std_Sigma_h        .psi         : 
Std_SigmaH         .psi         : 
Std_SigmaV         .psi         : 
Std_Pore Pressure  .psi         : 
Std_Biot           .            : 
Std_Porosity       .            : 
Std_Permeability   .nD          : 
Std_SoPhi          .            : 
Std_TensileStrength.psi         : 
Std_Depth          .ft          : 
~Params ----------------------------------------------------
~Other -----------------------------------------------------
Exported from homogenization method
~ASCII -----------------------------------------------------
# ...
 5772.9762500000 2853.8104525320 3201.1863528858 3373.4634238544 0.2776803085 9009356.5644757859 0.2775215997 9006783.9220926911 3525114.0791935362 0.0004021340 3906.0187068804 4611.1525736475 5962.4737121894 2424.5450267195 0.9000000000 0.0336511665 345.7886704668 0.0000000000 1878.9853431031 0.7987478857 0.6766039799 20.5114983657 20.5114983657 20.5114983657 0.0054732614 112144.3604322850 0.0054732614 112144.3604322858 62992.9496644367 0.0000567941 0.1527143185 0.1528479507 0.0000000000 1800.9175886177 0.0000000000 0.0009299805 13.0149943844 0.0000000000 19.1859700916 5772.9762500000
 5787.4787500000 2854.7373261172 3477.7732550523 3533.5870985725 0.2756676758 8789650.3155373279 0.2753329198 8781873.4196527768 3442520.7585678538 0.0004049690 3892.2609479943 4581.2844673837 5978.9831858734 2430.6360765385 0.9000000000 0.0345335400 365.4988332841 0.0000000000 1869.7662012415 0.7915855358 0.6725313588 20.5435860003 20.5435860003 20.5435860003 0.0054733578 112205.7279979852 0.0054701845 113255.5240001689 59183.7545612058 0.0000565918 0.1521979940 0.1523323063 0.0000000000 1794.8544118595 0.0000000000 0.0009304117 13.0510567639 0.0000000000 19.4130538722 5787.4787500000
 5801.9657000000 2727.6998751327 3287.3762920560 3718.4974324752 0.2234269575 6282282.5279973978 0.2142664455 5188130.4124960471 2127857.5163846309 0.0004630881 3611.1030684624 4124.6018506903 5995.3348223487 2436.7205655293 0.9000000000 0.0479260464 938.0397248095 0.0000000000 1666.2924228779 0.7108973172 0.6223930397 20.6042575398 20.6042575398 20.6042575398 0.0054739809 112321.8413346460 0.0053949040 102079.4027002109 48525.2456515908 0.0000838648 0.1343860352 0.1346344107 0.0000000000 1461.8901591820 0.0000000000 0.0009308699 13.1524948639 0.0000000000 19.8395454328 5801.9657000000
 5816.4370500000 2710.1269537982 2969.5208976250 2952.8868975353 0.2067284333 5547261.2169194603 0.2018419967 4514577.8622248163 1878076.3192075260 0.0002696143 3510.3380446835 3970.0322943396 6011.2624840866 2442.7985085652 0.9000000000 0.0551189075 1252.3952871477 0.0000000000 1591.0768874264 0.6825539863 0.6035203363 20.5953795158 20.5953795158 20.5953795158 0.0054739534 112304.8479744696 0.0053997728 106141.7612462870 50767.3582040844 0.0000851810 0.1360786123 0.1363238034 0.0000000000 1482.0229798290 0.0000000000 0.0009307776 13.1342002587 0.0000000000 19.7772349316 5816.4370500000
 5830.9084000000 2753.1942613696 3694.9913741944 3817.5659329324 0.2215117795 5939589.1048100339 0.2122715936 5024493.2502784478 2068855.8367625824 0.0005162046 3574.6608861822 4060.9099101049 6027.1689357885 2448.8764519673 0.9000000000 0.0516482648 1078.8269271562 0.0000000000 1641.0362233716 0.6964454990 0.6130538573 20.5995881318 20.5995881318 20.5995881318 0.0054744303 112312.8981545338 0.0053857946 108222.4395405461 51570.6382599514 0.0000857443 0.1367511830 0.1369952025 0.0000000000 1490.2930989908 0.0000000000 0.0009306123 13.1269400255 0.0000000000 19.8069706233 5830.9084000000
 5845.3798000000 2725.5518175540 4503.9193114471 3776.6894116332 0.2069309585 5651548.6478010342 0.2021678783 4695023.3215041524 1952624.9307021240 0.0002398320 3508.0399411110 3976.2977654698 6042.9708136763 2454.9544162279 0.9000000000 0.0558365415 1274.5513652001 0.0000000000 1594.2449802781 0.6802462631 0.6001389236 20.5982763917 20.5982763917 20.5982763917 0.0054740236 112310.3857479134 0.0053926017 105510.5613233307 50295.4226841752 0.0000849230 0.1357247263 0.1359705864 0.0000000000 1477.9276342213 0.0000000000 0.0009307722 13.1369441807 0.0000000000 19.7978217115 5845.3798000000
 5859.8511500000 2720.7883603724 3606.8265346767 3744.0174342201 0.2075568145 5567034.6010209545 0.2021874762 4594114.0097673116 1910526.4793482898 0.0005077449 3524.1447677199 3985.1611384828 6058.8353521143 2461.0323590140 0.9000000000 0.0556174016 1266.7081151973 0.0000000000 1591.3408862450 0.6800789024 0.6014051684 20.6045763230 20.6045763230 20.6045763230 0.0054739861 112322.4557570783 0.0053638403 102327.5215223673 48731.8646506904 0.0000839232 0.1344015004 0.1346498508 0.0000000000 1462.4012292894 0.0000000000 0.0009308778 13.1532165347 0.0000000000 19.8416349493 5859.8511500000
 5874.3225000000 2738.1049087905 3577.2805288778 4188.0822938713 0.2074667322 5413972.1629891498 0.2005934517 4522342.0726258010 1883305.1701734618 0.0002541873 3505.5822987734 3953.9567358326 6074.6793343749 2467.1103026659 0.9000000000 0.0571298124 1324.8189496943 0.0000000000 1584.0085987700 0.6730915328 0.5967636776 20.6022967004 20.6022967004 20.6022967004 0.0054744327 112318.0861539316 0.0053616690 106721.1205021353 50561.5018232261 0.0000851405 0.1359117297 0.1361572847 0.0000000000 1480.6376710531 0.0000000000 0.0009306485 13.1305541313 0.0000000000 19.8258535798 5874.3225000000
 5888.7938500000 2725.4054054570 3477.8516965832 3599.7717432574 0.2075139896 5568024.0253589191 0.2015424812 4645404.6326400051 1932705.0461767802 0.0005327895 3524.6119500095 3985.7266098198 6090.4298739818 2473.1882452855 0.9000000000 0.0561465055 1283.0506181782 0.0000000000 1589.9929154833 0.6768324230 0.5985286698 20.5975480743 20.5975480743 20.5975480743 0.0054740183 112308.9945618421 0.0053851506 106611.4719866510 51500.7695080420 0.0000855027 0.1365008396 0.1367452962 0.0000000000 1487.0232424079 0.0000000000 0.0009307984 13.1305151297 0.0000000000 19.7926085392 5888.7938500000
 5903.2652000000 2692.4408188388 3328.0627960421 3943.5655734723 0.2150358202 6457259.0182237141 0.2096458259 5188572.1127626915 2142155.9513643500 0.0002427055 3664.8742427852 4196.3202224900 6106.3573593544 2479.2661891040 0.9000000000 0.0495471720 1035.1099266762 0.0000000000 1634.6086706216 0.7108473159 0.6208215485 20.6175090346 20.6175090346 20.6175090346 0.0054740971 112347.2413006182 0.0053753611 100787.7995713850 49725.7467643287 0.0000841816 0.1349111360 0.1351586956 0.0000000000 1467.6016180132 0.0000000000 0.0009310375 13.1783702856 0.0000000000 19.9313054677 5903.2652000000
 5917.7366000000 2649.1586070593 3768.3621900336 3744.0101200722 0.1973546281 6271417.4655538378 0.1917505330 4780094.7885329779 2005352.7474794840 0.0006141326 3583.4518839029 4107.2246508209 6122.2777049937 2485.3445553298 0.9000000000 0.0545497411 1305.6587900116 0.0000000000 1568.1803037248 0.6940533059 0.6055443366 20.6246852453 20.6246852453 20.6246852453 0.0054741145 112361.0033248702 0.0053162531 95605.2462519748 47114.9102126328 0.0000825296 0.1326897083 0.1329414884 0.0000000000 1441.7128174174 0.0000000000 0.0009311600 13.1953187129 0.0000000000 19.9807606124 5917.7366000000
 5932.2079500000 2747.9579787888 4037.3004349298 4052.1210228336 0.2289444755 7094378.1086082049 0.2080099740 5769178.9400995849 2373738.8260253868 0.0004918577 3706.1482185871 4283.4223143690 6138.2290810149 2491.4225122138 0.9000000000 0.0485547403 980.5278424822 0.0000000000 1665.4564127026 0.7220620636 0.6247502195 20.5658528384 20.5658528384 20.5658528384 0.0054735457 112248.3208138174 0.0054464735 112288.9619102192 57202.8263540101 0.0000884489 0.1406161386 0.1408531176 0.0000000000 1534.3336915921 0.0000000000 0.0009305627 13.0860255925 0.0000000000 19.5703618180 5932.2079500000
 5946.6793000000 2751.9233914616 3237.1296659716 4149.0761450419 0.2155800487 5898135.1809678404 0.2077230631 4961276.9351520389 2050516.0554847815 0.0004539851 3610.8831058988 4096.0946875904 6154.2880559203 2497.5004548281 0.9000000000 0.0538361963 1170.1891983704 0.0000000000 1616.5034721572 0.6888036971 0.6072099946 20.6065414247 20.6065414247 20.6065414247 0.0054743808 112326.2210153974 0.0053221490 104488.9216820657 49534.6181148904 0.0000844273 0.1349325921 0.1351799763 0.0000000000 1469.3352552858 0.0000000000 0.0009307457 13.1402257885 0.0000000000 19.8552901282 5946.6793000000
 5961.1507000000 2731.3431617934 3666.8322661622 3243.2844714280 0.2129308818 5670335.5782487085 0.2058935904 4688394.8966015736 1943604.1866478638 0.0002958824 3618.9500470121 4086.4404591466 6170.0875453937 2503.5784190887 0.9000000000 0.0541906149 1204.1206584474 0.0000000000 1604.3798941803 0.6855120202 0.6070891727 20.5953972999 20.5953972999 20.5953972999 0.0054742025 112304.8668956903 0.0053774741 109036.4599179571 51462.5568436048 0.0000857821 0.1367359075 0.1369799140 0.0000000000 1490.4313601466 0.0000000000 0.0009306355 13.1258452518 0.0000000000 19.7778970980 5961.1507000000
