~Version ---------------------------------------------------
VERS.   2.0 : CWLS log ASCII Standard -VERSION 2.0
WRAP.    NO : One line per depth step
DLM . SPACE : Column Data Section Delimiter
~Well ------------------------------------------------------
STRT.ft       6025.5836500000005 : START DEPTH
STOP.ft               8231.95595 : STOP DEPTH
STEP.ft       14.389099999999416 : STEP
NULL.                   -9999.25 : NULL VALUE
COMP.                            : COMPANY
WELL.                     bypass : WELL
FLD .                            : FIELD
LOC .                            : LOCATION
PROV.                            : PROVINCE
CNTY.                            : COUNTY
STAT.                            : STATE
CTRY.                            : COUNTRY
SRVC.                            : SERVICE COMPANY
DATE. 2019-07-30 20:43:31.832888 : DATE
UWI .                            : UNIQUE WELL ID
API .                            : API NUMBER
~Curve Information -----------------------------------------
Depth              .ft          : 
KICh               .psi*in^1/2  : 
KICvup             .psi*in^1/2  : 
KICvdown           .psi*in^1/2  : 
nuh                .            : 
Eh                 .psi         : 
nuv                .            : 
Ev                 .psi         : 
Gv                 .psi         : 
Cl                 .ft/min^1/2  : 
Sigma_h            .psi         : 
SigmaH             .psi         : 
SigmaV             .psi         : 
Pore Pressure      .psi         : 
Biot               .            : 
Porosity           .            : 
Permeability       .nD          : 
SoPhi              .            : 
TensileStrength    .psi         : 
Grad_SigmaH        .psi/ft      : 
Grad_Sigma_h       .psi/ft      : 
Std_KICh           .psi*in^1/2  : 
Std_KICvup         .psi*in^1/2  : 
Std_KICvdown       .psi*in^1/2  : 
Std_nuh            .            : 
Std_Eh             .psi         : 
Std_nuv            .            : 
Std_Ev             .psi         : 
Std_Gv             .psi         : 
Std_Cl             .ft/min^1/2  : 
Std_Sigma_h        .psi         : 
Std_SigmaH         .psi         : 
Std_SigmaV         .psi         : 
Std_Pore Pressure  .psi         : 
Std_Biot           .            : 
Std_Porosity       .            : 
Std_Permeability   .nD          : 
Std_SoPhi          .            : 
Std_TensileStrength.psi         : 
Std_Depth          .ft          : 
~Params ----------------------------------------------------
~Other -----------------------------------------------------
Exported from homogenization method
~ASCII -----------------------------------------------------
# ...
 6227.0309500000 2648.6640159309 3889.8284698918 3034.2539957183 0.2039993071 4922466.6408365117 0.1919234429 3648027.8114216370 1528433.9416855813 0.0008639987 3784.4362429405 4193.2792224803 6429.0354439385 2615.3267362622 0.9000000000 0.0527866015 1836.2126023235 0.0000000000 1563.6005687443 0.6733994509 0.6077432846 10.2575528906 10.2575528906 10.2575528906 0.0065275337 65275.3365768227 0.0064003917 50885.9081205722 22952.1822944433 0.0000940482 0.1162093511 0.1162295241 0.0000000000 1331.3906279970 0.0000000000 0.0009325048 9.3250480824 0.0000000000 9.3250480824 6227.0309500000
 6241.4200000000 2691.2406475981 3370.6293288219 3817.4145402888 0.2148627156 5231735.7661815323 0.2111531896 4233953.4052819395 1746327.3352287740 0.0005804831 3834.8267798864 4265.4709752381 6445.0088056267 2621.3701316110 0.9000000000 0.0481023084 1395.1753534009 0.0000000000 1645.0732388296 0.6834135462 0.6144157547 10.2575528906 10.2575528906 10.2575528906 0.0065275337 65275.3365768227 0.0064347142 55021.8605865724 24474.1679390716 0.0000955101 0.1175597203 0.1175796615 0.0000000000 1348.7975128263 0.0000000000 0.0009325048 9.3250480824 0.0000000000 9.3250480824 6241.4200000000
 6255.8090500000 2715.4304629074 3529.6750768922 3124.8087520556 0.2086569644 4563482.4479728127 0.2006894248 3747359.6242648731 1559778.1321138116 0.0003907759 3729.2954502290 4106.8618385737 6460.8836393563 2627.4135398322 0.9000000000 0.0549926641 1797.6676956553 0.0000000000 1588.5360726516 0.6564877230 0.5961331972 10.2575528906 10.2575528906 10.2575528906 0.0065275337 65275.3365768227 0.0062820965 52503.7359997546 23349.7450830673 0.0000940843 0.1158446827 0.1158649191 0.0000000000 1328.9863242050 0.0000000000 0.0009325048 9.3250480824 0.0000000000 9.3250480824 6255.8090500000
 6270.1981500000 2676.9042222700 3050.2180517026 3028.6119985219 0.2089250415 4818412.1438936256 0.1997286472 3778104.7130771214 1573860.8152926627 0.0006002152 3797.6869127171 4196.2568801188 6476.6947897762 2633.4569943395 0.9000000000 0.0523459884 1715.9172346862 0.0000000000 1588.3234605092 0.6692383207 0.6056725516 10.2575528906 10.2575528906 10.2575528906 0.0065275337 65275.3365768227 0.0063420586 54189.6498341816 24468.4776443675 0.0000950581 0.1169044737 0.1169245267 0.0000000000 1341.7447954899 0.0000000000 0.0009325048 9.3250480824 0.0000000000 9.3250480824 6270.1981500000
 6284.5872500000 2741.1668051313 3801.5442680561 3571.0805583982 0.2295464129 5767315.3337774910 0.2105169414 4673310.7008030554 1914674.7745060297 0.0007309608 3903.5885466248 4372.6489475208 6492.7315028816 2639.5004105364 0.9000000000 0.0443421958 1223.8708885400 0.0000000000 1689.7699509208 0.6957734492 0.6211368211 10.2575528906 10.2575528906 10.2575528906 0.0065275337 65275.3365768227 0.0061931169 52071.1005998949 23234.2774384812 0.0000936691 0.1152135500 0.1152338973 0.0000000000 1322.2886713104 0.0000000000 0.0009325048 9.3250480824 0.0000000000 9.3250480824 6284.5872500000
 6298.9763500000 2722.5988848207 3217.6363651293 3257.2164119990 0.2117371164 4645764.1943623554 0.1950787188 3707741.6191472439 1549618.8856591184 0.0005978967 3763.8987225157 4147.2957590029 6508.6343703595 2645.5438267334 0.9000000000 0.0558037408 1924.9988697364 0.0000000000 1561.7751778394 0.6584078950 0.5975413327 10.2575528906 10.2575528906 10.2575528906 0.0065275337 65275.3365768227 0.0061399717 50712.1028166810 22687.9146044970 0.0000930391 0.1145070197 0.1145274925 0.0000000000 1313.9011363388 0.0000000000 0.0009325048 9.3250480824 0.0000000000 9.3250480824 6298.9763500000
 6313.3654500000 2607.8408612690 3216.2833221279 3192.8188812238 0.2005474707 5019448.6170461122 0.1900789849 3593471.7601808216 1509508.5506206723 0.0008540595 3865.5965876740 4283.6932260452 6524.4607509293 2651.5872429304 0.9000000000 0.0518736830 1856.9454724133 0.0000000000 1552.0432229310 0.6785118428 0.6122877914 10.2575528906 10.2575528906 10.2575528906 0.0065275337 65275.3365768227 0.0063177624 49947.2560310970 22690.9774938649 0.0000935097 0.1154937130 0.1155140109 0.0000000000 1323.4342139578 0.0000000000 0.0009325048 9.3250480824 0.0000000000 9.3250480824 6313.3654500000
 6327.6333500000 2671.7542926422 3146.2793864204 3055.0140576368 0.2113812589 5256600.3409151426 0.2021809055 4105198.6308935191 1703648.3189379296 0.0003073495 3869.9832191719 4303.9176475359 6540.3023061156 2657.5797516205 0.9000000000 0.0495337700 1553.7121985202 0.0000000000 1614.5070499864 0.6801781029 0.6116004207 10.3479295522 10.3479295522 10.3479295522 0.0065850461 65850.4607868526 0.0064285252 53052.9806588446 23689.5278142074 0.0000952899 0.1174844586 0.1175047657 0.0000000000 1347.1090916727 0.0000000000 0.0009407209 9.4072086838 0.0000000000 9.4072086838 6327.6333500000
 6341.7800000000 2735.2305450997 3217.6012276746 3589.6737273979 0.2101921122 4628184.7576968754 0.2031441504 3884966.3723365539 1610916.7517362784 0.0003755320 3773.2146335988 4155.6485224895 6555.9111200135 2663.5213307615 0.9000000000 0.0539335371 1689.3060077411 0.0000000000 1614.3872637275 0.6552810918 0.5949772199 10.3479295522 10.3479295522 10.3479295522 0.0065850461 65850.4607868526 0.0064849251 57066.5907702898 25323.1860934262 0.0000968843 0.1190323366 0.1190523797 0.0000000000 1366.6364713611 0.0000000000 0.0009407209 9.4072086838 0.0000000000 9.4072086838 6341.7800000000
 6355.9266500000 2721.6837344795 3217.3667126539 3039.0652616231 0.2126765784 4799236.6341356561 0.2053820672 4087990.2808204442 1692735.7530041134 0.0003607386 3786.1380117661 4181.8937078627 6571.4641414623 2669.4629097245 0.9000000000 0.0523440372 1595.9812023344 0.0000000000 1625.5976531730 0.6579518516 0.5956862343 10.3479295522 10.3479295522 10.3479295522 0.0065850461 65850.4607868526 0.0063374488 53328.1288894932 23761.7414274026 0.0000950627 0.1169982475 0.1170186390 0.0000000000 1342.4424831418 0.0000000000 0.0009407209 9.4072086838 0.0000000000 9.4072086838 6355.9266500000
 6370.0733500000 2680.5635605264 3174.1080760487 3388.6628836044 0.2084325128 4910986.3473555855 0.1979384836 3817686.4175221249 1592228.4478931290 0.0004075352 3859.1797133035 4265.5728130741 6587.0181317874 2675.4045902755 0.9000000000 0.0528436891 1758.5520329498 0.0000000000 1581.8712542714 0.6696269538 0.6058297136 10.3479295522 10.3479295522 10.3479295522 0.0065850461 65850.4607868526 0.0062627717 52227.2680783161 23326.6142025039 0.0000944461 0.1162351765 0.1162557019 0.0000000000 1333.7260459729 0.0000000000 0.0009407209 9.4072086838 0.0000000000 9.4072086838 6370.0733500000
 6384.2200000000 2702.0235977130 3063.0156723200 2951.4236103793 0.2138044336 4849721.9440402575 0.2023792226 3889688.3799332785 1617116.1327993493 0.0006022583 3866.4654816200 4266.0127076712 6602.6038963989 2681.3461692385 0.9000000000 0.0522815815 1689.4257290800 0.0000000000 1594.5015964615 0.6682120459 0.6056284842 10.3479295522 10.3479295522 10.3479295522 0.0065850461 65850.4607868526 0.0062328548 52600.2056783545 23469.4680858345 0.0000944704 0.1161619167 0.1161824550 0.0000000000 1333.3375749944 0.0000000000 0.0009407209 9.4072086838 0.0000000000 9.4072086838 6384.2200000000
 6398.3666500000 2702.3043338640 4153.4883202323 3086.4667400198 0.2138556117 5135455.8187517384 0.2018222541 4083570.8768581608 1697166.6576019060 0.0007847545 3889.5376974342 4312.6074405771 6618.2111113599 2687.2877483795 0.9000000000 0.0516071925 1661.9990861922 0.0000000000 1598.7914230578 0.6740169291 0.6078954068 10.1695035975 10.1695035975 10.1695035975 0.0064715023 64715.0228929442 0.0062704695 50603.1578909083 22823.4801930012 0.0000930421 0.1148030619 0.1148231328 0.0000000000 1315.9976439337 0.0000000000 0.0009245003 9.2450032704 0.0000000000 9.2450032704 6398.3666500000
 6412.9361000000 2641.8822682957 3375.4133170431 3141.7853850367 0.2059154613 5166691.3146435078 0.1987836930 3850334.9593736869 1605668.8374220415 0.0006936892 3949.4660362331 4377.9116014737 6634.3495063335 2693.4069116941 0.9000000000 0.0505993497 1667.3774900643 0.0000000000 1587.8822296120 0.6826688327 0.6158592530 10.0415802209 10.0415802209 10.0415802209 0.0063900965 63900.9650422702 0.0062221806 48721.7251606296 22025.9697238041 0.0000915607 0.1131894385 0.1132092866 0.0000000000 1296.5740202853 0.0000000000 0.0009128709 9.1287092918 0.0000000000 9.1287092918 6412.9361000000
