~Version ---------------------------------------------------
VERS.   2.0 : CWLS log ASCII Standard -VERSION 2.0
WRAP.    NO : One line per depth step
DLM . SPACE : Column Data Section Delimiter
~Well ------------------------------------------------------
STRT.ft               6039.97275 : START DEPTH
STOP.ft               8231.95595 : STOP DEPTH
STEP.ft       14.389100000000326 : STEP
NULL.                   -9999.25 : NULL VALUE
COMP.                            : COMPANY
WELL.                     bypass : WELL
FLD .                            : FIELD
LOC .                            : LOCATION
PROV.                            : PROVINCE
CNTY.                            : COUNTY
STAT.                            : STATE
CTRY.                            : COUNTRY
SRVC.                            : SERVICE COMPANY
DATE. 2019-07-30 20:43:31.491401 : DATE
UWI .                            : UNIQUE WELL ID
API .                            : API NUMBER
~Curve Information -----------------------------------------
Depth              .ft          : 
KICh               .psi*in^1/2  : 
KICvup             .psi*in^1/2  : 
KICvdown           .psi*in^1/2  : 
nuh                .            : 
Eh                 .psi         : 
nuv                .            : 
Ev                 .psi         : 
Gv                 .psi         : 
Cl                 .ft/min^1/2  : 
Sigma_h            .psi         : 
SigmaH             .psi         : 
SigmaV             .psi         : 
Pore Pressure      .psi         : 
Biot               .            : 
Porosity           .            : 
Permeability       .nD          : 
SoPhi              .            : 
TensileStrength    .psi         : 
Grad_SigmaH        .psi/ft      : 
Grad_Sigma_h       .psi/ft      : 
Std_KICh           .psi*in^1/2  : 
Std_KICvup         .psi*in^1/2  : 
Std_KICvdown       .psi*in^1/2  : 
Std_nuh            .            : 
Std_Eh             .psi         : 
Std_nuv            .            : 
Std_Ev             .psi         : 
Std_Gv             .psi         : 
Std_Cl             .ft/min^1/2  : 
Std_Sigma_h        .psi         : 
Std_SigmaH         .psi         : 
Std_SigmaV         .psi         : 
Std_Pore Pressure  .psi         : 
Std_Biot           .            : 
Std_Porosity       .            : 
Std_Permeability   .nD          : 
Std_SoPhi          .            : 
Std_TensileStrength.psi         : 
Std_Depth          .ft          : 
~Params ----------------------------------------------------
~Other -----------------------------------------------------
Exported from homogenization method
~ASCII -----------------------------------------------------
# ...
 7970.8295000000 2400.2428662360 4572.1819794698 3823.6619507858 0.2074945126 5436445.3857918074 0.1743031921 3153474.2251149202 1342517.2137097390 0.0003120332 5749.7008870408 6199.9261534218 8392.8435203656 4383.9218980133 0.9000000000 0.0455136843 947.0457249977 0.0000000000 1113.9223048083 0.7778269694 0.7213428523 2.0195140740 2.0195140740 2.0195140740 0.0001734299 4532.1031545598 0.0001466975 2602.2499697764 1107.8693724625 0.0000042569 0.0060996461 0.0061089913 0.0000000000 80.4223733433 0.0000000000 0.0000394722 0.8438678823 0.0000000000 0.9378783039 7970.8295000000
 7988.2379000000 2369.0601329327 2835.1546318785 5125.1628711348 0.1917241239 4862720.0257081278 0.1517263128 2590494.6681368798 1124242.0513128734 0.0005176932 5621.7887975272 6029.8295452306 8412.2483316315 4393.4964827684 0.9000000000 0.0546100929 1757.7965948867 0.0000000000 1194.3634877861 0.7548385039 0.7037583091 1.9852097290 1.9852097290 1.9852097290 0.0001383429 3527.6448568027 0.0001059430 1822.6442356455 807.0192130462 0.0000087652 0.0136361417 0.0136387922 0.0000000000 157.9819509998 0.0000000000 0.0000611891 3.8899047129 0.0000000000 1.3181839180 7988.2379000000
 8005.6463000000 2449.1207751030 9074.9079265643 5163.8918689422 0.1884018856 4685610.3833611477 0.1295380021 2380498.6060564695 1052976.0617556595 0.0005803954 5458.2722765287 5852.5505455311 8431.1435862299 4403.0710675234 0.9000000000 0.0653605191 4003.7960794301 0.0000000000 1557.5811061018 0.7310528502 0.6818028267 2.0669110181 2.0669110181 2.0669110181 0.0001657825 4454.4402622710 0.0001406146 2653.7483437749 1133.6919027500 0.0000054301 0.0077752985 0.0077824468 0.0000000000 102.9674290702 0.0000000000 0.0000441546 1.3364023901 0.0000000000 1.1278478890 8005.6463000000
 8023.0547000000 2419.5482940657 3488.7548161940 4578.4690459623 0.1867834696 4950354.7069046497 0.1538417317 2865989.4063117346 1241925.7517452692 0.0003487296 5530.7665389762 5947.8902042177 8450.2966733919 4412.6456874268 0.9000000000 0.0563070117 1727.9624199697 0.0000000000 1323.4983845385 0.7413498258 0.6893591962 2.0283342434 2.0283342434 2.0283342434 0.0001701987 4459.0460947459 0.0001428626 2579.2021324296 1103.2278902557 0.0000045062 0.0064523881 0.0064609481 0.0000000000 85.2001811356 0.0000000000 0.0000411571 0.9522570469 0.0000000000 0.9778618906 8023.0547000000
 8040.4631500000 2369.4951305971 4048.7891608009 5043.5306492412 0.2069381461 5329014.8885612348 0.1723626903 2963845.3643911863 1263612.1174507607 0.0004886461 5849.6802249527 6291.2119559441 8469.6509397780 4422.2203965017 0.9000000000 0.0452428205 920.4924204268 0.0000000000 1038.3954816394 0.7824439760 0.7275302574 1.9877730243 1.9877730243 1.9877730243 0.0001602967 4029.6031275123 0.0001278705 2118.4555985440 917.5742230595 0.0000063663 0.0091615978 0.0091664526 0.0000000000 121.5145688891 0.0000000000 0.0000470312 1.8389603693 0.0000000000 0.9827152320 8040.4631500000
 8057.8716000000 2383.6779377798 5922.6382824650 5342.5040419752 0.1939209473 4850457.0888329912 0.1478261387 2523581.1274033408 1098741.0559884598 0.0009361796 5672.7362483415 6078.9990833832 8488.9705265596 4431.7950085878 0.9000000000 0.0546637337 2107.7522166885 0.0000000000 1188.7705172405 0.7544174672 0.7039993351 2.0094892057 2.0094892057 2.0094892057 0.0001773207 4587.0176240369 0.0001493678 2585.6201841363 1098.1849789175 0.0000038887 0.0055814528 0.0055918770 0.0000000000 73.4030026326 0.0000000000 0.0000367629 0.6923446673 0.0000000000 0.8653333971 8057.8716000000
 8075.2800000000 2387.8555970514 3824.1459439152 5755.7729433136 0.2006253795 5060922.9399987264 0.1577417523 2675210.6072878805 1154918.0656863751 0.0006971103 5786.9939085355 6208.5178098529 8508.3929390110 4441.3695933429 0.9000000000 0.0499050305 1377.8410493038 0.0000000000 1095.1771425239 0.7688300356 0.7166307433 2.0105896741 2.0105896741 2.0105896741 0.0001581896 3997.2473551741 0.0001247972 2116.6571094711 921.1559210715 0.0000059993 0.0086206484 0.0086257347 0.0000000000 114.3062286332 0.0000000000 0.0000479106 1.6580954081 0.0000000000 1.0136030711 8075.2800000000
 8092.6884000000 2372.4871355168 5744.6670330034 4624.4725234761 0.1998229861 4996741.0759565858 0.1570615751 2649125.7194493208 1144773.5228316290 0.0005186122 5784.0319050239 6200.4884268485 8527.6725645877 4450.9442476046 0.9000000000 0.0503382262 1472.0165343389 0.0000000000 1083.9268020209 0.7661840071 0.7147231697 1.9781594315 1.9781594315 1.9781594315 0.0001720456 4314.3118940296 0.0001405674 2307.2627236548 987.4076239974 0.0000042907 0.0061690456 0.0061772994 0.0000000000 81.3558069301 0.0000000000 0.0000400023 0.9507265236 0.0000000000 0.8387219654 8092.6884000000
 8110.0968500000 2349.7077344071 3996.0091685440 5049.1055752211 0.2054056558 5167274.6997278556 0.1661542466 2746306.1487590144 1176895.1943590969 0.0004047345 5908.6203697619 6337.2955360726 8547.1402425107 4460.5189222937 0.9000000000 0.0466320062 1058.4915909875 0.0000000000 1011.5249180455 0.7814081204 0.7285511479 1.9920356052 1.9920356052 1.9920356052 0.0001751914 4462.8442332942 0.0001455332 2429.0801012562 1034.2238309831 0.0000041744 0.0060022857 0.0060114139 0.0000000000 79.0779177896 0.0000000000 0.0000380200 0.8896087327 0.0000000000 0.8504703481 8110.0968500000
 8127.5053000000 2376.6648539687 3767.8931947023 4795.5046818961 0.2074352238 5248217.6035908405 0.1671368133 2802580.8841433544 1200078.2987376910 0.0004992832 5931.0863314370 6365.7446468557 8566.6432812026 4470.0935344072 0.9000000000 0.0457283590 1066.3313634953 0.0000000000 1020.3332522564 0.7832347580 0.7297548402 2.0348898842 2.0348898842 2.0348898842 0.0001771473 4585.7644956909 0.0001477389 2552.6765247652 1085.6589776426 0.0000040251 0.0057776610 0.0057877288 0.0000000000 76.0473502937 0.0000000000 0.0000374926 0.7641960260 0.0000000000 0.8855486217 8127.5053000000
 8144.9137000000 2430.5818605314 4018.8777553082 5002.2189902879 0.2070262294 5366179.1862717215 0.1690148462 2964301.9954942488 1267688.6411052479 0.0007447043 5905.0283805894 6349.6068872901 8586.1293476802 4479.6681191623 0.9000000000 0.0462466195 1056.4707715894 0.0000000000 1110.9893655879 0.7795793941 0.7249958192 2.0796999401 2.0796999401 2.0796999401 0.0001698147 4537.3043801675 0.0001434341 2602.3860310395 1111.3633290562 0.0000047058 0.0067370814 0.0067456245 0.0000000000 89.0075572897 0.0000000000 0.0000416148 1.0216642177 0.0000000000 1.0440085960 8144.9137000000
 8162.3221000000 2534.2655917800 5541.5166121480 5973.9723896394 0.2210662972 6071539.0476486925 0.1868853539 3723442.4069212517 1564398.0045915237 0.0006266949 5967.5528602718 6464.7854070887 8605.5461788505 4489.2428077825 0.9000000000 0.0421258692 945.5135900643 0.0000000000 1321.3777653400 0.7920277254 0.7311096998 2.1430870577 2.1430870577 2.1430870577 0.0001877863 5302.4183883222 0.0001723342 3525.8580622960 1458.0673498890 0.0000043164 0.0061416038 0.0061546091 0.0000000000 80.9323897710 0.0000000000 0.0000334368 0.6746800816 0.0000000000 1.1075816476 8162.3221000000
 8179.7305000000 2523.9080221657 6267.8966173805 4852.4757864922 0.2152676980 5865758.3184138425 0.1848535864 3567727.8181484961 1506115.7521662547 0.0002963351 5953.7035200295 6436.3756364868 8625.0618521990 4498.8174205771 0.9000000000 0.0435326628 1034.6134831248 0.0000000000 1282.1732806442 0.7868689117 0.7278605964 2.1050453829 2.1050453829 2.1050453829 0.0001794046 4912.8109867547 0.0001579962 2961.4059853475 1244.2331059242 0.0000044212 0.0063234358 0.0063341856 0.0000000000 83.3742327820 0.0000000000 0.0000365344 0.8543528684 0.0000000000 1.0617084512 8179.7305000000
 8197.1389500000 2563.5437110409 6830.2997171506 7094.4369672311 0.2436132632 6388514.5422103601 0.1796188356 3621944.9337183377 1518678.1264516409 0.0003634608 6144.3328453113 6658.0387321310 8644.6591938151 4508.3920327354 0.9000000000 0.0382682606 868.6184109957 0.0000000000 1278.5915054901 0.8122393402 0.7495704151 2.1170134832 2.1170134832 2.1170134832 0.0001786744 4969.9322866112 0.0001581117 3207.7022166839 1310.9254695903 0.0000055595 0.0079532837 0.0079620735 0.0000000000 105.2993692834 0.0000000000 0.0000403882 1.3624047636 0.0000000000 1.1777574674 8197.1389500000
