~Version ---------------------------------------------------
VERS.   2.0 : CWLS log ASCII Standard -VERSION 2.0
WRAP.    NO : One line per depth step
DLM . SPACE : Column Data Section Delimiter
~Well ------------------------------------------------------
STRT.ft                 5553.236 : START DEPTH
STOP.ft        7956.265999999999 : STOP DEPTH
STEP.ft        14.83744999999999 : STEP
NULL.                   -9999.25 : NULL VALUE
COMP.                            : COMPANY
WELL.                     bypass : WELL
FLD .                            : FIELD
LOC .                            : LOCATION
PROV.                            : PROVINCE
CNTY.                            : COUNTY
STAT.                            : STATE
CTRY.                            : COUNTRY
SRVC.                            : SERVICE COMPANY
DATE. 2019-07-30 20:43:21.016623 : DATE
UWI .                            : UNIQUE WELL ID
API .                            : API NUMBER
~Curve Information -----------------------------------------
Depth              .ft          : 
KICh               .psi*in^1/2  : 
KICvup             .psi*in^1/2  : 
KICvdown           .psi*in^1/2  : 
nuh                .            : 
Eh                 .psi         : 
nuv                .            : 
Ev                 .psi         : 
Gv                 .psi         : 
Cl                 .ft/min^1/2  : 
Sigma_h            .psi         : 
SigmaH             .psi         : 
SigmaV             .psi         : 
Pore Pressure      .psi         : 
Biot               .            : 
Porosity           .            : 
Permeability       .nD          : 
SoPhi              .            : 
TensileStrength    .psi         : 
Grad_SigmaH        .psi/ft      : 
Grad_Sigma_h       .psi/ft      : 
Std_KICh           .psi*in^1/2  : 
Std_KICvup         .psi*in^1/2  : 
Std_KICvdown       .psi*in^1/2  : 
Std_nuh            .            : 
Std_Eh             .psi         : 
Std_nuv            .            : 
Std_Ev             .psi         : 
Std_Gv             .psi         : 
Std_Cl             .ft/min^1/2  : 
Std_Sigma_h        .psi         : 
Std_SigmaH         .psi         : 
Std_SigmaV         .psi         : 
Std_Pore Pressure  .psi         : 
Std_Biot           .            : 
Std_Porosity       .            : 
Std_Permeability   .nD          : 
Std_SoPhi          .            : 
Std_TensileStrength.psi         : 
Std_Depth          .ft          : 
~Params ----------------------------------------------------
~Other -----------------------------------------------------
Exported from homogenization method
~ASCII -----------------------------------------------------
# ...
 6771.0862000000 2894.8785500062 4501.4282477967 3915.0718265760 0.2556197970 7932625.4460167428 0.2351263079 6975286.2204167126 2814425.6701751235 0.0007290222 4390.3901220232 5022.1598237160 7037.1478339346 2853.3727326625 0.9000000000 0.0472350368 829.8347991438 0.0000000000 1733.3924249917 0.7417066738 0.6484026332 22.1056054517 22.1056054517 22.1056054517 0.0058951730 120810.0512120320 0.0058264839 123946.8704831983 65588.7733100093 0.0000702349 0.1398587090 0.1400852518 0.0000000000 1545.8244621355 0.0000000000 0.0010015216 14.0481786556 0.0000000000 20.7627009303 6771.0862000000
 6783.5444000000 2938.2222129237 4807.3976343360 6370.8002449468 0.2514180672 7797989.2068634536 0.2363151323 7327802.7759611988 2961030.5729860477 0.0006420912 4304.2220339369 4927.3542558102 7050.9655661845 2888.0522285533 0.9000000000 0.0516087224 979.0501164026 0.0000000000 1724.7969832258 0.7263686895 0.6345093037 22.1210955079 22.1210955079 22.1210955079 0.0058958084 120839.6688833294 0.0057881533 123286.3014754866 65102.1150446329 0.0000700909 0.1395710545 0.1397982010 0.0000000000 1542.6807121439 0.0000000000 0.0010015211 14.0449466878 0.0000000000 20.8725973308 6783.5444000000
 6796.0026500000 2960.5870217836 4106.0680411650 4615.7884792017 0.2630506826 8211073.9676132286 0.2595694767 8145663.8528118590 3233409.5249057910 0.0006907571 4442.3809543895 5092.4794880876 7064.6749987651 2931.9882553592 0.9000000000 0.0463387265 687.3925105418 0.0000000000 1802.9778931638 0.7493345354 0.6536755771 22.6061594019 22.6061594019 22.6061594019 0.0060180205 123386.8529200655 0.0057519240 119602.5698537670 62225.1119115387 0.0000702320 0.1401061195 0.1403421003 0.0000000000 1547.7207411045 0.0000000000 0.0010223274 14.3616008128 0.0000000000 21.5043529209 6796.0026500000
 6808.4609000000 2814.1438993725 4489.3844318609 4413.6220170450 0.2106381426 6466498.4055648111 0.1907007869 5319320.8681314215 2230619.0159358256 0.0004773109 4111.1753605512 4645.3150161747 7078.2148424948 2972.9748548933 0.9000000000 0.0637010816 1607.6273737480 0.0000000000 1529.9839075063 0.6822856273 0.6038332923 19.9687231744 19.9687231744 19.9687231744 0.0053061644 63089.1531490218 0.0048230431 71253.9340432167 36287.4841771682 0.0001300885 0.1538989005 0.1539458974 0.0000000000 1546.3953865171 0.0000000000 0.0008991746 13.1586827467 0.0000000000 19.4640289318 6808.4609000000
 6823.5216500000 2957.2789258561 4960.5888524880 4082.7051877266 0.1538759041 3082195.2028352288 0.1189485346 2498988.6287844358 1111113.6457045767 0.0004805142 3510.8456645300 3777.9623615564 7093.5298758104 3000.5822990550 0.9000000000 0.0986579800 2531.9271019467 0.0000000000 1311.3549692779 0.5536675276 0.5145210706 18.7745542666 18.7745542666 18.7745542666 0.0044235133 61330.5778260283 0.0039510077 65444.4190597002 32252.0941311221 0.0001165157 0.1366107553 0.1366846235 0.0000000000 1377.2676629172 0.0000000000 0.0008458761 12.6193487269 0.0000000000 18.1894492079 6823.5216500000
 6841.1850000000 3096.0417482358 6645.1015573917 5243.9256868835 0.2188188095 4853914.4512971472 0.1525155072 3424541.3212152077 1466027.1095092553 0.0007544665 4038.9140962324 4437.1615152383 7111.1438024071 3010.0108549883 0.9000000000 0.0732996815 1644.2383976399 0.0000000000 1475.6518944911 0.6485954575 0.5903822359 18.7084180753 18.7084180753 18.7084180753 0.0049830391 102152.4571434163 0.0048153059 99742.9031362109 50210.3837430420 0.0000579501 0.1156754132 0.1158712973 0.0000000000 1277.5029136502 0.0000000000 0.0008465734 11.8862390855 0.0000000000 17.7286651171 6841.1850000000
 6858.8483500000 2950.0968442402 23705.4327875982 23701.5478135256 0.2574133536 7380639.7021718640 0.2551933630 7337616.8352953913 2922280.5928306249 0.0005184377 4445.3834878996 5032.3535308749 7130.3113070727 3017.7838908924 0.9000000000 0.0476422244 710.8892996299 0.0000000000 1791.8229571763 0.7337024051 0.6481238921 18.4280188296 18.4280188296 18.4280188296 0.0049130142 100687.8275838506 0.0048106825 99898.2571902746 50981.7888437732 0.0000575281 0.1147887647 0.1149804974 0.0000000000 1267.8260714533 0.0000000000 0.0008345191 11.7102804988 0.0000000000 17.3492637358 6858.8483500000
 6876.5116500000 2854.6991834755 3831.8403277388 4684.3064971637 0.2314978302 6309465.5831920952 0.2109960530 5301890.6083943527 2182105.2612121697 0.0007311099 4323.6773321620 4836.0181116872 7149.6806196107 3025.5550786093 0.9000000000 0.0554820790 1204.6483920093 0.0000000000 1632.3623194952 0.7032661846 0.6287602715 18.7795013001 18.7795013001 18.7795013001 0.0049833072 102288.5940425242 0.0046284919 90151.5712244007 43237.0270807387 0.0000831240 0.1216051282 0.1218982446 0.0000000000 1264.8375454803 0.0000000000 0.0008474878 12.0161252692 0.0000000000 18.2249728081 6876.5116500000
 6894.1750000000 2717.0002126828 4507.8565334606 5133.3217242683 0.1959089996 5205008.6400064891 0.1700606898 3940810.9022299140 1680780.5351016957 0.0007680978 4075.9983225537 4511.2328296752 7168.8638768880 3033.3263711403 0.9000000000 0.0632241407 1695.7802853907 0.0000000000 1484.9202419921 0.6543542671 0.5912235072 18.7498981988 18.7498981988 18.7498981988 0.0049843807 102231.8709766499 0.0047269025 97267.9853092174 46808.8906846119 0.0000859936 0.1251549104 0.1254393072 0.0000000000 1304.1958768638 0.0000000000 0.0008468607 11.8921851856 0.0000000000 18.0192821523 6894.1750000000
 6911.8383500000 2886.7336059910 6230.8983011664 5205.7546506259 0.2406234742 6292776.4556191284 0.2188494836 5577236.6990313502 2281580.9701169855 0.0005535071 4345.1110831598 4852.3380207733 7187.9644076093 3041.0995315711 0.9000000000 0.0531186639 1068.6234644745 0.0000000000 1672.0979842848 0.7020329144 0.6286476713 18.4585679582 18.4585679582 18.4585679582 0.0049134738 100746.2349533831 0.0048220230 103402.4684246338 49807.0794759005 0.0000880675 0.1275902207 0.1278611181 0.0000000000 1331.7990261116 0.0000000000 0.0008348575 11.7284361722 0.0000000000 17.5661186529 6911.8383500000
 6929.5016500000 2932.7647941363 5605.2435173237 4637.6740137359 0.2171437003 5491229.5659544552 0.2021070857 4884266.2686919561 2028374.3848335543 0.0006609991 4164.5694652388 4615.7265114230 7207.1186423549 3048.8707192880 0.9000000000 0.0636687415 1585.2987602238 0.0000000000 1585.2456296458 0.6660979021 0.6009911932 18.7373114138 18.7373114138 18.7373114138 0.0049840077 102207.7000818051 0.0048250392 101246.6516033821 48048.9709330467 0.0000874179 0.1269670430 0.1272472346 0.0000000000 1324.0474269001 0.0000000000 0.0008468043 11.9201788015 0.0000000000 17.9336830125 6929.5016500000
 6947.1650000000 2899.2357561075 5050.1767531826 6675.1842632863 0.2188875329 5791335.7451991029 0.2088328738 5271186.5018291622 2177784.0773932734 0.0005565476 4198.5675330449 4673.7004381656 7226.1682694477 3056.6419283943 0.9000000000 0.0613937153 1431.3711304374 0.0000000000 1626.3106053313 0.6727493068 0.6043569619 18.6782433617 18.6782433617 18.6782433617 0.0049828428 102094.7106046896 0.0049551862 102566.3154259242 52682.4948289172 0.0000586449 0.1170167652 0.1172101032 0.0000000000 1292.3531368412 0.0000000000 0.0008462027 11.8573170250 0.0000000000 17.5164310954 6947.1650000000
 6964.8283500000 2944.3390507305 21211.6948032777 24251.1436408350 0.2621868053 7342187.4763999628 0.2406152206 6727053.2780626435 2702734.7412368897 0.0007503864 4561.9027100711 5143.6064202788 7245.3769511140 3064.4151311476 0.9000000000 0.0470430444 803.2935244488 0.0000000000 1770.7623129974 0.7385115845 0.6549914055 18.7143437100 18.7143437100 18.7143437100 0.0049829337 102163.7874265975 0.0048121456 100157.2103060930 49730.2002837134 0.0000579081 0.1155790960 0.1157752084 0.0000000000 1276.5008434086 0.0000000000 0.0008466770 11.8991773450 0.0000000000 17.7706497969 6964.8283500000
 6982.4916500000 2867.8520496883 4138.0276533836 4597.2378911025 0.2432070699 6758834.8345965371 0.2301568484 6155925.0586471958 2497639.7758919410 0.0007442647 4442.2172446677 4985.8784736374 7264.8506118700 3072.1863599667 0.9000000000 0.0502433675 927.2060150469 0.0000000000 1707.8211765456 0.7140543410 0.6361937067 18.4254233109 18.4254233109 18.4254233109 0.0049127112 100682.8546518194 0.0048773988 103189.9492180141 52434.5047852622 0.0000580881 0.1157698195 0.1159599133 0.0000000000 1279.1505744660 0.0000000000 0.0008346490 11.7065090439 0.0000000000 17.3312242921 6982.4916500000
