~Version ---------------------------------------------------
VERS.   2.0 : CWLS log ASCII Standard -VERSION 2.0
WRAP.    NO : One line per depth step
DLM . SPACE : Column Data Section Delimiter
~Well ------------------------------------------------------
STRT.ft               6185.69585 : START DEPTH
STOP.ft        7989.874549999998 : STOP DEPTH
STEP.ft       13.981649999999718 : STEP
NULL.                   -9999.25 : NULL VALUE
COMP.                            : COMPANY
WELL.                     bypass : WELL
FLD .                            : FIELD
LOC .                            : LOCATION
PROV.                            : PROVINCE
CNTY.                            : COUNTY
STAT.                            : STATE
CTRY.                            : COUNTRY
SRVC.                            : SERVICE COMPANY
DATE. 2019-07-30 20:43:31.349442 : DATE
UWI .                            : UNIQUE WELL ID
API .                            : API NUMBER
~Curve Information -----------------------------------------
Depth              .ft          : 
KICh               .psi*in^1/2  : 
KICvup             .psi*in^1/2  : 
KICvdown           .psi*in^1/2  : 
nuh                .            : 
Eh                 .psi         : 
nuv                .            : 
Ev                 .psi         : 
Gv                 .psi         : 
Cl                 .ft/min^1/2  : 
Sigma_h            .psi         : 
SigmaH             .psi         : 
SigmaV             .psi         : 
Pore Pressure      .psi         : 
Biot               .            : 
Porosity           .            : 
Permeability       .nD          : 
SoPhi              .            : 
TensileStrength    .psi         : 
Grad_SigmaH        .psi/ft      : 
Grad_Sigma_h       .psi/ft      : 
Std_KICh           .psi*in^1/2  : 
Std_KICvup         .psi*in^1/2  : 
Std_KICvdown       .psi*in^1/2  : 
Std_nuh            .            : 
Std_Eh             .psi         : 
Std_nuv            .            : 
Std_Ev             .psi         : 
Std_Gv             .psi         : 
Std_Cl             .ft/min^1/2  : 
Std_Sigma_h        .psi         : 
Std_SigmaH         .psi         : 
Std_SigmaV         .psi         : 
Std_Pore Pressure  .psi         : 
Std_Biot           .            : 
Std_Porosity       .            : 
Std_Permeability   .nD          : 
Std_SoPhi          .            : 
Std_TensileStrength.psi         : 
Std_Depth          .ft          : 
~Params ----------------------------------------------------
~Other -----------------------------------------------------
Exported from homogenization method
~ASCII -----------------------------------------------------
# ...
 7678.2004500000 2580.7016948470 3453.4269965197 3135.6597926130 0.2164271022 6514434.9248095741 0.1998122933 4609108.3584891008 1920450.0182635491 0.0001808635 5479.8117805766 6015.3502368367 8049.2759201345 4222.8728833049 0.9000000000 0.0444804085 1090.8988873897 0.0000000000 1588.2813445424 0.7834322998 0.7136843869 19.3355462943 19.3355462943 19.3355462943 0.0051309120 105333.6699919926 0.0048979191 89464.5680637125 43163.2669575622 0.0000692310 0.1207347739 0.1209500886 0.0000000000 1311.7848050228 0.0000000000 0.0008735746 12.3881747975 0.0000000000 18.7386609199 7678.2004500000
 7694.6801500000 2518.4191887809 3959.7778058145 3550.2809332267 0.2164285243 6707318.9149525296 0.1985326204 4430555.5914537525 1847710.9279933826 0.0002419865 5594.7471173027 6146.1415298101 8067.9177297680 4231.9367045517 0.9000000000 0.0393886186 1028.6789883924 0.0000000000 1600.1974454168 0.7987520482 0.7270928756 19.7012471762 19.7012471762 19.7012471762 0.0052107592 107093.3562057548 0.0047675170 74842.6744434239 36865.1223175088 0.0001008147 0.1328135042 0.1330562081 0.0000000000 1407.7092313215 0.0000000000 0.0008886037 12.9540482056 0.0000000000 19.4795648729 7694.6801500000
 7710.6755500000 2426.8930963789 4625.7844327312 4877.4714254933 0.1946367257 6296466.5101948688 0.1683677059 3710618.4751275745 1587693.5913284698 0.0005224794 5458.5958555194 5985.6570428011 8086.1880504762 4240.7339834054 0.9000000000 0.0443303101 1558.9036844893 0.0000000000 1481.4311637556 0.7762817932 0.7079270578 20.0446173289 20.0446173289 20.0446173289 0.0052941048 108861.0284744838 0.0045813282 72248.7569192677 35390.0213068283 0.0001001081 0.1318476920 0.1321004012 0.0000000000 1397.7705978384 0.0000000000 0.0009026306 13.5591754114 0.0000000000 19.9810837481 7710.6755500000
 7726.1866000000 2409.4102239308 5474.0936592925 4168.8315587522 0.1890395986 6331181.9336073613 0.1636926578 3708153.8967561913 1593025.7393944922 0.0005253886 5423.3200170439 5955.7818409456 8103.6569885753 4249.2650572175 0.9000000000 0.0462784617 1686.3601550808 0.0000000000 1455.6502495175 0.7708565880 0.7019400770 20.0306410886 20.0306410886 20.0306410886 0.0052940828 108834.1693204550 0.0046982258 75390.4765451360 37174.0728950785 0.0001018913 0.1340059073 0.1342543835 0.0000000000 1421.3453970608 0.0000000000 0.0009026718 13.3953606892 0.0000000000 19.8866123983 7726.1866000000
 7741.6976500000 2464.0281590334 4255.3532782039 4774.6854264300 0.1897730362 6107003.1057414664 0.1611221712 3707557.5057898015 1595898.4884658318 0.0006046372 5357.1493319801 5870.4407682492 8121.1839913581 4257.7961297071 0.9000000000 0.0514916906 1801.0884006888 0.0000000000 1432.8136901676 0.7582885607 0.6919863800 20.0518554488 20.0518554488 20.0518554488 0.0052944138 108874.9518165847 0.0044770148 73094.8113279385 35764.1336559932 0.0001002475 0.1317060445 0.1319591037 0.0000000000 1397.6108675179 0.0000000000 0.0009023816 13.6036250647 0.0000000000 20.0295909163 7741.6976500000
 7757.2087000000 2383.5544072717 2664.8935721045 2655.8981430868 0.1758420664 5984163.4614742287 0.1469293729 3477498.8095751754 1515819.7493013146 0.0005112933 5267.0581409314 5775.9839254717 8138.4213295777 4266.3272035974 0.9000000000 0.0537911096 2181.1953412195 0.0000000000 1364.9219501778 0.7445956592 0.6789888405 20.0548247281 20.0548247281 20.0548247281 0.0052942613 108880.6651247950 0.0044827360 72621.7961061353 35656.6424609156 0.0001001670 0.1316641500 0.1319173325 0.0000000000 1396.9329251209 0.0000000000 0.0009025577 13.6997543088 0.0000000000 20.0494412596 7757.2087000000
 7772.7197500000 2424.3958473477 3044.8689282570 3063.2562088525 0.1815985439 5982955.1300907955 0.1527911982 3526185.4935916588 1529358.0689536007 0.0005369847 5324.4530437647 5830.7971960037 8155.7021480933 4274.8582760088 0.9000000000 0.0533452488 2008.9607450139 0.0000000000 1390.2947822388 0.7501617688 0.6850180136 20.0596102772 20.0596102772 20.0596102772 0.0052951019 108889.8722989341 0.0043852414 71094.4676943276 34678.0920444922 0.0000990142 0.1301685418 0.1304246557 0.0000000000 1380.9692545316 0.0000000000 0.0009021448 13.4587114223 0.0000000000 20.0814620879 7772.7197500000
 7788.2308000000 2460.2556661972 3493.5847971312 2811.5881012062 0.1782140398 5758208.9334092792 0.1460275350 3409493.2787455069 1486345.8061233466 0.0005090971 5256.8264397304 5745.5499431742 8172.7944358370 4283.3893499774 0.9000000000 0.0587098610 2155.7009713715 0.0000000000 1352.8909413390 0.7377220951 0.6749705517 20.0429524303 20.0429524303 20.0429524303 0.0052947163 108857.8262839834 0.0044827713 75638.5739465882 36962.4679619994 0.0001012944 0.1327641710 0.1330150953 0.0000000000 1410.0628478245 0.0000000000 0.0009020353 13.3851021286 0.0000000000 19.9699134242 7788.2308000000
 7803.7418500000 2435.4371170206 3016.2789773140 2808.1931052745 0.1797156473 5989623.2479437161 0.1506188968 3596648.9493047632 1562590.7843708454 0.0005160212 5297.1465818891 5804.8641205595 8189.8740670695 4291.9204223105 0.9000000000 0.0556449760 2099.2442868003 0.0000000000 1374.8274423612 0.7438565027 0.6787957218 20.0467260391 20.0467260391 20.0467260391 0.0052942537 108865.0852483425 0.0045170724 74846.4311805046 36769.1456644389 0.0001012093 0.1328118933 0.1330627919 0.0000000000 1409.9593533384 0.0000000000 0.0009024412 13.5559263087 0.0000000000 19.9952025639 7803.7418500000
 7819.2529000000 2411.8833766587 3422.4955783424 3091.7061464629 0.1831769822 6128804.1711438559 0.1554394775 3603530.0736190206 1559187.4454571737 0.0006072283 5390.1647636037 5908.1603182472 8207.1352027614 4300.4516452840 0.9000000000 0.0510846896 1944.7478525716 0.0000000000 1407.2293508093 0.7555914093 0.6893452396 20.0712430485 20.0712430485 20.0712430485 0.0052945958 108912.2693749497 0.0044067898 67563.4195830580 33220.1177164783 0.0000978689 0.1291340132 0.1293923429 0.0000000000 1368.2000723040 0.0000000000 0.0009027369 13.8821694215 0.0000000000 20.1588099498 7819.2529000000
 7834.7639500000 2366.6509165208 3178.5152559549 3763.2647259932 0.1658604138 5533093.8696639845 0.1302993416 2948520.6776049258 1303645.1287460490 0.0003014503 5246.4902587139 5721.0834264859 8224.3899296735 4308.9827654067 0.9000000000 0.0587555832 2456.3580973514 0.0000000000 1286.7348999645 0.7302177147 0.6696424158 20.0670995191 20.0670995191 20.0670995191 0.0052949762 108904.3000432330 0.0043738015 69785.8283639421 34207.0140245275 0.0000985928 0.1297458720 0.1300029186 0.0000000000 1376.0060753181 0.0000000000 0.0009024494 13.6279423458 0.0000000000 20.1310060889 7834.7639500000
 7850.2750000000 2401.4148132445 3342.2657438937 3035.7124321718 0.1834531093 6095661.2625286384 0.1559771632 3539719.7132249488 1530743.6448378391 0.0005338186 5434.3597660347 5949.4339345376 8241.5751180172 4317.5138377603 0.9000000000 0.0498993986 1920.1070002306 0.0000000000 1412.4471133630 0.7578631238 0.6922508786 20.0450882514 20.0450882514 20.0450882514 0.0052942233 108861.9620099090 0.0045560256 71122.4529727015 34766.5172208014 0.0000994953 0.1311431924 0.1313972581 0.0000000000 1389.9033435657 0.0000000000 0.0009025411 13.5867296308 0.0000000000 19.9833710296 7850.2750000000
 7865.7860500000 2418.9126195795 4219.6226694202 4255.0082814368 0.1780224365 5684251.2988789510 0.1446384583 3193568.1299021477 1394313.6090327632 0.0005238805 5365.1690940793 5847.6939699008 8258.9087647305 4326.0449117084 0.9000000000 0.0552890357 2196.5550356203 0.0000000000 1358.6586626201 0.7434341505 0.6820893754 20.0695350545 20.0695350545 20.0695350545 0.0052944919 108908.9809766278 0.0044049498 68283.8941219105 33494.9598979657 0.0000981507 0.1294137412 0.1296714959 0.0000000000 1371.5355559312 0.0000000000 0.0009027324 13.9335539839 0.0000000000 20.1474437529 7865.7860500000
 7881.2971000000 2378.2811975818 4340.9591012870 4235.4277478559 0.1804707700 5943910.3672347385 0.1506421827 3309402.3509331401 1437631.3095708571 0.0005431156 5456.4172345440 5959.9375688126 8276.1881385340 4334.5759841403 0.9000000000 0.0495787898 2039.2993665413 0.0000000000 1397.4522778499 0.7562127773 0.6923247741 20.0547524642 20.0547524642 20.0547524642 0.0052940787 108880.5343912877 0.0045191590 69493.2129379218 34034.9567376229 0.0000988323 0.1303970376 0.1306526817 0.0000000000 1381.5446447440 0.0000000000 0.0009027950 13.7918898696 0.0000000000 20.0487012960 7881.2971000000
