~Version ---------------------------------------------------
VERS.   2.0 : CWLS log ASCII Standard -VERSION 2.0
WRAP.    NO : One line per depth step
DLM . SPACE : Column Data Section Delimiter
~Well ------------------------------------------------------
STRT.ft               6185.69585 : START DEPTH
STOP.ft        7989.874549999998 : STOP DEPTH
STEP.ft       13.981649999999718 : STEP
NULL.                   -9999.25 : NULL VALUE
COMP.                            : COMPANY
WELL.                     bypass : WELL
FLD .                            : FIELD
LOC .                            : LOCATION
PROV.                            : PROVINCE
CNTY.                            : COUNTY
STAT.                            : STATE
CTRY.                            : COUNTRY
SRVC.                            : SERVICE COMPANY
DATE. 2019-07-30 20:43:31.349442 : DATE
UWI .                            : UNIQUE WELL ID
API .                            : API NUMBER
~Curve Information -----------------------------------------
Depth              .ft          : 
KICh               .psi*in^1/2  : 
KICvup             .psi*in^1/2  : 
KICvdown           .psi*in^1/2  : 
nuh                .            : 
Eh                 .psi         : 
nuv                .            : 
Ev                 .psi         : 
Gv                 .psi         : 
Cl                 .ft/min^1/2  : 
Sigma_h            .psi         : 
SigmaH             .psi         : 
SigmaV             .psi         : 
Pore Pressure      .psi         : 
Biot               .            : 
Porosity           .            : 
Permeability       .nD          : 
SoPhi              .            : 
TensileStrength    .psi         : 
Grad_SigmaH        .psi/ft      : 
Grad_Sigma_h       .psi/ft      : 
Std_KICh           .psi*in^1/2  : 
Std_KICvup         .psi*in^1/2  : 
Std_KICvdown       .psi*in^1/2  : 
Std_nuh            .            : 
Std_Eh             .psi         : 
Std_nuv            .            : 
Std_Ev             .psi         : 
Std_Gv             .psi         : 
Std_Cl             .ft/min^1/2  : 
Std_Sigma_h        .psi         : 
Std_SigmaH         .psi         : 
Std_SigmaV         .psi         : 
Std_Pore Pressure  .psi         : 
Std_Biot           .            : 
Std_Porosity       .            : 
Std_Permeability   .nD          : 
Std_SoPhi          .            : 
Std_TensileStrength.psi         : 
Std_Depth          .ft          : 
~Params ----------------------------------------------------
~Other -----------------------------------------------------
Exported from homogenization method
~ASCII -----------------------------------------------------
# ...
 6763.9217500000 2838.4351511986 4799.6240997442 4203.6793782565 0.2513182237 8249591.7007855838 0.2448266443 7781168.0433482165 3122222.5285882051 0.0006904450 4323.7410879428 4983.0131695307 7012.2732457782 2842.4480505150 0.9000000000 0.0445169509 720.8486739781 0.0000000000 1755.7098716261 0.7367047334 0.6392358232 21.7415258443 21.7415258443 21.7415258443 0.0057807823 118588.8129054049 0.0056033516 114889.1229769818 59221.2874368044 0.0000823500 0.1423755696 0.1426068750 0.0000000000 1551.9062113176 0.0000000000 0.0009830746 13.9020772292 0.0000000000 20.8165271319 6763.9217500000
 6776.7041000000 2734.2573311825 5111.9968865193 4060.0499545760 0.2386918000 7846348.3002338698 0.2161663203 6410792.1124129789 2626463.8630759884 0.0007240742 4324.0586152483 4957.4969168795 7026.5301851879 2867.1168868387 0.9000000000 0.0449604008 897.9652757775 0.0000000000 1683.8673308721 0.7315498572 0.6380769400 22.1030468976 22.1030468976 22.1030468976 0.0058950140 120805.1788926935 0.0058504985 121984.6964985489 66228.0244049025 0.0000628573 0.1672764368 0.1674264056 0.0000000000 1995.2967352450 0.0000000000 0.0010016793 14.0416273727 0.0000000000 20.7438320495 6776.7041000000
 6789.4864500000 2786.7470514925 4557.4420370956 5403.3317325412 0.2487038997 7852867.9408395588 0.2185377571 6296838.0017523188 2573734.1107821711 0.0003581820 4430.6866235270 5059.5681335928 7040.8977793346 2908.6108571391 0.9000000000 0.0450590756 890.3586970002 0.0000000000 1706.9184180171 0.7452063084 0.6525805237 21.7507707939 21.7507707939 21.7507707939 0.0057808125 118606.5288654857 0.0055515257 109949.3435992466 56145.3068245184 0.0000808950 0.1402266596 0.1404616032 0.0000000000 1527.0065680808 0.0000000000 0.0009832717 13.9133032794 0.0000000000 20.8806706718 6789.4864500000
 6802.2688000000 2757.6896230974 6778.3040195583 5461.9496550553 0.2467871765 7700187.4466468887 0.2315147732 6546906.4155458855 2652343.7814925713 0.0006967058 4450.3602781739 5067.9626718942 7055.2259947873 2953.7179773795 0.9000000000 0.0425527023 767.7785614609 0.0000000000 1720.5234838524 0.7450400478 0.6542464594 20.3073951265 20.3073951265 20.3073951265 0.0053849025 110528.8673548244 0.0048628184 93282.0599917115 45047.6158466826 0.0001110838 0.1440183095 0.1442564944 0.0000000000 1535.6821889735 0.0000000000 0.0009153587 12.9384199210 0.0000000000 19.8440415841 6802.2688000000
 6817.0035500000 2693.1326765057 4777.6185645424 5490.4740738541 0.1723292511 4280748.9641721444 0.1350340821 2848254.9956383505 1252612.2164865171 0.0006822431 3842.7355968379 4207.8846332522 7071.1769679469 2992.2469596696 0.9000000000 0.0771606242 2053.8036955920 0.0000000000 1305.9283616720 0.6172630838 0.5636986351 19.3854755045 19.3854755045 19.3854755045 0.0051350689 105429.5367365993 0.0045960412 83411.6869413847 40545.8815392889 0.0001032718 0.1345248641 0.1347569142 0.0000000000 1431.9044630892 0.0000000000 0.0008730032 12.4357168594 0.0000000000 19.0789482514 6817.0035500000
 6833.6907000000 2607.7134916637 5213.0732587010 4107.3142723613 0.2226179938 7101375.7043318897 0.1931896073 5139467.0863936031 2148393.3302065660 0.0005263414 4377.5016079540 4958.3351749646 7089.0936399178 3006.7134189079 0.9000000000 0.0446715092 1075.3295051792 0.0000000000 1621.3409941955 0.7255720800 0.6405764908 19.2620518658 19.2620518658 19.2620518658 0.0051309140 105193.0112508574 0.0050645451 103546.7975141172 54573.2621790763 0.0000544773 0.1450859854 0.1452171470 0.0000000000 1730.2955389239 0.0000000000 0.0008723218 12.2727132785 0.0000000000 18.2221742978 6833.6907000000
 6850.3778500000 2818.6772619982 20645.1972775768 23877.0820203484 0.2682930842 8153372.6133530848 0.2543593960 7465172.2199638747 2968477.6409833906 0.0007440497 4617.0897419573 5259.9516100019 7108.0283211108 3014.0568566138 0.9000000000 0.0368013863 525.3329518284 0.0000000000 1811.5076618191 0.7678337933 0.6739905218 19.0137387144 19.0137387144 19.0137387144 0.0050549688 103705.3978704931 0.0049067888 98807.4119159461 49627.8267873803 0.0000711862 0.1232746594 0.1234789639 0.0000000000 1342.8445621043 0.0000000000 0.0008598986 12.1302780273 0.0000000000 18.2145505554 6850.3778500000
 6867.0650000000 2679.4812612480 4332.2709437225 3845.0535449485 0.2394549029 7480610.9045018377 0.2288106597 5951665.4991660388 2419482.7815529020 0.0007708680 4575.9932805146 5179.5336664721 7126.8571324438 3021.3982791601 0.9000000000 0.0396415280 736.9031719565 0.0000000000 1699.4742402893 0.7542572651 0.6663681326 19.2779800818 19.2779800818 19.2779800818 0.0051308835 105223.4070117806 0.0051082512 109099.8794053524 55145.2418596495 0.0000546682 0.1454392391 0.1455701973 0.0000000000 1735.0888649220 0.0000000000 0.0008728793 12.2407625986 0.0000000000 18.3372803178 6867.0650000000
 6883.7521500000 2742.0697887772 20783.9946522051 22370.0770880689 0.2637353620 8075916.2212066501 0.2553539742 7103916.5975290388 2822515.8495722767 0.0005253521 4697.5058862984 5336.5571041652 7146.0055302553 3028.7409637385 0.9000000000 0.0330625370 464.3910817713 0.0000000000 1803.4402128035 0.7752395769 0.6824048548 19.2780537103 19.2780537103 19.2780537103 0.0051309347 105223.5667601714 0.0050639864 104043.7605936182 53097.8264721233 0.0000543642 0.1447911067 0.1449226497 0.0000000000 1726.7751079398 0.0000000000 0.0008725585 12.2623543860 0.0000000000 18.3371010840 6883.7521500000
 6900.4393000000 2803.0611912863 24218.7588758922 22429.3907152843 0.2660366544 8097872.6048519230 0.2576137328 7404991.5491704838 2940524.7878310937 0.0007629986 4665.7183062921 5305.3421731508 7164.9575138329 3036.0835916151 0.9000000000 0.0363805674 516.7443657398 0.0000000000 1804.5860612203 0.7688412205 0.6761480108 18.9805453051 18.9805453051 18.9805453051 0.0050548556 103641.8565403995 0.0050268364 107198.5543523689 54728.7594541992 0.0000538659 0.1433057625 0.1434346767 0.0000000000 1709.6344340596 0.0000000000 0.0008595358 12.0616130589 0.0000000000 17.9817619897 6900.4393000000
 6917.1264500000 2737.6599149167 22274.4108731739 23632.8959641682 0.2492068846 7768512.9299925258 0.2419625351 6789511.7535067322 2729829.8358055484 0.0004918816 4584.5356056472 5206.4112153225 7183.9291037443 3043.4250141726 0.9000000000 0.0389581735 631.1628426273 0.0000000000 1747.9550978074 0.7526841172 0.6627803668 19.3054296918 19.3054296918 19.3054296918 0.0051310111 105275.9893621179 0.0050271298 100196.8323309411 49721.4157159923 0.0000721405 0.1250238751 0.1252314867 0.0000000000 1361.4642646287 0.0000000000 0.0008730078 12.3169332043 0.0000000000 18.5284820216 6917.1264500000
 6933.8135500000 2686.2882825284 4435.4488215797 4983.1101855316 0.2268335271 6998561.0875542974 0.2175688367 5699070.2656579167 2337580.8687880007 0.0008003997 4453.2503011097 5023.7075745056 7202.7690283435 3050.7684863158 0.9000000000 0.0456116894 929.4786706226 0.0000000000 1654.0620977777 0.7245230259 0.6422512329 19.0135324982 19.0135324982 19.0135324982 0.0050550438 103705.0067095282 0.0049470056 103648.1323200685 51838.2400927954 0.0000724027 0.1250234191 0.1252248658 0.0000000000 1363.3352351671 0.0000000000 0.0008598275 12.1318103040 0.0000000000 18.2129820037 6933.8135500000
 6950.5007000000 2760.3129591604 26301.8686007344 22280.6222465661 0.2578576754 7921153.3733014790 0.2421790979 6842034.8196054809 2750612.6351234624 0.0007341899 4659.6392637461 5289.3729393446 7221.4901064009 3058.1103045448 0.9000000000 0.0383083814 640.2747565711 0.0000000000 1762.5217466733 0.7610060293 0.6704033946 19.2476534756 19.2476534756 19.2476534756 0.0051308621 105165.4037905384 0.0051198233 110079.0923677772 56830.2696096667 0.0000547611 0.1456413994 0.1457719591 0.0000000000 1737.6187121181 0.0000000000 0.0008722100 12.2170618126 0.0000000000 18.1227726326 6950.5007000000
 6967.1878500000 2796.9124883989 5584.5679493217 5326.2376130498 0.2705031684 8201315.0566543210 0.2585599793 7542220.3518135697 2990831.1898152521 0.0005144918 4725.5121456866 5371.0292337510 7240.5555347369 3065.4521412348 0.9000000000 0.0346758477 478.4510032689 0.0000000000 1825.1965661361 0.7709034620 0.6782524381 19.2957022664 19.2957022664 19.2957022664 0.0051310015 105257.4035728229 0.0050369201 101048.1403949315 51738.5248028927 0.0000728119 0.1260717464 0.1262775316 0.0000000000 1373.3653804554 0.0000000000 0.0008729014 12.3116711481 0.0000000000 18.4589819990 6967.1878500000
