~Version ---------------------------------------------------
VERS.   2.0 : CWLS log ASCII Standard -VERSION 2.0
WRAP.    NO : One line per depth step
DLM . SPACE : Column Data Section Delimiter
~Well ------------------------------------------------------
STRT.ft                 5533.575 : START DEPTH
STOP.ft        7763.808250000001 : STOP DEPTH
STEP.ft       14.590000000000146 : STEP
NULL.                   -9999.25 : NULL VALUE
COMP.                            : COMPANY
WELL.                     bypass : WELL
FLD .                            : FIELD
LOC .                            : LOCATION
PROV.                            : PROVINCE
CNTY.                            : COUNTY
STAT.                            : STATE
CTRY.                            : COUNTRY
SRVC.                            : SERVICE COMPANY
DATE. 2019-07-30 20:43:20.008820 : DATE
UWI .                            : UNIQUE WELL ID
API .                            : API NUMBER
~Curve Information -----------------------------------------
Depth              .ft          : 
KICh               .psi*in^1/2  : 
KICvup             .psi*in^1/2  : 
KICvdown           .psi*in^1/2  : 
nuh                .            : 
Eh                 .psi         : 
nuv                .            : 
Ev                 .psi         : 
Gv                 .psi         : 
Cl                 .ft/min^1/2  : 
Sigma_h            .psi         : 
SigmaH             .psi         : 
SigmaV             .psi         : 
Pore Pressure      .psi         : 
Biot               .            : 
Porosity           .            : 
Permeability       .nD          : 
SoPhi              .            : 
TensileStrength    .psi         : 
Grad_SigmaH        .psi/ft      : 
Grad_Sigma_h       .psi/ft      : 
Std_KICh           .psi*in^1/2  : 
Std_KICvup         .psi*in^1/2  : 
Std_KICvdown       .psi*in^1/2  : 
Std_nuh            .            : 
Std_Eh             .psi         : 
Std_nuv            .            : 
Std_Ev             .psi         : 
Std_Gv             .psi         : 
Std_Cl             .ft/min^1/2  : 
Std_Sigma_h        .psi         : 
Std_SigmaH         .psi         : 
Std_SigmaV         .psi         : 
Std_Pore Pressure  .psi         : 
Std_Biot           .            : 
Std_Porosity       .            : 
Std_Permeability   .nD          : 
Std_SoPhi          .            : 
Std_TensileStrength.psi         : 
Std_Depth          .ft          : 
~Params ----------------------------------------------------
~Other -----------------------------------------------------
Exported from homogenization method
~ASCII -----------------------------------------------------
# ...
 6346.2977000000 2750.0650676758 3254.9985149795 3658.5165950010 0.2243573292 5915821.9428471616 0.2149972480 4937073.8331599450 2030717.3583993681 0.0005272254 3937.3741390861 4420.5518684692 6610.4537138694 2665.3403209316 0.9000000000 0.0510787334 1070.1706259963 0.0000000000 1632.9510066128 0.6965560201 0.6204206492 20.2633044651 20.2633044651 20.2633044651 0.0053818160 110444.2391549320 0.0051869212 99584.5497932995 47452.6317405365 0.0000819436 0.1309791493 0.1312267866 0.0000000000 1442.7258641931 0.0000000000 0.0009154336 12.9556822545 0.0000000000 19.5426076329 6346.2977000000
 6361.0859000000 2639.9913952350 3321.6006032434 3124.2121763403 0.2082958708 6073769.5228047660 0.1975509712 4392207.1016964167 1833774.9431503648 0.0005613859 3993.6245264843 4496.2968991733 6626.7929368548 2671.5503748935 0.9000000000 0.0501998354 1190.7744613247 0.0000000000 1577.8684840532 0.7068442354 0.6278211911 20.6243818089 20.6243818089 20.6243818089 0.0054738455 112360.4206204634 0.0052330748 96801.1222452672 46514.8121305220 0.0000821732 0.1317045217 0.1319594534 0.0000000000 1449.2594074906 0.0000000000 0.0009312926 13.2145109800 0.0000000000 19.9786965376 6361.0859000000
 6375.6650000000 2726.2685108273 4278.4728266776 3510.3375407876 0.2241832395 6148354.4640287859 0.2146577506 5017717.3017561724 2064884.6407766012 0.0005298177 3990.2193321947 4492.4606850837 6642.9433085103 2677.6749269311 0.9000000000 0.0495362895 1038.2247712838 0.0000000000 1635.0338959130 0.7046262131 0.6258514731 20.5881704504 20.5881704504 20.5881704504 0.0054735924 112291.0319238038 0.0053456334 107208.6655522097 50713.7961887736 0.0000850019 0.1353976232 0.1356452082 0.0000000000 1493.3020005233 0.0000000000 0.0009308907 13.1190876319 0.0000000000 19.7272532850 6375.6650000000
 6390.0350000000 2763.9119986402 3938.3899126909 3547.9073838601 0.2312674458 5959429.9913797723 0.2228992149 5025781.3298327466 2054606.9350147420 0.0003313998 4019.9979711737 4504.0057317636 6658.8994426758 2683.7098329854 0.9000000000 0.0489164943 967.0075528101 0.0000000000 1657.1807133836 0.7048483665 0.6291042179 20.9552880768 20.9552880768 20.9552880768 0.0055707314 114283.7986481438 0.0054362737 110748.8685743514 52051.1942453849 0.0000868933 0.1382505382 0.1385016980 0.0000000000 1525.4403024180 0.0000000000 0.0009472350 13.3559542617 0.0000000000 20.0954211017 6390.0350000000
 6404.4050000000 2759.0818618894 3357.0604837552 3465.6969384812 0.2137837988 5484457.9256445309 0.2053342399 4718311.9586600084 1957030.4522837950 0.0005157519 3835.0191709621 4286.8671797180 6674.7438725320 2689.7447390397 0.9000000000 0.0565035908 1283.9172717952 0.0000000000 1594.1051744070 0.6693622873 0.5988095960 20.6047304276 20.6047304276 20.6047304276 0.0054741192 112322.7557005326 0.0052666442 104807.6222402734 49452.9809287465 0.0000841775 0.1342029050 0.1344528640 0.0000000000 1479.6786341010 0.0000000000 0.0009308662 13.1482009077 0.0000000000 19.8425439129 6404.4050000000
 6418.7750000000 2713.5699133165 3185.2206161952 3521.7733059684 0.2198897438 5964044.9706949750 0.2086228469 4735202.5170630366 1958297.2732189198 0.0003380429 4000.3293983760 4489.2297273592 6690.5204693842 2695.7802296451 0.9000000000 0.0509037044 1116.8417218122 0.0000000000 1610.8909498908 0.6993904175 0.6232231849 20.6043597844 20.6043597844 20.6043597844 0.0054738160 112322.0386751549 0.0052684576 103901.1922911782 49172.6667175765 0.0000839657 0.1339528772 0.1342033074 0.0000000000 1476.5578203941 0.0000000000 0.0009309673 13.1571355796 0.0000000000 19.8402062888 6418.7750000000
 6433.1450000000 2744.2740576800 3201.5189457196 3172.7332673862 0.2211999354 5807505.0350870546 0.2120834378 4824701.7933434080 1990144.4483805113 0.0005437044 3967.9350793947 4443.4923461906 6706.3717975452 2701.8164509395 0.9000000000 0.0523492090 1126.2622090198 0.0000000000 1616.9728327983 0.6907185127 0.6167955299 20.5960170268 20.5960170268 20.5960170268 0.0054738184 112306.0630527339 0.0052991994 106193.9788607841 50327.9495598358 0.0000846946 0.1349326184 0.1351811378 0.0000000000 1488.1070111816 0.0000000000 0.0009308560 13.1394516884 0.0000000000 19.7818956014 6433.1450000000
 6447.5150000000 2732.9058493719 3693.9514446355 3339.0382148724 0.2237301801 6140545.5602622936 0.2157497183 5050770.3498351509 2076453.7315716862 0.0002652542 4029.6546416660 4531.4438154742 6722.2253799201 2707.8513569937 0.9000000000 0.0498264958 1035.6654799687 0.0000000000 1635.6412710975 0.7028202052 0.6249934497 20.6127995313 20.6127995313 20.6127995313 0.0054738647 112338.2160233546 0.0052299285 100731.4850807244 48123.0246088875 0.0000831613 0.1329053330 0.1331578301 0.0000000000 1464.0559067239 0.0000000000 0.0009311204 13.1710422712 0.0000000000 19.8986353678 6447.5150000000
 6462.3903000000 2699.9235325267 3534.3468088697 3517.3926516522 0.2179052219 6263601.0442210408 0.2060009589 4800912.1082991054 1990206.5051055206 0.0006684438 4062.2873439191 4576.5803226739 6738.7090837701 2714.0985683263 0.9000000000 0.0505901294 1140.7137704463 0.0000000000 1599.7285818912 0.7081869262 0.6286044568 19.9553971192 19.9553971192 19.9553971192 0.0052945563 108689.6773917006 0.0049760670 92451.4416863153 44512.7563950020 0.0000790649 0.1267034782 0.1269514534 0.0000000000 1394.3639779541 0.0000000000 0.0009007597 12.7855068625 0.0000000000 19.3744459224 6462.3903000000
 6477.7708500000 2691.1186973120 3954.9377390414 3887.5296221062 0.2117271271 6009025.3960265713 0.1958333808 4571549.6198470471 1910834.6295242158 0.0005919536 3988.2650109284 4484.1708350823 6755.6584573838 2720.5585403595 0.9000000000 0.0538032121 1299.0610334182 0.0000000000 1566.2703719120 0.6922398058 0.6156847939 19.9283716063 19.9283716063 19.9283716063 0.0052942950 108637.8785111460 0.0050950884 101744.3911637352 48851.0713031869 0.0000818516 0.1304273205 0.1306679267 0.0000000000 1438.3606752796 0.0000000000 0.0009004645 12.7249205441 0.0000000000 19.1872102434 6477.7708500000
 6493.1514000000 2693.7148855484 3128.1690164848 3686.4043651632 0.2121702067 6138279.6419026861 0.1955185895 4709084.3556593340 1967046.7064764039 0.0006444375 3987.6270691707 4494.0146711907 6772.6391907410 2727.0190816353 0.9000000000 0.0537235735 1283.7127387611 0.0000000000 1572.1680761510 0.6921161073 0.6141281519 19.9637179023 19.9637179023 19.9637179023 0.0052947609 108705.6369897226 0.0049099808 91218.9948002373 43932.5730521177 0.0000786603 0.1260733849 0.1263226891 0.0000000000 1387.4044758928 0.0000000000 0.0009007455 12.8139828800 0.0000000000 19.4317028687 6493.1514000000
 6508.5319500000 2725.4543528889 5520.5311857303 4484.2587313812 0.2263190608 6548013.6349247741 0.1982651985 5035638.4728577938 2093560.5891538661 0.0005996010 4059.0637794513 4593.0205484638 6789.5098402731 2733.4785232600 0.9000000000 0.0506854567 1192.3132052951 0.0000000000 1607.6795835191 0.7056922488 0.6236527393 20.2704752801 20.2704752801 20.2704752801 0.0053827589 110458.0488683342 0.0050025408 100217.2986668426 49095.7233459834 0.0000823509 0.1312340240 0.1314812343 0.0000000000 1447.3281009784 0.0000000000 0.0009152095 12.9192297850 0.0000000000 19.5900196663 6508.5319500000
 6523.9125000000 2684.0975348542 4121.8366886248 3956.0909604799 0.1960101373 5773419.4053920237 0.1688834087 4107028.5719208294 1753824.6846229308 0.0006848254 3865.3139176816 4348.0372011563 6806.3616506553 2739.9379647088 0.9000000000 0.0625945706 1718.7989101153 0.0000000000 1463.2815135475 0.6664769341 0.5924840221 19.9609617698 19.9609617698 19.9609617698 0.0052948539 108700.3945469912 0.0049644520 93001.9620725009 45763.3360993539 0.0000795775 0.1274095272 0.1276561868 0.0000000000 1402.6458420693 0.0000000000 0.0009008404 12.7755450889 0.0000000000 19.4112618546 6523.9125000000
 6539.2930500000 2630.5930021760 3976.5628354984 4968.2779639125 0.2155750911 6845860.1397436336 0.1996852618 4987272.6160480371 2077088.7622244786 0.0008365248 4147.0440275980 4710.2227394529 6823.3205431079 2746.3976336920 0.9000000000 0.0473014743 1109.9512378481 0.0000000000 1600.8653815030 0.7202954055 0.6341731432 19.9536798685 19.9536798685 19.9536798685 0.0052942986 108686.4080201116 0.0050209983 94020.6357433332 46137.5292781798 0.0000799160 0.1279431538 0.1281887193 0.0000000000 1408.5302503746 0.0000000000 0.0009009177 12.8037469410 0.0000000000 19.3617866654 6539.2930500000
