~Version ---------------------------------------------------
VERS.   2.0 : CWLS log ASCII Standard -VERSION 2.0
WRAP.    NO : One line per depth step
DLM . SPACE : Column Data Section Delimiter
~Well ------------------------------------------------------
STRT.ft               8892.56685 : START DEPTH
STOP.ft        9615.059349999998 : STOP DEPTH
STEP.ft       11.445450000001074 : STEP
NULL.                   -9999.25 : NULL VALUE
COMP.                            : COMPANY
WELL.                     bypass : WELL
FLD .                            : FIELD
LOC .                            : LOCATION
PROV.                            : PROVINCE
CNTY.                            : COUNTY
STAT.                            : STATE
CTRY.                            : COUNTRY
SRVC.                            : SERVICE COMPANY
DATE. 2019-04-26 18:06:52.510000 : DATE
UWI .                            : UNIQUE WELL ID
API .                            : API NUMBER
~Curve Information -----------------------------------------
Depth              .ft          : 
KICh               .psi*in^1/2  : 
KICvup             .psi*in^1/2  : 
KICvdown           .psi*in^1/2  : 
nuh                .            : 
Eh                 .psi         : 
nuv                .            : 
Ev                 .psi         : 
Gv                 .psi         : 
Cl                 .ft/min^1/2  : 
Sigma_h            .psi         : 
SigmaH             .psi         : 
SigmaV             .psi         : 
Pore Pressure      .psi         : 
Biot               .            : 
Porosity           .            : 
Permeability       .nD          : 
SoPhi              .            : 
TensileStrength    .psi         : 
Grad_SigmaH        .psi/ft      : 
Grad_Sigma_h       .psi/ft      : 
Bulk_Density       .g/cc        : 
Std_Bulk_Density   .g/cc        : 
Std_KICh           .psi*in^1/2  : 
Std_KICvup         .psi*in^1/2  : 
Std_KICvdown       .psi*in^1/2  : 
Std_nuh            .            : 
Std_Eh             .psi         : 
Std_nuv            .            : 
Std_Ev             .psi         : 
Std_Gv             .psi         : 
Std_Cl             .ft/min^1/2  : 
Std_Sigma_h        .psi         : 
Std_SigmaH         .psi         : 
Std_SigmaV         .psi         : 
Std_Pore Pressure  .psi         : 
Std_Biot           .            : 
Std_Porosity       .            : 
Std_Permeability   .nD          : 
Std_SoPhi          .            : 
Std_TensileStrength.psi         : 
Std_Depth          .ft          : 
~Params ----------------------------------------------------
~Other -----------------------------------------------------
Exported from homogenization method
~ASCII -----------------------------------------------------
# ...
 9501.1978000000 2518.5926124462 2715.6997998061 2608.8761518948 0.2703412676 4387300.1835975358 0.2245471755 2597555.0162894605 1058967.0062358375 0.0000937136 9150.3482006618 9495.7121036874 10011.0315226131 8835.8835515775 0.9000000000 0.0791737265 3503.7744477248 0.0000000000 1120.5582272239 0.9994226311 0.9630731191 2.4055635810 0.0010000000 31.1147004149 31.1147004149 31.1147004149 0.0028077643 64381.1453903077 0.0029577193 70973.7619913585 24409.8398747488 0.0000356883 0.0098145688 0.0100618884 0.0000000000 0.0000000000 0.0000000000 0.0024422369 245.4143210646 0.0000000000 30.9993964958 9501.1978000000
 9509.8264000000 2502.2057268593 2647.8911309688 2555.4224542903 0.2697637085 4500929.8787024161 0.2229347021 2661103.5311951083 1086049.3800699995 0.0000920459 9154.4421891547 9508.9120679552 10020.0403257358 8843.9057346486 0.9000000000 0.0761376868 3577.3556106143 0.0000000000 1142.3864676315 0.9999038540 0.9626297899 2.4291282165 0.0010000000 31.2442275244 31.2442275244 31.2442275244 0.0029119486 67035.1965186664 0.0030195898 74710.6482333093 25324.9511650537 0.0000369107 0.0102564636 0.0105131539 0.0000000000 0.0000000000 0.0000000000 0.0024448967 251.0957328843 0.0000000000 31.2755741133 9509.8264000000
 9518.4548500000 2525.5416138576 2736.3400989373 2734.3951684154 0.2721667847 4509095.3702321509 0.2172385776 2578454.2106707697 1045055.6094758479 0.0000918267 9175.7573838340 9530.1995391059 10029.1319751407 8851.9294143907 0.9000000000 0.0751868114 3287.1288713790 0.0000000000 1150.1121196501 1.0012338861 0.9639965234 2.4340902402 0.0010000000 30.3497548815 30.3497548815 30.3497548815 0.0027831567 65254.6450231314 0.0028939910 73607.9989186620 24746.5615508174 0.0000360607 0.0100337467 0.0102827994 0.0000000000 0.0000000000 0.0000000000 0.0023758083 244.7509806602 0.0000000000 30.3532089944 9518.4548500000
 9527.0834500000 2551.8519485396 2807.2579057604 2775.0825325002 0.2682976618 4519435.4874707041 0.2234510038 2635676.7449604133 1070657.0637022553 0.0000956918 9185.6012919240 9541.9399988046 10038.2751746159 8859.9580149339 0.9000000000 0.0770917797 3474.4539108373 0.0000000000 1136.2004876955 1.0015594016 0.9641566950 2.4165589992 0.0010000000 31.2457379640 31.2457379640 31.2457379640 0.0028924478 65503.2117618383 0.0031176253 72125.4359975058 24736.1981948326 0.0000363012 0.0100392490 0.0102892917 0.0000000000 0.0000000000 0.0000000000 0.0024437545 248.1529822670 0.0000000000 31.2764942934 9527.0834500000
 9536.3192000000 2416.2965127311 2742.1268326430 2842.6797221443 0.2565329112 3177114.7330100639 0.1956829933 1531585.0785432090 635933.0289786649 0.0000929872 9197.0049023198 9449.8526156245 10047.7965366453 8868.5432361569 0.9000000000 0.0917799053 2505.9904194000 0.0000000000 816.5371023690 0.9909329184 0.9644187353 2.3350126971 0.0010000000 29.9438213953 29.9438213953 29.9438213953 0.0034909954 59541.7321209011 0.0033513662 55306.9839033615 22387.5002865299 0.0000416186 0.0115723500 0.0118041092 0.0000000000 0.0000000000 0.0000000000 0.0022518533 225.6698753894 0.0000000000 31.1891221078 9536.3192000000
 9546.1617500000 2570.5100250141 2965.7213166963 3357.7614877686 0.2610810172 3303644.3548353636 0.1992734994 1534523.6189368421 625226.3658282354 0.0001062669 9283.0712596632 9545.0404995269 10057.7748978928 8877.6991505361 0.9000000000 0.0911760438 2191.5076531560 0.0000000000 860.2241030263 0.9998825444 0.9724401810 2.3413034630 0.0010000000 30.2634474318 30.2634474318 30.2634474318 0.0030789095 58802.6203966466 0.0034216342 55571.5233846271 22443.1553726413 0.0000424866 0.0115943773 0.0118222435 0.0000000000 0.0000000000 0.0000000000 0.0023081945 233.8284057264 0.0000000000 31.0407502653 9546.1617500000
 9556.0042500000 2371.3953333203 2754.5714579424 2700.3184881707 0.2575419382 3109719.5801521181 0.1914860026 1491918.2158502650 621076.1263700915 0.0000849555 9196.4783393447 9443.7638958439 10067.7018997416 8886.8532580073 0.9000000000 0.0931360705 2326.1600458739 0.0000000000 799.3270048342 0.9882544680 0.9623769620 2.3317361038 0.0010000000 29.9018956885 29.9018956885 29.9018956885 0.0034963746 59281.1932885346 0.0032118335 55672.4490964367 22276.8754440965 0.0000415327 0.0115213774 0.0117519971 0.0000000000 0.0000000000 0.0000000000 0.0022513403 225.7606413263 0.0000000000 31.0999020267 9556.0042500000
 9565.8467500000 2444.0452193566 2800.1253831439 2832.9606284556 0.2593610677 3330966.5645005340 0.1913310785 1589774.8699699326 655536.2483555268 0.0000894473 9220.2174354025 9484.7139844897 10077.7993400934 8896.0051193112 0.9000000000 0.0893529324 2614.0977142875 0.0000000000 855.0719018683 0.9915184962 0.9638684035 2.3515926474 0.0010000000 29.7873673844 29.7873673844 29.7873673844 0.0033746195 60134.6402226472 0.0032296242 57794.4536919545 22645.2334904634 0.0000427502 0.0118246310 0.0120569688 0.0000000000 0.0000000000 0.0000000000 0.0022528668 232.6112682612 0.0000000000 30.8701473601 9565.8467500000
 9575.6892500000 2400.6559499863 2869.7425007609 2669.2129211370 0.2526654328 2612380.0040142741 0.1893068319 1173560.4202394194 491530.0122040122 0.0000727076 9254.0422871625 9462.5879958190 10087.6083713178 8905.1569806150 0.9000000000 0.1023984789 1174.8248206267 0.0000000000 659.0559990937 0.9881887088 0.9664100459 2.2673154493 0.0010000000 29.8468157509 29.8468157509 29.8468157509 0.0035156353 54624.9641900795 0.0032548060 48588.8298128505 20585.7575262365 0.0000398443 0.0104943799 0.0107073174 0.0000000000 0.0000000000 0.0000000000 0.0022456498 227.5767685497 0.0000000000 30.9880302196 9575.6892500000
 9585.5318000000 2418.4799501106 2556.8256812338 2615.7006517400 0.2550750088 2969686.4600626761 0.1952880518 1422683.9908791771 593340.0522806796 0.0000814523 9239.0895203887 9475.7037816228 10097.3306468740 8914.3144030511 0.9000000000 0.0970460502 1812.4970086426 0.0000000000 756.8042536229 0.9885423135 0.9638577925 2.3042343262 0.0010000000 30.5203769577 30.5203769577 30.5203769577 0.0035041634 58240.9832640529 0.0033335696 53725.5865440541 21894.8145024543 0.0000418782 0.0113146401 0.0115408554 0.0000000000 0.0000000000 0.0000000000 0.0023067122 233.5001167908 0.0000000000 31.5872567562 9585.5318000000
 9595.3743500000 2476.8951709593 2871.0295440015 2832.1576155727 0.2598444487 3187346.1312309531 0.1964516503 1567334.2670071300 648679.5235227735 0.0000787178 9240.5121915632 9493.5074033535 10107.1816719265 8923.4670508891 0.9000000000 0.0960436076 1914.1578905446 0.0000000000 814.2791951695 0.9893837444 0.9630173722 2.3049733481 0.0010000000 29.3462211218 29.3462211218 29.3462211218 0.0031444638 55239.1114932545 0.0030277728 53067.8190569203 20834.0544921816 0.0000406332 0.0108984046 0.0111108589 0.0000000000 0.0000000000 0.0000000000 0.0022468160 227.4485278501 0.0000000000 29.9554195013 9595.3743500000
 9605.2168500000 2505.7076435148 2694.3549805931 2720.4316804942 0.2607502069 3253696.6104303268 0.2025616425 1662350.6411310646 688551.3052426544 0.0000794940 9244.6717466036 9502.7479771377 10117.0274848790 8932.6189121930 0.9000000000 0.0959147379 2006.5443996601 0.0000000000 835.6342220935 0.9893319563 0.9624636165 2.3055135342 0.0010000000 29.1778712680 29.1778712680 29.1778712680 0.0030162985 54497.8542967289 0.0029492761 52998.9793505532 20582.8913621854 0.0000404929 0.0108053036 0.0110144097 0.0000000000 0.0000000000 0.0000000000 0.0022464768 227.4721346699 0.0000000000 29.6092520015 9605.2168500000
 9615.0593500000 2505.7076435148 2694.3549805931 2720.4316804942 0.2607502069 3253696.6104303268 0.2025616425 1662350.6411310646 688551.3052426544 0.0000794940 9244.6717466036 9502.7479771377 10117.0274848790 8932.6189121930 0.9000000000 0.0959147379 2006.5443996601 0.0000000000 835.6342220935 0.9883192221 0.9614783862 2.3277923594 0.0010000000 30.5272118440 30.5272118440 30.5272118440 0.0029537645 58145.5650787589 0.0028929498 58653.6497972406 22135.9727390355 0.0000431018 0.0116400559 0.0118625418 0.0000000000 0.0000000000 0.0000000000 0.0023687837 239.0479380365 0.0000000000 30.7304438545 9615.0593500000
