~Version ---------------------------------------------------
VERS.   2.0 : CWLS log ASCII Standard -VERSION 2.0
WRAP.    NO : One line per depth step
DLM . SPACE : Column Data Section Delimiter
~Well ------------------------------------------------------
STRT.ft               8892.56685 : START DEPTH
STOP.ft        9615.059349999998 : STOP DEPTH
STEP.ft       11.445450000001074 : STEP
NULL.                   -9999.25 : NULL VALUE
COMP.                            : COMPANY
WELL.                     bypass : WELL
FLD .                            : FIELD
LOC .                            : LOCATION
PROV.                            : PROVINCE
CNTY.                            : COUNTY
STAT.                            : STATE
CTRY.                            : COUNTRY
SRVC.                            : SERVICE COMPANY
DATE. 2019-04-26 18:06:52.510000 : DATE
UWI .                            : UNIQUE WELL ID
API .                            : API NUMBER
~Curve Information -----------------------------------------
Depth              .ft          : 
KICh               .psi*in^1/2  : 
KICvup             .psi*in^1/2  : 
KICvdown           .psi*in^1/2  : 
nuh                .            : 
Eh                 .psi         : 
nuv                .            : 
Ev                 .psi         : 
Gv                 .psi         : 
Cl                 .ft/min^1/2  : 
Sigma_h            .psi         : 
SigmaH             .psi         : 
SigmaV             .psi         : 
Pore Pressure      .psi         : 
Biot               .            : 
Porosity           .            : 
Permeability       .nD          : 
SoPhi              .            : 
TensileStrength    .psi         : 
Grad_SigmaH        .psi/ft      : 
Grad_Sigma_h       .psi/ft      : 
Bulk_Density       .g/cc        : 
Std_Bulk_Density   .g/cc        : 
Std_KICh           .psi*in^1/2  : 
Std_KICvup         .psi*in^1/2  : 
Std_KICvdown       .psi*in^1/2  : 
Std_nuh            .            : 
Std_Eh             .psi         : 
Std_nuv            .            : 
Std_Ev             .psi         : 
Std_Gv             .psi         : 
Std_Cl             .ft/min^1/2  : 
Std_Sigma_h        .psi         : 
Std_SigmaH         .psi         : 
Std_SigmaV         .psi         : 
Std_Pore Pressure  .psi         : 
Std_Biot           .            : 
Std_Porosity       .            : 
Std_Permeability   .nD          : 
Std_SoPhi          .            : 
Std_TensileStrength.psi         : 
Std_Depth          .ft          : 
~Params ----------------------------------------------------
~Other -----------------------------------------------------
Exported from homogenization method
~ASCII -----------------------------------------------------
 8892.5668500000 2583.4041580253 3583.7157391992 3741.0765866474 0.2865451487 6572263.1917317258 0.2514616150 4714966.0211522337 1878298.9555927331 0.0001425179 8098.4213937534 8609.2672974884 9358.2442187182 7196.8728291105 0.9000000000 0.0452796888 1643.1353099843 0.0000000000 1577.7298697557 0.9681419823 0.9106955877 2.5951962804 0.0010000000 26.6652442055 26.6652442055 26.6652442055 0.0020856815 68191.0655752940 0.0020694374 99946.9979477997 25727.9747505116 0.0000276376 0.0077582769 0.0080136805 0.0000000000 0.0000000000 0.0000000000 0.0021535406 226.6257449646 0.0000000000 25.7681330302 8892.5668500000
 8904.0123000000 2635.5391939947 3526.4622739055 3873.4104157169 0.2894062668 6893252.3299300671 0.2593414332 5192169.9151195642 2060681.1014735247 0.0000753041 8425.2864481972 8959.8931511048 9371.0980040021 7904.5514584062 0.9000000000 0.0452233445 1385.0722410207 0.0000000000 1626.8850830686 1.0062759180 0.9462348169 2.5878605359 0.0010000000 25.7792798977 25.7792798977 25.7792798977 0.0018820879 64382.2162823928 0.0018453229 100105.1547504836 24235.8497169490 0.0000265828 0.0075989655 0.0078324781 0.0000000000 0.0000000000 0.0000000000 0.0021024978 216.3310099418 0.0000000000 24.5371020522 8904.0123000000
 8915.4577000000 2628.7456493445 2975.2252571279 3490.7333411608 0.2868050450 6658071.6303263847 0.2560245808 4866215.5836739298 1934326.2861974221 0.0000536880 8601.1715219295 9118.5825824816 9383.9373979082 8263.0265950596 0.9000000000 0.0479931590 1654.8198953737 0.0000000000 1581.8012929379 1.0227834497 0.9647481724 2.5746711062 0.0010000000 25.8959716021 25.8959716021 25.8959716021 0.0019303262 63789.1661344993 0.0019506320 95358.3269440479 24037.3360003287 0.0000266316 0.0073629732 0.0075987726 0.0000000000 0.0000000000 0.0000000000 0.0021030203 219.2024091720 0.0000000000 24.7959202051 8915.4577000000
 8926.9031500000 2617.4272668974 2760.7964920639 2843.8064465448 0.2875320168 6858221.1661657766 0.2553110050 5039224.5681240521 2001393.2480014125 0.0000465855 8625.4514907969 9158.1156169275 9396.7237423032 8301.7883907775 0.9000000000 0.0435363845 1433.9316816667 0.0000000000 1617.7947737423 1.0259006358 0.9662311045 2.6009057173 0.0010000000 25.9342839906 25.9342839906 25.9342839906 0.0019705440 65970.6389316422 0.0019511416 100920.9973426988 24808.1084985912 0.0000268887 0.0077170224 0.0079579954 0.0000000000 0.0000000000 0.0000000000 0.0021048305 218.6811662385 0.0000000000 24.8811238556 8926.9031500000
 8938.3486000000 2610.1493394313 2770.6381700575 2836.5122084687 0.2841664774 6543742.3182942634 0.2508892945 4609712.5707317563 1831977.2952627281 0.0000550767 8642.9401104194 9152.5112940327 9409.6329873071 8312.4326056339 0.9000000000 0.0469105334 1788.9652927940 0.0000000000 1558.3506009925 1.0239599845 0.9669504399 2.5850840722 0.0010000000 26.1233629930 26.1233629930 26.1233629930 0.0020470047 65446.3591458799 0.0021224741 94825.5762616015 24651.3961246455 0.0000271061 0.0074392082 0.0076840988 0.0000000000 0.0000000000 0.0000000000 0.0021059323 223.8334280933 0.0000000000 25.2950034317 8938.3486000000
 8949.7940500000 2630.8506362424 2808.2147034079 2723.2805822338 0.2796534972 5948096.6949362885 0.2505694674 4039090.8692720048 1610186.8482165684 0.0000724704 8660.6735647333 9125.4944485157 9422.3422954773 8323.0768179464 0.9000000000 0.0577882859 2508.9383989239 0.0000000000 1443.0755167462 1.0196317812 0.9676952918 2.5236948882 0.0010000000 26.1533538053 26.1533538053 26.1533538053 0.0020127136 60735.4639483720 0.0022447956 81138.6606139962 22988.6275829295 0.0000264582 0.0066632108 0.0068971930 0.0000000000 0.0000000000 0.0000000000 0.0021027000 223.5851784172 0.0000000000 25.3646449929 8949.7940500000
 8961.2395000000 2649.6922917830 3015.3991894294 3105.2213765624 0.2809230486 6157131.2149478765 0.2558353676 4253031.7655056017 1689300.5165368957 0.0000681349 8684.5452399632 9165.2244830937 9434.8912479637 8333.7210323790 0.9000000000 0.0528670325 2160.1544673006 0.0000000000 1494.4237092711 1.0227630322 0.9691232156 2.5532108953 0.0010000000 26.1467426783 26.1467426783 26.1467426783 0.0019893948 63006.3886349206 0.0022359452 85631.9905013737 23881.1499837542 0.0000267405 0.0069406565 0.0071834860 0.0000000000 0.0000000000 0.0000000000 0.0021045127 224.3113817474 0.0000000000 25.3514617663 8961.2395000000
 8971.7344000000 2594.6756167784 2698.2869936234 2611.2387750928 0.2855119965 6582543.1759145362 0.2529937336 4724333.4501111461 1883160.5013675787 0.0000515032 8669.6329436663 9181.6890888983 9446.6043515040 8343.4802403618 0.9000000000 0.0453761982 1623.9127567476 0.0000000000 1576.2715085701 1.0234017950 0.9663274187 2.5946635150 0.0010000000 28.7138179502 28.7138179502 28.7138179502 0.0022468083 73150.7520763624 0.0022628697 106343.9618296197 27591.0632082091 0.0000297170 0.0082911141 0.0085660063 0.0000000000 0.0000000000 0.0000000000 0.0023176495 244.1633081166 0.0000000000 27.7743953969 8971.7344000000
 8981.2788000000 2621.0092607898 2677.5944344053 2684.9757127156 0.2841415259 6535431.9865222471 0.2543979563 4680678.8997732410 1864379.3691057265 0.0000553199 8681.8380576315 9190.7719916769 9457.3086309636 8352.3560822450 0.9000000000 0.0484062007 1765.9877252320 0.0000000000 1556.5638901747 1.0233255415 0.9666594536 2.5753029494 0.0010000000 28.6397921604 28.6397921604 28.6397921604 0.0021955367 70687.0376097349 0.0022716329 102404.1874606684 26635.2704786992 0.0000294516 0.0080253167 0.0082902773 0.0000000000 0.0000000000 0.0000000000 0.0023155651 243.6249487841 0.0000000000 27.6113421474 8981.2788000000
 8990.8232000000 2591.6971226323 2636.1541658652 2643.4260632833 0.2842251367 6428502.0978104528 0.2518604960 4557296.7639448689 1819605.3324626207 0.0000553748 8688.2271152682 9188.8015016684 9467.9973437108 8361.2341413519 0.9000000000 0.0474136364 1790.6678799063 0.0000000000 1547.8158194408 1.0220200417 0.9663438955 2.5832857117 0.0010000000 28.0496612357 28.0496612357 28.0496612357 0.0022144506 70628.8805747535 0.0022579380 100172.2821573230 26665.4218718445 0.0000290068 0.0079002758 0.0081686470 0.0000000000 0.0000000000 0.0000000000 0.0022590193 240.1592971791 0.0000000000 27.2096607332 8990.8232000000
 9000.3676000000 2615.3936514377 2761.0879163346 2656.1415254278 0.2830523119 6458486.7914094301 0.2529243084 4561541.0345744099 1817853.0239563163 0.0000573182 8703.6062896244 9206.9752272275 9478.6577294076 8370.1110691065 0.9000000000 0.0483123074 1839.2821541889 0.0000000000 1543.6897823935 1.0229554654 0.9670278678 2.5799444436 0.0010000000 28.7347357657 28.7347357657 28.7347357657 0.0022388147 71480.0970866455 0.0023433205 102155.2500203100 26944.1595835331 0.0000296598 0.0080590272 0.0083285846 0.0000000000 0.0000000000 0.0000000000 0.0023168693 245.6523041226 0.0000000000 27.8201472186 9000.3676000000
 9009.9120000000 2617.6588228637 2681.8224556037 2739.0552834421 0.2860773319 6651684.6654491564 0.2541084093 4845426.7663319530 1929869.0836019716 0.0000519746 8700.2832145200 9217.4904228548 9489.3409466016 8378.9869109897 0.9000000000 0.0479251538 1670.8912359637 0.0000000000 1575.4250455724 1.0230388957 0.9656346493 2.5752896417 0.0010000000 28.5387715370 28.5387715370 28.5387715370 0.0021664591 70346.3731012131 0.0021650097 104821.1482982130 26463.9552484605 0.0000293392 0.0081085173 0.0083685430 0.0000000000 0.0000000000 0.0000000000 0.0023144530 241.5522102101 0.0000000000 27.3877852128 9009.9120000000
 9019.4564000000 2561.4380357248 2677.9911042777 2677.6675751970 0.2826383025 6157489.9801614704 0.2442047807 4251949.8965546302 1703874.0129557785 0.0000607924 8699.9893613331 9180.0537698527 9499.9906763873 8387.8627528730 0.9000000000 0.0529427530 2218.1150943667 0.0000000000 1485.0616757100 1.0178056595 0.9645802336 2.5502333112 0.0010000000 28.8512745519 28.8512745519 28.8512745519 0.0023417093 69967.4529144338 0.0023559258 96605.2932566759 26364.4402417385 0.0000296446 0.0077432571 0.0080102910 0.0000000000 0.0000000000 0.0000000000 0.0023159898 248.3647365800 0.0000000000 28.0740862340 9019.4564000000
