~Version ---------------------------------------------------
VERS.   2.0 : CWLS log ASCII Standard -VERSION 2.0
WRAP.    NO : One line per depth step
DLM . SPACE : Column Data Section Delimiter
~Well ------------------------------------------------------
STRT.ft               8892.56685 : START DEPTH
STOP.ft        9615.059349999998 : STOP DEPTH
STEP.ft       11.445450000001074 : STEP
NULL.                   -9999.25 : NULL VALUE
COMP.                            : COMPANY
WELL.                     bypass : WELL
FLD .                            : FIELD
LOC .                            : LOCATION
PROV.                            : PROVINCE
CNTY.                            : COUNTY
STAT.                            : STATE
CTRY.                            : COUNTRY
SRVC.                            : SERVICE COMPANY
DATE. 2019-04-26 18:06:52.510000 : DATE
UWI .                            : UNIQUE WELL ID
API .                            : API NUMBER
~Curve Information -----------------------------------------
Depth              .ft          : 
KICh               .psi*in^1/2  : 
KICvup             .psi*in^1/2  : 
KICvdown           .psi*in^1/2  : 
nuh                .            : 
Eh                 .psi         : 
nuv                .            : 
Ev                 .psi         : 
Gv                 .psi         : 
Cl                 .ft/min^1/2  : 
Sigma_h            .psi         : 
SigmaH             .psi         : 
SigmaV             .psi         : 
Pore Pressure      .psi         : 
Biot               .            : 
Porosity           .            : 
Permeability       .nD          : 
SoPhi              .            : 
TensileStrength    .psi         : 
Grad_SigmaH        .psi/ft      : 
Grad_Sigma_h       .psi/ft      : 
Bulk_Density       .g/cc        : 
Std_Bulk_Density   .g/cc        : 
Std_KICh           .psi*in^1/2  : 
Std_KICvup         .psi*in^1/2  : 
Std_KICvdown       .psi*in^1/2  : 
Std_nuh            .            : 
Std_Eh             .psi         : 
Std_nuv            .            : 
Std_Ev             .psi         : 
Std_Gv             .psi         : 
Std_Cl             .ft/min^1/2  : 
Std_Sigma_h        .psi         : 
Std_SigmaH         .psi         : 
Std_SigmaV         .psi         : 
Std_Pore Pressure  .psi         : 
Std_Biot           .            : 
Std_Porosity       .            : 
Std_Permeability   .nD          : 
Std_SoPhi          .            : 
Std_TensileStrength.psi         : 
Std_Depth          .ft          : 
~Params ----------------------------------------------------
~Other -----------------------------------------------------
Exported from homogenization method
~ASCII -----------------------------------------------------
# ...
 9262.6322500000 2492.6929472363 2665.4764626354 2759.5680757856 0.2656353889 3869131.4243187038 0.2069077631 2049604.8103823087 839068.1508419873 0.0000927436 8931.2482688824 9236.9549090510 9760.7091261017 8614.0160829590 0.9000000000 0.0833976615 3054.8736101647 0.0000000000 995.5706118003 0.9972278570 0.9642235628 2.3854226678 0.0010000000 32.7519037602 32.7519037602 32.7519037602 0.0033415935 67530.3695696956 0.0033828505 69394.6354418160 25538.6392318715 0.0000482756 0.0136920959 0.0139477456 0.0000000000 0.0000000000 0.0000000000 0.0025187875 254.3492168647 0.0000000000 33.3693477642 9262.6322500000
 9270.6479500000 2471.2249091248 2761.5707334315 2707.3882399664 0.2669610016 4081930.8742362312 0.2128235277 2262106.3401305266 927144.4117009465 0.0000937658 8929.5378036294 9251.7206387011 9769.0363729844 8621.4705373664 0.9000000000 0.0798136447 3476.0947061913 0.0000000000 1052.0686692355 0.9979583616 0.9632053608 2.4109136447 0.0010000000 32.6318191707 32.6318191707 32.6318191707 0.0032645883 69168.3956309842 0.0033027433 72988.3195669934 26141.8696949940 0.0000373395 0.0103536228 0.0106220773 0.0000000000 0.0000000000 0.0000000000 0.0025209472 255.6031224441 0.0000000000 33.1289409385 9270.6479500000
 9278.6636500000 2418.3688941219 2727.3173328369 2652.9933169416 0.2600592268 3663140.9022070845 0.2003157814 1877158.6218622415 775421.4926375832 0.0000932267 8930.7700859524 9221.4818893679 9777.3620022991 8628.9249917739 0.9000000000 0.0846705377 3248.4215314143 0.0000000000 935.3586985813 0.9938372849 0.9625060701 2.3852201794 0.0010000000 33.2199530294 33.2199530294 33.2199530294 0.0037140217 69746.2495961834 0.0036274601 69128.9460042295 26156.6489918723 0.0000485028 0.0139005382 0.0141676347 0.0000000000 0.0000000000 0.0000000000 0.0025215922 253.3335251565 0.0000000000 34.3390124452 9278.6636500000
 9286.6793500000 2488.3242379583 2703.2951795821 2697.0074314009 0.2684036211 4325296.7085330766 0.2130563962 2396598.4425131576 976808.8794151418 0.0000956406 8955.8382869083 9296.8414688943 9785.7211094740 8636.3794461814 0.9000000000 0.0749809363 3560.2250127324 0.0000000000 1107.9565691092 1.0010942683 0.9643746650 2.4412107746 0.0010000000 32.6700569599 32.6700569599 32.6700569599 0.0032423765 71753.8673661892 0.0033381441 77503.1062039754 27137.7113151500 0.0000388866 0.0108322057 0.0111095888 0.0000000000 0.0000000000 0.0000000000 0.0025239102 264.6616763506 0.0000000000 33.1987987329 9286.6793500000
 9294.6950500000 2432.3334991833 2650.8904186776 2615.4507873476 0.2617928718 3872196.4140309906 0.2013487987 1998834.8217514970 822474.2917152244 0.0000973102 8952.8367407569 9259.7172518640 9794.1797147412 8643.8339005888 0.9000000000 0.0802089620 3556.0290810859 0.0000000000 988.9728336409 0.9962367998 0.9632200618 2.4122332713 0.0010000000 33.2953548161 33.2953548161 33.2953548161 0.0037116560 72175.0423315640 0.0036694155 72635.8377511485 27093.8050935398 0.0000501595 0.0144716764 0.0147471684 0.0000000000 0.0000000000 0.0000000000 0.0025249141 259.6577664727 0.0000000000 34.4891184627 9294.6950500000
 9302.7107500000 2436.9654806693 2667.6492233741 2673.7019508281 0.2640011390 4171565.7578218295 0.2120251144 2289361.7755447696 940205.0609321377 0.0001004729 8963.0292763187 9293.0579154605 9802.6273788373 8651.2883549963 0.9000000000 0.0753124512 4008.7435466714 0.0000000000 1069.8309470423 0.9989623633 0.9634857535 2.4424667077 0.0010000000 33.0717104669 33.0717104669 33.0717104669 0.0035187529 73564.1109353529 0.0035841014 76548.2183867543 27667.9864138416 0.0000395378 0.0109661479 0.0112524154 0.0000000000 0.0000000000 0.0000000000 0.0025273560 271.3522109658 0.0000000000 34.0438387110 9302.7107500000
 9310.7264500000 2479.4455764428 2720.1002551533 2693.8056364121 0.2658189858 4213615.5361599885 0.2094017473 2281604.5228273650 932213.7622685130 0.0000970112 8976.4540512319 9309.3306776139 9811.0834083977 8658.7428094038 0.9000000000 0.0768957223 3588.0144293432 0.0000000000 1072.2251749855 0.9998500899 0.9640981399 2.4295900320 0.0010000000 32.8180822173 32.8180822173 32.8180822173 0.0033653007 71410.2659551294 0.0034567582 75591.9813207204 26914.3878467314 0.0000384429 0.0107353184 0.0110113563 0.0000000000 0.0000000000 0.0000000000 0.0025236942 261.1875339926 0.0000000000 33.5040440309 9310.7264500000
 9318.7421000000 2450.6552085536 2583.0708260069 2578.0102685443 0.2656231138 4312207.6330147982 0.2142331394 2418484.2394152661 991831.8384809664 0.0000963508 8973.4888314738 9314.2069793872 9819.5425898172 8666.1980183709 0.9000000000 0.0744403783 3900.5590809480 0.0000000000 1100.0600345327 0.9995133334 0.9629506574 2.4473736164 0.0010000000 31.8478549246 31.8478549246 31.8478549246 0.0032785773 70877.2037325983 0.0033438770 75768.0935288818 26663.9951997396 0.0000383491 0.0106640028 0.0109382744 0.0000000000 0.0000000000 0.0000000000 0.0024507259 261.9117537977 0.0000000000 32.5388777681 9318.7421000000
 9326.7577500000 2429.5207027590 2410.9946009854 2543.1632632515 0.2635356297 4058178.3734341520 0.2106753668 2226616.4157545422 917029.5035501102 0.0000964015 8975.3048630757 9296.4812729874 9828.0451294266 8673.6536825539 0.9000000000 0.0783519316 3821.2935291206 0.0000000000 1038.4074292185 0.9967538047 0.9623177854 2.4187101619 0.0010000000 33.0210877400 33.0210877400 33.0210877400 0.0035363358 71536.8355201332 0.0035163255 73707.5518218440 26865.9579375694 0.0000502852 0.0144942140 0.0147652364 0.0000000000 0.0000000000 0.0000000000 0.0025244699 260.1032667130 0.0000000000 33.9430975212 9326.7577500000
 9334.7734500000 2496.6847476164 2624.8997749859 2617.5063111730 0.2716942092 4753285.9036271935 0.2195875840 2790057.7189940014 1133847.2622313376 0.0000881985 8991.8229574716 9365.5988124992 9836.4994422046 8681.1081369613 0.9000000000 0.0700154348 3506.1554458763 0.0000000000 1199.9794727385 1.0033022079 0.9632609731 2.4715205585 0.0010000000 32.2582743210 32.2582743210 32.2582743210 0.0030147005 72809.7202703059 0.0030965641 84379.1743447927 27497.1377962821 0.0000402759 0.0113210027 0.0115965431 0.0000000000 0.0000000000 0.0000000000 0.0025240301 270.0863544702 0.0000000000 32.3405539938 9334.7734500000
 9342.7891500000 2498.3099886272 2609.7811375033 2695.0704280552 0.2687002151 4504385.5087683853 0.2193881170 2620508.2547606807 1069388.0234559916 0.0000909033 8994.5457547509 9349.5851450908 9845.0309497254 8688.5625913688 0.9000000000 0.0753461896 3589.9607375881 0.0000000000 1137.4440390425 1.0007274054 0.9627259708 2.4313425630 0.0010000000 32.3841807647 32.3841807647 32.3841807647 0.0031295656 69903.3933942719 0.0032160898 77141.5742786889 26326.1143002730 0.0000383439 0.0106709190 0.0109384641 0.0000000000 0.0000000000 0.0000000000 0.0025214875 260.7016756643 0.0000000000 32.6134084165 9342.7891500000
 9350.8048500000 2501.7315156404 2588.7347458073 2540.9438084483 0.2688260003 4669660.5449258192 0.2244181937 2787056.2262501726 1137135.0166635751 0.0000916928 9004.1685054787 9372.1985225067 9853.5136047307 8696.0170457763 0.9000000000 0.0729486702 3729.9518311805 0.0000000000 1172.8778425933 1.0022878964 0.9629297852 2.4480814241 0.0010000000 32.2796643683 32.2796643683 32.2796643683 0.0030518766 70784.2861007769 0.0031887953 79748.1588053065 26647.8491954315 0.0000391581 0.0109030461 0.0111724960 0.0000000000 0.0000000000 0.0000000000 0.0025224630 265.7855996754 0.0000000000 32.3967907849 9350.8048500000
 9358.8205500000 2633.6634413650 3236.3051188249 3252.3112101618 0.2784404148 5359818.3809171142 0.2072184468 3014261.1142379823 1197174.1566285903 0.0000749958 9030.9996825404 9450.2463145048 9862.0818875985 8703.4715001838 0.9000000000 0.0638186999 2682.8284802163 0.0000000000 1300.5907248705 1.0097689409 0.9649719892 2.4890894860 0.0010000000 32.0623599328 32.0623599328 32.0623599328 0.0029491358 73428.0907488758 0.0029944507 95224.6798980392 27591.0288144530 0.0000307603 0.0080820771 0.0083578043 0.0000000000 0.0000000000 0.0000000000 0.0025213349 257.3222831570 0.0000000000 31.8802997294 9358.8205500000
 9367.3206500000 2439.3208830671 2770.5155374284 2798.7678380403 0.2630068768 3937425.1907173195 0.2044806480 2082755.3851490270 856187.6903616100 0.0000947595 9016.7350477918 9328.4851469535 9871.1305551131 8711.3763197343 0.9000000000 0.0807796866 3491.5781427836 0.0000000000 1004.1919459266 0.9958541503 0.9625735453 2.4085089964 0.0010000000 31.1045566725 31.1045566725 31.1045566725 0.0033299442 66581.9586009465 0.0033130152 68464.7206148391 25013.5025134864 0.0000468558 0.0134955748 0.0137475286 0.0000000000 0.0000000000 0.0000000000 0.0023784911 242.5832005716 0.0000000000 31.9332987987 9367.3206500000
