~Version ---------------------------------------------------
VERS.   2.0 : CWLS log ASCII Standard -VERSION 2.0
WRAP.    NO : One line per depth step
DLM . SPACE : Column Data Section Delimiter
~Well ------------------------------------------------------
STRT.ft               8892.56685 : START DEPTH
STOP.ft        9615.059349999998 : STOP DEPTH
STEP.ft       11.445450000001074 : STEP
NULL.                   -9999.25 : NULL VALUE
COMP.                            : COMPANY
WELL.                     bypass : WELL
FLD .                            : FIELD
LOC .                            : LOCATION
PROV.                            : PROVINCE
CNTY.                            : COUNTY
STAT.                            : STATE
CTRY.                            : COUNTRY
SRVC.                            : SERVICE COMPANY
DATE. 2019-04-26 18:06:52.510000 : DATE
UWI .                            : UNIQUE WELL ID
API .                            : API NUMBER
~Curve Information -----------------------------------------
Depth              .ft          : 
KICh               .psi*in^1/2  : 
KICvup             .psi*in^1/2  : 
KICvdown           .psi*in^1/2  : 
nuh                .            : 
Eh                 .psi         : 
nuv                .            : 
Ev                 .psi         : 
Gv                 .psi         : 
Cl                 .ft/min^1/2  : 
Sigma_h            .psi         : 
SigmaH             .psi         : 
SigmaV             .psi         : 
Pore Pressure      .psi         : 
Biot               .            : 
Porosity           .            : 
Permeability       .nD          : 
SoPhi              .            : 
TensileStrength    .psi         : 
Grad_SigmaH        .psi/ft      : 
Grad_Sigma_h       .psi/ft      : 
Bulk_Density       .g/cc        : 
Std_Bulk_Density   .g/cc        : 
Std_KICh           .psi*in^1/2  : 
Std_KICvup         .psi*in^1/2  : 
Std_KICvdown       .psi*in^1/2  : 
Std_nuh            .            : 
Std_Eh             .psi         : 
Std_nuv            .            : 
Std_Ev             .psi         : 
Std_Gv             .psi         : 
Std_Cl             .ft/min^1/2  : 
Std_Sigma_h        .psi         : 
Std_SigmaH         .psi         : 
Std_SigmaV         .psi         : 
Std_Pore Pressure  .psi         : 
Std_Biot           .            : 
Std_Porosity       .            : 
Std_Permeability   .nD          : 
Std_SoPhi          .            : 
Std_TensileStrength.psi         : 
Std_Depth          .ft          : 
~Params ----------------------------------------------------
~Other -----------------------------------------------------
Exported from homogenization method
~ASCII -----------------------------------------------------
# ...
 9153.0779000000 2506.4635327202 2660.1085273389 2642.3197845283 0.2677368708 4845727.1006072201 0.2211152436 2825615.0410722014 1145909.0683736952 0.0000916760 8828.3580647192 9210.5925182880 9645.4808935887 8512.1310530904 0.9000000000 0.0694928936 3632.0812252223 0.0000000000 1198.7770982575 1.0062836369 0.9645234271 2.4725330412 0.0010000000 29.7238450065 29.7238450065 29.7238450065 0.0028595657 67039.8060280020 0.0030622839 77008.0288311866 25131.7855948753 0.0000372794 0.0104745324 0.0107264304 0.0000000000 0.0000000000 0.0000000000 0.0023172797 250.1758739680 0.0000000000 29.9336876671 9153.0779000000
 9162.6223000000 2489.6456108516 2601.1418861042 2582.9073130031 0.2661774374 4672137.9943796163 0.2221862211 2751099.6247632322 1123910.1010871695 0.0000915574 8824.3745821437 9193.3701001752 9655.7139720544 8521.0068949737 0.9000000000 0.0723216856 3825.1881317172 0.0000000000 1163.1174370187 1.0033557861 0.9630839615 2.4533054888 0.0010000000 29.7972378449 29.7972378449 29.7972378449 0.0029318519 66147.4135481400 0.0030760614 73663.8744988374 24770.1160554744 0.0000364991 0.0101703083 0.0104219418 0.0000000000 0.0000000000 0.0000000000 0.0023165165 247.8473340784 0.0000000000 30.0990099724 9162.6223000000
 9172.1666500000 2478.5246156113 2587.0071444593 2605.8513838204 0.2667360946 4653436.1731921891 0.2210203867 2722445.3237854973 1112313.1980684774 0.0000924806 8835.2899085104 9202.6463131372 9665.9021222853 8529.8826912294 0.9000000000 0.0712223707 3869.7363902982 0.0000000000 1165.9673852267 1.0033230603 0.9632718468 2.4621952092 0.0010000000 29.8845400027 29.8845400027 29.8845400027 0.0029649783 67168.8977388684 0.0030873063 74613.1174537290 25199.8871338732 0.0000370446 0.0102911233 0.0105476153 0.0000000000 0.0000000000 0.0000000000 0.0023179444 252.6334233512 0.0000000000 30.2808752337 9172.1666500000
 9181.7110000000 2491.2109665589 2585.6685003802 2602.9206034541 0.2695330407 4806682.9672236871 0.2217936953 2862472.8498108550 1166793.7614448590 0.0000872472 8839.8303031268 9218.4484889690 9676.0962947187 8538.7584864024 0.9000000000 0.0699456724 3662.5958042088 0.0000000000 1200.6473957756 1.0040011594 0.9627650340 2.4666227087 0.0010000000 29.6881891487 29.6881891487 29.6881891487 0.0028577292 66802.1697752649 0.0029288769 76560.2512320642 25089.2473158911 0.0000370504 0.0103603247 0.0106130912 0.0000000000 0.0000000000 0.0000000000 0.0023167203 250.2508783428 0.0000000000 29.8655807832 9181.7110000000
 9190.4910500000 2492.2546224976 2718.5859120131 2743.7044440687 0.2663699531 4057025.4128518011 0.2083306993 2236441.8465776644 916652.2015212025 0.0000818270 8835.3157276836 9155.6822527221 9685.3965027529 8546.9240289566 0.9000000000 0.0840207815 3021.0842148888 0.0000000000 1025.8636533786 0.9962125204 0.9613540430 2.3779111080 0.0010000000 32.3342169924 32.3342169924 32.3342169924 0.0031774531 65715.8110981998 0.0031434612 70397.7104873683 24729.2960520761 0.0000483814 0.0136214104 0.0138652297 0.0000000000 0.0000000000 0.0000000000 0.0025164814 256.3170893682 0.0000000000 32.5068963405 9190.4910500000
 9198.5067500000 2536.5196626362 2940.5522892687 2962.4261589937 0.2697623792 4688228.2311000125 0.2212359101 2772000.3762556268 1126617.0243968824 0.0000857695 8857.4259337281 9226.6468452876 9693.6595016210 8554.3784833640 0.9000000000 0.0754142118 3362.1136618410 0.0000000000 1167.4481351492 1.0030592025 0.9629199798 2.4303194866 0.0010000000 32.0410427132 32.0410427132 32.0410427132 0.0029370587 68408.7807841116 0.0030712473 78573.1150568119 25730.4578316918 0.0000384703 0.0106614325 0.0109189683 0.0000000000 0.0000000000 0.0000000000 0.0025191969 261.9715898632 0.0000000000 31.8822083645 9198.5067500000
 9206.5224500000 2500.3588372739 2544.0890348932 2677.2491998019 0.2667373522 4550007.5776455840 0.2224508778 2644407.1820653314 1078907.3122580431 0.0000958117 8878.4722473658 9237.6633274864 9702.1839813943 8561.8338122821 0.9000000000 0.0731691669 3780.0973594474 0.0000000000 1146.7774876700 1.0033824799 0.9643676313 2.4494852093 0.0010000000 31.5250704099 31.5250704099 31.5250704099 0.0030620856 69505.8135993500 0.0032585356 76411.2207224660 26170.6824032226 0.0000381930 0.0106148266 0.0108811271 0.0000000000 0.0000000000 0.0000000000 0.0024487083 260.2084847487 0.0000000000 31.8678846226 9206.5224500000
 9214.5381500000 2553.6018475793 2863.4099036481 2958.1826397155 0.2691237593 4676006.3427034291 0.2281522904 2800870.8929004329 1138362.0696190242 0.0000935407 8889.4479644246 9257.8916491699 9710.6631530100 8569.2894491017 0.9000000000 0.0746823826 3575.9315171487 0.0000000000 1174.8490825640 1.0047049020 0.9647198611 2.4285038643 0.0010000000 32.0616371461 32.0616371461 32.0616371461 0.0028904452 67943.4261059928 0.0031524695 76552.0313572003 25654.3547466672 0.0000379814 0.0105114880 0.0107693093 0.0000000000 0.0000000000 0.0000000000 0.0025192108 259.1006436943 0.0000000000 31.9289921415 9214.5381500000
 9222.5538500000 2518.1909217771 2591.2510415784 2640.7648253989 0.2579590531 3332068.8481091899 0.2074531165 1730431.4464454269 715539.8065727494 0.0000768031 8887.7212775164 9152.6002367993 9718.8897588676 8576.7439035092 0.9000000000 0.0972466943 1877.1761744763 0.0000000000 836.6382031903 0.9924149412 0.9636941591 2.2976456952 0.0010000000 32.4841227128 32.4841227128 32.4841227128 0.0033097553 60030.0368444675 0.0033996494 58452.1326975553 22580.2757705029 0.0000452155 0.0120014860 0.0122300229 0.0000000000 0.0000000000 0.0000000000 0.0025106899 254.9606520885 0.0000000000 32.8180989253 9222.5538500000
 9230.5695500000 2518.3535198373 2716.9657129675 2680.0782764679 0.2679039973 4290230.7623946741 0.2163129087 2410146.4424218498 982796.8957677212 0.0000946493 8902.1970605694 9240.5689539913 9727.0689674716 8584.1983579167 0.9000000000 0.0775104250 3461.4512470570 0.0000000000 1095.6779838705 1.0010832922 0.9644255441 2.4226312075 0.0010000000 32.5314305709 32.5314305709 32.5314305709 0.0031756850 69618.6809944585 0.0033027478 74861.7953163192 26318.5843636191 0.0000378998 0.0105187284 0.0107873952 0.0000000000 0.0000000000 0.0000000000 0.0025213048 258.8021471395 0.0000000000 32.9142471400 9230.5695500000
 9238.5852500000 2476.7447796857 2721.8350873831 2792.7097122246 0.2699307233 4407162.7852101605 0.2180386714 2526319.1528015542 1030991.6099348584 0.0000941801 8904.4037401188 9251.4433623888 9735.5509818882 8591.6528123241 0.9000000000 0.0737787382 3687.6167433787 0.0000000000 1134.2297312475 1.0013917837 0.9638276315 2.4455916449 0.0010000000 32.5670018094 32.5670018094 32.5670018094 0.0031756710 71853.0055004955 0.0032513690 78262.8520643455 27214.0681338245 0.0000390835 0.0108488949 0.0111271861 0.0000000000 0.0000000000 0.0000000000 0.0025239410 266.9754804727 0.0000000000 32.9936217987 9238.5852500000
 9246.6009000000 2472.2270661487 2608.1529792570 2642.3373252461 0.2633545209 3914944.4288319414 0.2075651702 2094810.4279169210 860867.2150825901 0.0000929274 8905.6942161547 9215.5790793638 9743.9854284711 8599.1072195789 0.9000000000 0.0826026036 3303.3752523791 0.0000000000 998.4448412990 0.9966450568 0.9631316754 2.3936002528 0.0010000000 32.8126374529 32.8126374529 32.8126374529 0.0034196788 68586.2479849012 0.0034484608 70547.5311160649 25812.1089242045 0.0000487155 0.0139231834 0.0141823854 0.0000000000 0.0000000000 0.0000000000 0.0025202099 254.4238012083 0.0000000000 33.5018593001 9246.6009000000
 9254.6165500000 2473.6967085353 2588.1212174087 2588.4391071725 0.2667845557 4132039.6192480717 0.2180958853 2328582.5072949198 953916.0554067576 0.0000991683 8923.6310002800 9249.8142964596 9752.3341758864 8606.5616285515 0.9000000000 0.0783752787 3720.2043167898 0.0000000000 1069.4418095150 0.9994810964 0.9642356279 2.4205215154 0.0010000000 32.6476502972 32.6476502972 32.6476502972 0.0032214267 69742.5627720699 0.0033527600 73340.1091464131 26416.7433750991 0.0000376444 0.0104263641 0.0106979723 0.0000000000 0.0000000000 0.0000000000 0.0025222493 258.0005433905 0.0000000000 33.1676081766 9254.6165500000
