~Version ---------------------------------------------------
VERS.   2.0 : CWLS log ASCII Standard -VERSION 2.0
WRAP.    NO : One line per depth step
DLM . SPACE : Column Data Section Delimiter
~Well ------------------------------------------------------
STRT.ft               8892.56685 : START DEPTH
STOP.ft        9615.059349999998 : STOP DEPTH
STEP.ft       11.445450000001074 : STEP
NULL.                   -9999.25 : NULL VALUE
COMP.                            : COMPANY
WELL.                     bypass : WELL
FLD .                            : FIELD
LOC .                            : LOCATION
PROV.                            : PROVINCE
CNTY.                            : COUNTY
STAT.                            : STATE
CTRY.                            : COUNTRY
SRVC.                            : SERVICE COMPANY
DATE. 2019-04-26 18:06:52.510000 : DATE
UWI .                            : UNIQUE WELL ID
API .                            : API NUMBER
~Curve Information -----------------------------------------
Depth              .ft          : 
KICh               .psi*in^1/2  : 
KICvup             .psi*in^1/2  : 
KICvdown           .psi*in^1/2  : 
nuh                .            : 
Eh                 .psi         : 
nuv                .            : 
Ev                 .psi         : 
Gv                 .psi         : 
Cl                 .ft/min^1/2  : 
Sigma_h            .psi         : 
SigmaH             .psi         : 
SigmaV             .psi         : 
Pore Pressure      .psi         : 
Biot               .            : 
Porosity           .            : 
Permeability       .nD          : 
SoPhi              .            : 
TensileStrength    .psi         : 
Grad_SigmaH        .psi/ft      : 
Grad_Sigma_h       .psi/ft      : 
Bulk_Density       .g/cc        : 
Std_Bulk_Density   .g/cc        : 
Std_KICh           .psi*in^1/2  : 
Std_KICvup         .psi*in^1/2  : 
Std_KICvdown       .psi*in^1/2  : 
Std_nuh            .            : 
Std_Eh             .psi         : 
Std_nuv            .            : 
Std_Ev             .psi         : 
Std_Gv             .psi         : 
Std_Cl             .ft/min^1/2  : 
Std_Sigma_h        .psi         : 
Std_SigmaH         .psi         : 
Std_SigmaV         .psi         : 
Std_Pore Pressure  .psi         : 
Std_Biot           .            : 
Std_Porosity       .            : 
Std_Permeability   .nD          : 
Std_SoPhi          .            : 
Std_TensileStrength.psi         : 
Std_Depth          .ft          : 
~Params ----------------------------------------------------
~Other -----------------------------------------------------
Exported from homogenization method
~ASCII -----------------------------------------------------
# ...
 9376.3051000000 2430.5431285295 2633.7300710736 2685.1984339430 0.2591648650 3511892.5078895800 0.2026228511 1790472.4516669051 740228.0565501684 0.0000956204 9035.7828664030 9314.6893547881 9880.4344030095 8719.7318529531 0.9000000000 0.0871849347 3030.8481027771 0.0000000000 902.1828559581 0.9934285687 0.9636826842 2.3697560019 0.0010000000 31.2903519336 31.2903519336 31.2903519336 0.0034583736 64194.2155128401 0.0034390719 62551.2314387378 24142.1856506135 0.0000448984 0.0127172081 0.0129642708 0.0000000000 0.0000000000 0.0000000000 0.0023757987 237.8513159991 0.0000000000 32.3195085281 9376.3051000000
 9385.2895000000 2462.1798926432 2527.8557297588 2696.0855918580 0.2651863518 4104927.5423749886 0.2130444702 2286473.5038402374 939317.0434667148 0.0000936865 9031.3485929223 9355.8009976284 9889.7675919328 8728.0873402700 0.9000000000 0.0799054698 3576.7742617762 0.0000000000 1048.4546989796 0.9968580082 0.9622876943 2.4091829495 0.0010000000 30.8116276057 30.8116276057 30.8116276057 0.0031436408 65450.2580880562 0.0031704919 68858.0108314424 24624.9190410613 0.0000352964 0.0098093869 0.0100626328 0.0000000000 0.0000000000 0.0000000000 0.0023770241 241.0928536621 0.0000000000 31.3328243252 9385.2895000000
 9394.2739500000 2470.2432968415 2695.9641080531 2715.1264672792 0.2655312521 4088290.2655579881 0.2146737466 2263480.9047208317 928380.7481707112 0.0000993454 9054.6456348286 9377.6949675657 9899.1815051932 8736.4428744054 0.9000000000 0.0784025021 3690.8043362740 0.0000000000 1054.9340210187 0.9982352034 0.9638473056 2.4189641574 0.0010000000 30.9294618969 30.9294618969 30.9294618969 0.0031525269 66501.1051839057 0.0032450502 69073.5186463545 25124.3531139723 0.0000358188 0.0099038658 0.0101631323 0.0000000000 0.0000000000 0.0000000000 0.0023787276 246.3032329239 0.0000000000 31.5802217663 9394.2739500000
 9403.2584500000 2465.4612904580 2609.5220694332 2599.6272814758 0.2613141424 3815350.4038103325 0.2086959682 2032467.5040412422 837228.4308217547 0.0000970504 9058.2877685320 9360.7778679917 9908.5128961774 8744.7984545821 0.9000000000 0.0837014401 3366.0294017513 0.0000000000 974.6448750935 0.9954823552 0.9633137084 2.3904827693 0.0010000000 31.0270750110 31.0270750110 31.0270750110 0.0032726290 64683.8561415287 0.0033455433 65415.4522560482 24323.8735243581 0.0000455876 0.0130393256 0.0132852162 0.0000000000 0.0000000000 0.0000000000 0.0023764999 238.1028876728 0.0000000000 31.7795207106 9403.2584500000
 9412.2429000000 2475.8875460815 2585.1293762764 2586.3069099065 0.2650203975 4158022.3606094280 0.2185201045 2339179.6021965444 959057.9953934149 0.0001019667 9074.5172907104 9403.2094105104 9917.8994389804 8753.1539880813 0.9000000000 0.0777882364 3840.2371218250 0.0000000000 1068.4498745265 0.9990402405 0.9641184771 2.4246187766 0.0010000000 30.8851154282 30.8851154282 30.8851154282 0.0031108060 66479.4171107803 0.0032643300 69511.6811884065 25101.1633069127 0.0000358295 0.0099476663 0.0102059989 0.0000000000 0.0000000000 0.0000000000 0.0023791449 245.0353892214 0.0000000000 31.4903747943 9412.2429000000
 9421.2273500000 2452.3845961783 2593.0665053380 2588.0724900244 0.2645248708 4015715.3980898471 0.2141198641 2207731.1125731086 906752.4508305456 0.0001023369 9080.8961453107 9398.4632798722 9927.3294006034 8761.5095220059 0.9000000000 0.0789311765 3805.7880384943 0.0000000000 1036.8509476172 0.9975837469 0.9638761287 2.4217412371 0.0010000000 31.0098663478 31.0098663478 31.0098663478 0.0031872407 66792.8313244250 0.0032817986 69218.7601523460 25226.7062809034 0.0000357393 0.0099488659 0.0102090505 0.0000000000 0.0000000000 0.0000000000 0.0023795308 243.9344928811 0.0000000000 31.7459945784 9421.2273500000
 9430.2118000000 2497.3297186870 2816.5943280286 2827.1493714461 0.2696117418 4583481.2778673004 0.2144977295 2572999.0150104892 1044138.4677007166 0.0000960604 9095.4806626012 9456.4950677845 9936.9129277010 8769.8650556453 0.9000000000 0.0699646435 3680.8431965634 0.0000000000 1164.1290699523 1.0027871344 0.9645043882 2.4667414840 0.0010000000 30.9040224444 30.9040224444 30.9040224444 0.0031140682 70055.6988834927 0.0032203250 77221.9531876261 26426.5554543822 0.0000380934 0.0106837509 0.0109523100 0.0000000000 0.0000000000 0.0000000000 0.0023826961 257.1385209599 0.0000000000 31.5132870662 9430.2118000000
 9439.1962500000 2395.1339882611 2608.3620364116 2590.6603088465 0.2557064856 3419724.0870078173 0.1950145962 1671599.8934710168 694111.4285031952 0.0000980803 9090.6074631762 9362.9421310475 9946.3045893759 8778.2205894298 0.9000000000 0.0863672041 3181.1782885353 0.0000000000 872.7163898439 0.9919215453 0.9630700774 2.3776563934 0.0010000000 31.7474616549 31.7474616549 31.7474616549 0.0038027181 67309.5351149190 0.0036712115 63795.0223606398 25164.0625974854 0.0000457165 0.0131585003 0.0134198961 0.0000000000 0.0000000000 0.0000000000 0.0023789101 238.4561154421 0.0000000000 33.2443039518 9439.1962500000
 9448.1807000000 2461.2843546450 2656.3743347729 2752.4991115214 0.2655697220 3969093.7963162139 0.2059641082 2120537.1300519803 868902.5189245386 0.0000932189 9096.1726107478 9409.7937196609 9955.6015660555 8786.5761232094 0.9000000000 0.0813651557 3308.2250918539 0.0000000000 1017.1618855020 0.9959371035 0.9627432941 2.4033515342 0.0010000000 30.8823050244 30.8823050244 30.8823050244 0.0031759889 65167.5507410325 0.0031655869 68159.5551036155 24577.6818164743 0.0000465077 0.0133150209 0.0135601175 0.0000000000 0.0000000000 0.0000000000 0.0023765808 242.1715129835 0.0000000000 31.4730466690 9448.1807000000
 9457.1651500000 2442.1799958209 2835.4161265955 2866.1913903319 0.2645883139 3717483.4341019965 0.2055255972 1953147.3891197369 803076.0795250532 0.0000954100 9111.4013144502 9405.3691926361 9964.9698303461 8794.9316568537 0.9000000000 0.0847018628 3181.5115310015 0.0000000000 965.1919898177 0.9945230990 0.9634389555 2.3776960864 0.0010000000 31.0478037663 31.0478037663 31.0478037663 0.0032633336 63706.8638890856 0.0032284320 63824.0259780408 24093.9926119118 0.0000450102 0.0127299204 0.0129739803 0.0000000000 0.0000000000 0.0000000000 0.0023751909 238.3972748785 0.0000000000 31.8161851585 9457.1651500000
 9466.1496000000 2472.8291232365 2872.1455931009 2903.3195140249 0.2642309234 3795755.7424609638 0.2081766168 2016798.7478909020 827989.6308296864 0.0000958067 9123.0975442311 9423.3398237316 9974.2242724606 8803.2871907735 0.9000000000 0.0846806396 3163.8599814245 0.0000000000 978.7175692042 0.9954775935 0.9637601274 2.3818645985 0.0010000000 30.8406802753 30.8406802753 30.8406802753 0.0031257454 63097.3174705887 0.0031891126 64393.7402395518 23860.7625591465 0.0000450571 0.0127507016 0.0129903338 0.0000000000 0.0000000000 0.0000000000 0.0023745707 238.0566760952 0.0000000000 31.3896857161 9466.1496000000
 9475.1340500000 2501.0266178093 2642.6883514746 2638.0773523198 0.2663648983 3981677.2707115002 0.2182088053 2224497.5750747621 910870.9278100900 0.0000990292 9137.6341354876 9452.0519842580 9983.5014369146 8811.6427242776 0.9000000000 0.0828970710 3363.8382242633 0.0000000000 1029.4520561505 0.9975639325 0.9643804602 2.3898244181 0.0010000000 30.6220781937 30.6220781937 30.6220781937 0.0029484198 62709.3945001530 0.0031069470 65265.8876389428 23783.5519256358 0.0000342443 0.0093756072 0.0096193723 0.0000000000 0.0000000000 0.0000000000 0.0023742502 237.4227924816 0.0000000000 30.9373302232 9475.1340500000
 9483.9415500000 2561.5193109002 2801.2117141919 2751.0800233657 0.2744187417 5011228.1796613885 0.2337594724 3148389.0331375874 1273199.1792760843 0.0000878804 9140.2981025126 9533.5148699293 9992.7550026251 8819.8319856241 0.9000000000 0.0716306897 3361.3334859969 0.0000000000 1251.3830819272 1.0052270799 0.9637657565 2.4496064372 0.0010000000 30.7421195658 30.7421195658 30.7421195658 0.0025815080 66317.5784976940 0.0027622221 79707.3234433774 25102.9591981138 0.0000376463 0.0105282753 0.0107753231 0.0000000000 0.0000000000 0.0000000000 0.0024430913 252.7831664577 0.0000000000 30.2008359755 9483.9415500000
 9492.5701500000 2473.8364436995 2559.6220433530 2613.4944007762 0.2740974328 4953276.8018930871 0.2256530112 3100511.5816005268 1264259.9564590291 0.0000803349 9113.3330498101 9502.1005549093 10001.9206833394 8827.8585575956 0.9000000000 0.0710747069 3523.5753405453 0.0000000000 1235.3450333970 1.0010039857 0.9600490600 2.4549961578 0.0010000000 30.0791536570 30.0791536570 30.0791536570 0.0027194901 66241.8694743511 0.0026694299 79414.2928119409 24923.2057865567 0.0000372747 0.0104649500 0.0107119344 0.0000000000 0.0000000000 0.0000000000 0.0023762299 249.6443469747 0.0000000000 29.7896814137 9492.5701500000
