~Version ---------------------------------------------------
VERS.   2.0 : CWLS log ASCII Standard -VERSION 2.0
WRAP.    NO : One line per depth step
DLM . SPACE : Column Data Section Delimiter
~Well ------------------------------------------------------
STRT.ft               8892.56685 : START DEPTH
STOP.ft        9615.059349999998 : STOP DEPTH
STEP.ft       11.445450000001074 : STEP
NULL.                   -9999.25 : NULL VALUE
COMP.                            : COMPANY
WELL.                     bypass : WELL
FLD .                            : FIELD
LOC .                            : LOCATION
PROV.                            : PROVINCE
CNTY.                            : COUNTY
STAT.                            : STATE
CTRY.                            : COUNTRY
SRVC.                            : SERVICE COMPANY
DATE. 2019-04-26 18:06:52.510000 : DATE
UWI .                            : UNIQUE WELL ID
API .                            : API NUMBER
~Curve Information -----------------------------------------
Depth              .ft          : 
KICh               .psi*in^1/2  : 
KICvup             .psi*in^1/2  : 
KICvdown           .psi*in^1/2  : 
nuh                .            : 
Eh                 .psi         : 
nuv                .            : 
Ev                 .psi         : 
Gv                 .psi         : 
Cl                 .ft/min^1/2  : 
Sigma_h            .psi         : 
SigmaH             .psi         : 
SigmaV             .psi         : 
Pore Pressure      .psi         : 
Biot               .            : 
Porosity           .            : 
Permeability       .nD          : 
SoPhi              .            : 
TensileStrength    .psi         : 
Grad_SigmaH        .psi/ft      : 
Grad_Sigma_h       .psi/ft      : 
Bulk_Density       .g/cc        : 
Std_Bulk_Density   .g/cc        : 
Std_KICh           .psi*in^1/2  : 
Std_KICvup         .psi*in^1/2  : 
Std_KICvdown       .psi*in^1/2  : 
Std_nuh            .            : 
Std_Eh             .psi         : 
Std_nuv            .            : 
Std_Ev             .psi         : 
Std_Gv             .psi         : 
Std_Cl             .ft/min^1/2  : 
Std_Sigma_h        .psi         : 
Std_SigmaH         .psi         : 
Std_SigmaV         .psi         : 
Std_Pore Pressure  .psi         : 
Std_Biot           .            : 
Std_Porosity       .            : 
Std_Permeability   .nD          : 
Std_SoPhi          .            : 
Std_TensileStrength.psi         : 
Std_Depth          .ft          : 
~Params ----------------------------------------------------
~Other -----------------------------------------------------
Exported from homogenization method
~ASCII -----------------------------------------------------
# ...
 9029.0008000000 2542.9425692406 2644.3521967483 2593.6933970126 0.2767477123 5783579.5605239971 0.2375254408 3819820.5129074170 1540358.8848819744 0.0000702010 8701.7328325090 9154.7259731764 9510.4734210200 8396.7385947562 0.9000000000 0.0586128243 2803.7326905339 0.0000000000 1396.2306336728 1.0139245943 0.9637536894 2.5266081172 0.0010000000 29.0823684968 29.0823684968 29.0823684968 0.0024944084 68646.1418767070 0.0025687603 89984.4918943249 25743.3212959583 0.0000300322 0.0074736123 0.0077374829 0.0000000000 0.0000000000 0.0000000000 0.0023166333 254.8588270594 0.0000000000 28.5746990502 9029.0008000000
 9038.5452000000 2527.3742695667 2559.7417135570 2582.1741398841 0.2764491220 5879072.9466974111 0.2381541149 3914972.8754744013 1580678.1245880108 0.0000677347 8707.7833669528 9168.3636474599 9520.9571373997 8405.6144366394 0.9000000000 0.0571222619 2708.6604370255 0.0000000000 1410.5759575418 1.0143627591 0.9634054125 2.5337094795 0.0010000000 29.0953755854 29.0953755854 29.0953755854 0.0025183690 69301.6069005909 0.0025687659 91442.1259223701 25925.8855858077 0.0000301973 0.0075643901 0.0078301179 0.0000000000 0.0000000000 0.0000000000 0.0023173822 255.8951830114 0.0000000000 28.6070656271 9038.5452000000
 9048.0896000000 2542.4573390818 2643.9961526255 2657.7515597670 0.2744543881 5650779.7761450587 0.2370898984 3663668.2876686077 1478674.6962931510 0.0000747562 8727.8072440358 9171.1953973414 9531.4138676765 8414.4902785226 0.9000000000 0.0593009970 2949.9097446019 0.0000000000 1371.3841749339 1.0136057226 0.9646022122 2.5235169987 0.0010000000 29.2282853642 29.2282853642 29.2282853642 0.0025596224 68937.0322929186 0.0027048272 87577.3536068830 25867.9248409271 0.0000302585 0.0074279113 0.0076948866 0.0000000000 0.0000000000 0.0000000000 0.0023177797 257.6993308255 0.0000000000 28.8918690132 9048.0896000000
 9057.6339500000 2513.3052084371 2600.2940162415 2602.5110724707 0.2724013411 5297027.8691499140 0.2300935251 3327079.5035313568 1349214.6192946709 0.0000801362 8724.0931096581 9140.3947668474 9541.8050553989 8423.3671714547 0.9000000000 0.0648594610 3391.1108339967 0.0000000000 1295.6035504150 1.0091371342 0.9631757209 2.4931835065 0.0010000000 28.6015959727 28.6015959727 28.6015959727 0.0025841425 65511.8292213297 0.0026799425 80428.3962031555 24556.8206581432 0.0000374077 0.0105319733 0.0107728144 0.0000000000 0.0000000000 0.0000000000 0.0022577821 249.4688338698 0.0000000000 28.3959120215 9057.6339500000
 9067.1783000000 2546.5151873447 2628.6014775706 2605.9262989840 0.2801298273 5852296.9907548828 0.2396060298 3962371.7170349271 1596137.5737876163 0.0000667772 8732.0104074038 9189.1747407491 9552.1676118040 8432.2451730464 0.9000000000 0.0592646013 2660.1090058392 0.0000000000 1415.8651197577 1.0134547305 0.9630350390 2.5178456841 0.0010000000 28.8832123356 28.8832123356 28.8832123356 0.0023852148 67416.0451708555 0.0023867297 90461.1657814568 25350.6610905904 0.0000293241 0.0073819058 0.0076403857 0.0000000000 0.0000000000 0.0000000000 0.0023141328 247.9729761758 0.0000000000 28.1443561457 9067.1783000000
 9076.7227000000 2578.3258391405 2719.5813206040 2708.5316029014 0.2835125974 6297312.8565084524 0.2392584810 4349888.5374841187 1739842.2022482480 0.0000582634 8741.4139975509 9232.0451662136 9562.6624025648 8441.1210149296 0.9000000000 0.0539866536 2245.9375638911 0.0000000000 1489.9416205609 1.0171121749 0.9630583952 2.5463511907 0.0010000000 28.6909818664 28.6909818664 28.6909818664 0.0023022725 68590.9866559851 0.0022528305 100052.0629073233 25684.0044747566 0.0000293699 0.0078539061 0.0081071285 0.0000000000 0.0000000000 0.0000000000 0.0023137368 244.2566096376 0.0000000000 27.7168870407 9076.7227000000
 9086.2671000000 2581.0433532965 2694.3044484277 2661.4133115667 0.2805462583 6045316.5691046547 0.2448392503 4163098.3093124870 1671037.6922723071 0.0000656719 8761.6948808902 9233.7837671835 9573.1425231294 8449.9968568128 0.9000000000 0.0573118971 2457.6211370543 0.0000000000 1451.1156625595 1.0162351234 0.9642788160 2.5269103776 0.0010000000 28.7654883015 28.7654883015 28.7654883015 0.0022975497 67242.5256260942 0.0023607534 92186.3813020080 25285.6097373840 0.0000292683 0.0074502747 0.0077060994 0.0000000000 0.0000000000 0.0000000000 0.0023137049 246.7179928249 0.0000000000 27.8873617796 9086.2671000000
 9095.8115000000 2542.1646898629 2616.5736066959 2582.3861195573 0.2734309294 5553503.2395672714 0.2370342464 3568572.6890640482 1440785.0069704873 0.0000786681 8777.5758921943 9213.6814642526 9583.5816672482 8458.8726986961 0.9000000000 0.0606971092 3085.3705864273 0.0000000000 1350.7746659244 1.0129587079 0.9650129504 2.5154762201 0.0010000000 29.2839242250 29.2839242250 29.2839242250 0.0025768808 68466.6133156055 0.0027644053 85480.8974074306 25707.7949171748 0.0000302746 0.0073441227 0.0076099891 0.0000000000 0.0000000000 0.0000000000 0.0023176649 258.5427054641 0.0000000000 29.0113775433 9095.8115000000
 9105.3559000000 2536.3917506401 2647.9629593656 2614.4524021842 0.2759974679 5592089.8701510364 0.2371528275 3624395.0696213618 1461579.6994546701 0.0000759798 8785.1913934616 9223.4438203474 9594.0083450013 8467.7485405793 0.9000000000 0.0594371014 2959.2527734063 0.0000000000 1370.2429496002 1.0129690615 0.9648377823 2.5227809976 0.0010000000 29.2259606335 29.2259606335 29.2259606335 0.0025356052 69056.2665795924 0.0026624633 87398.6086653789 26014.4942425338 0.0000302150 0.0073995005 0.0076687332 0.0000000000 0.0000000000 0.0000000000 0.0023176384 257.4733691476 0.0000000000 28.8853656244 9105.3559000000
 9114.9003000000 2512.8034659569 2712.9518321469 2643.9490340222 0.2729387977 5317558.4024371766 0.2295772689 3311649.5029309182 1340587.1197969110 0.0000803395 8787.3922217812 9205.1309545613 9604.4430046349 8476.6243824625 0.9000000000 0.0624604689 3280.9311989846 0.0000000000 1308.3392559581 1.0098992476 0.9640689347 2.5078316780 0.0010000000 29.4806890341 29.4806890341 29.4806890341 0.0027071627 69055.8706437046 0.0028234056 84052.3617708991 25941.6986076188 0.0000390023 0.0110345125 0.0112900056 0.0000000000 0.0000000000 0.0000000000 0.0023185649 258.8202168431 0.0000000000 29.4274547870 9114.9003000000
 9124.4447000000 2475.4066194562 2616.9797124229 2666.2786901504 0.2695464664 4863813.8107777685 0.2235212714 2913950.2707091998 1187615.1716256312 0.0000873830 8788.5152186269 9171.6294991476 9614.7560449721 8485.5002243457 0.9000000000 0.0685123930 3703.9747564039 0.0000000000 1214.4300712912 1.0051712516 0.9631835698 2.4764093940 0.0010000000 29.7197005356 29.7197005356 29.7197005356 0.0028634863 67757.1918183534 0.0029556244 77759.0261220326 25447.1733245865 0.0000376390 0.0105078986 0.0107645512 0.0000000000 0.0000000000 0.0000000000 0.0023178856 254.7820451761 0.0000000000 29.9321009811 9124.4447000000
 9133.9891000000 2519.6468927991 2721.6635532730 2769.6031594318 0.2709370841 5124054.9142415095 0.2201470347 3067495.0144521850 1243326.9144591510 0.0000800698 8793.5437658585 9196.7151720938 9625.0458158001 8494.3793467681 0.9000000000 0.0666470475 3299.9177670263 0.0000000000 1253.9932757684 1.0068673250 0.9627276395 2.4850579480 0.0010000000 28.7857181705 28.7857181705 28.7857181705 0.0027300138 65965.4908677208 0.0028005772 79231.0255380141 24667.8468844543 0.0000369397 0.0105014627 0.0107454287 0.0000000000 0.0000000000 0.0000000000 0.0022580219 243.7530337624 0.0000000000 28.7821325329 9133.9891000000
 9143.5335000000 2506.8739528852 2665.6509391334 2700.1618121396 0.2691147028 4964702.7730865004 0.2247681237 2969287.2663413957 1204455.1667386419 0.0000884237 8816.3048344356 9207.4990079971 9635.3165638836 8503.2552112072 0.9000000000 0.0681951061 3556.2892758483 0.0000000000 1227.3304174990 1.0069957099 0.9642120122 2.4732357248 0.0010000000 29.6681372376 29.6681372376 29.6681372376 0.0028295820 66950.7232679912 0.0030163006 77210.7460340764 25110.6903009111 0.0000372677 0.0104641146 0.0107157877 0.0000000000 0.0000000000 0.0000000000 0.0023170273 250.2453007864 0.0000000000 29.8218869108 9143.5335000000
